$GPZDA,050956,17,11,2012,00,00*40
$GPGGA,050956.876,3038.0513,N,10404.6809,E,1,05,1.6,452.9,M,-31.9,M,0.0,0000*53
$GPGSA,A,3,04,10,02,17,05,,,,,,,,4.1,1.6,3.7*30
$GPRMC,050956.876,A,3038.0513,N,10404.6809,E,0.07,117.03,171112,,*0A
$GPZDA,050957,17,11,2012,00,00*41
$GPGGA,050957.876,3038.0514,N,10404.6809,E,1,05,1.6,452.2,M,-31.9,M,0.0,0000*5E
$GPGSA,A,3,04,10,02,17,05,,,,,,,,4.1,1.6,3.7*30
$GPGSV,3,1,09,10,76,133,44,04,55,023,44,02,49,293,43,17,44,100,46*73
$GPGSV,3,2,09,05,28,207,38,29,16,122,00,13,08,148,36,28,07,162,00*77
$GPGSV,3,3,09,23,06,052,00*40
$GPRMC,050957.876,A,3038.0514,N,10404.6809,E,0.09,108.31,171112,,*0D
$GPMSS,0,0,0.000000,0,*58
$GPZDA,050958,17,11,2012,00,00*4E
$GPGGA,050958.876,3038.0516,N,10404.6809,E,1,05,1.6,451.6,M,-31.9,M,0.0,0000*54
$GPGSA,A,3,04,10,02,17,05,,,,,,,,4.1,1.6,3.7*30
$GPRMC,050958.876,A,3038.0516,N,10404.6809,E,0.08,106.70,171112,,*0A
$GPZDA,050959,17,11,2012,00,00*4F
$GPGGA,050959.876,3038.0517,N,10404.6809,E,1,05,1.6,451.0,M,-31.9,M,0.0,0000*52
$GPGSA,A,3,04,10,02,17,05,,,,,,,,4.1,1.6,3.7*30
$GPRMC,050959.876,A,3038.0517,N,10404.6809,E,0.07,101.48,171112,,*09
$GPZDA,051000,17,11,2012,00,00*4B
$GPGGA,051000.876,3038.0518,N,10404.6809,E,1,05,1.6,450.4,M,-31.9,M,0.0,0000*5C
$GPGSA,A,3,04,10,02,17,05,,,,,,,,4.1,1.6,3.7*30
$GPRMC,051000.876,A,3038.0518,N,10404.6809,E,0.07,113.76,171112,,*0C
$GPZDA,051001,17,11,2012,00,00*4A
$GPGGA,051001.876,3038.0518,N,10404.6809,E,1,05,1.6,449.9,M,-31.9,M,0.0,0000*58
$GPGSA,A,3,04,10,02,17,05,,,,,,,,4.1,1.6,3.7*30
$GPRMC,051001.876,A,3038.0518,N,10404.6809,E,0.08,116.19,171112,,*0E
$GPZDA,051002,17,11,2012,00,00*49
$GPGGA,051002.876,3038.0518,N,10404.6810,E,1,05,1.6,449.4,M,-31.9,M,0.0,0000*5E
$GPGSA,A,3,04,10,02,17,05,,,,,,,,4.1,1.6,3.7*30
$GPGSV,3,1,09,10,76,133,44,04,55,023,45,02,49,293,43,17,44,100,46*72
$GPGSV,3,2,09,05,28,207,38,29,16,122,00,13,08,148,37,28,07,162,00*76
$GPGSV,3,3,09,23,06,052,00*40
$GPRMC,051002.876,A,3038.0518,N,10404.6810,E,0.07,99.38,171112,,*3F
$GPMSS,0,0,0.000000,0,*58
$GPZDA,051003,17,11,2012,00,00*48
$GPGGA,051003.876,3038.0518,N,10404.6810,E,1,05,1.6,449.1,M,-31.9,M,0.0,0000*5A
$GPGSA,A,3,04,10,02,17,05,,,,,,,,4.1,1.6,3.7*30
$GPRMC,051003.876,A,3038.0518,N,10404.6810,E,0.08,119.16,171112,,*04
$GPZDA,051004,17,11,2012,00,00*4F
$GPGGA,051004.876,3038.0517,N,10404.6810,E,1,05,1.6,448.8,M,-31.9,M,0.0,0000*5A
$GPGSA,A,3,04,10,02,17,05,,,,,,,,4.1,1.6,3.7*30
$GPRMC,051004.876,A,3038.0517,N,10404.6810,E,0.08,100.94,171112,,*0E
$GPZDA,051005,17,11,2012,00,00*4E
$GPGGA,051005.876,3038.0517,N,10404.6811,E,1,05,1.6,448.6,M,-31.9,M,0.0,0000*54
$GPGSA,A,3,04,10,02,17,05,,,,,,,,4.1,1.6,3.7*30
$GPRMC,051005.876,A,3038.0517,N,10404.6811,E,0.08,102.27,171112,,*04
$GPZDA,051006,17,11,2012,00,00*4D
$GPGGA,051006.875,3038.0516,N,10404.6811,E,1,05,1.6,448.5,M,-31.9,M,0.0,0000*56
$GPGSA,A,3,04,10,02,17,05,,,,,,,,4.1,1.6,3.7*30
$GPRMC,051006.875,A,3038.0516,N,10404.6811,E,0.07,107.49,171112,,*07
$GPZDA,051007,17,11,2012,00,00*4C
$GPGGA,051007.875,3038.0515,N,10404.6812,E,1,05,1.6,448.3,M,-31.9,M,0.0,0000*51
$GPGSA,A,3,04,10,02,17,05,,,,,,,,4.1,1.6,3.7*30
$GPGSV,3,1,09,10,76,133,43,04,55,023,45,02,49,293,45,17,44,100,47*72
$GPGSV,3,2,09,05,28,207,38,29,16,122,00,13,08,148,36,28,07,162,00*77
$GPGSV,3,3,09,23,06,052,00*40
$GPRMC,051007.875,A,3038.0515,N,10404.6812,E,0.08,116.87,171112,,*0B
$GPMSS,0,0,0.000000,0,*58
$GPZDA,051008,17,11,2012,00,00*43
$GPGGA,051008.875,3038.0514,N,10404.6813,E,1,05,1.6,448.1,M,-31.9,M,0.0,0000*5C
$GPGSA,A,3,04,10,02,17,05,,,,,,,,4.1,1.6,3.7*30
$GPRMC,051008.875,A,3038.0514,N,10404.6813,E,0.08,100.74,171112,,*0F
$GPZDA,051009,17,11,2012,00,00*42
$GPGGA,051009.875,3038.0514,N,10404.6814,E,1,05,1.6,447.7,M,-31.9,M,0.0,0000*53
$GPGSA,A,3,04,10,02,17,05,,,,,,,,4.1,1.6,3.7*30
$GPRMC,051009.875,A,3038.0514,N,10404.6814,E,0.07,114.73,171112,,*04
$GPZDA,051010,17,11,2012,00,00*4A
$GPGGA,051010.875,3038.0513,N,10404.6815,E,1,05,1.6,447.3,M,-31.9,M,0.0,0000*59
$GPGSA,A,3,04,10,02,17,05,,,,,,,,4.1,1.6,3.7*30
$GPRMC,051010.875,A,3038.0513,N,10404.6815,E,0.08,113.25,171112,,*01
$GPZDA,051011,17,11,2012,00,00*4B
$GPGGA,051011.875,3038.0512,N,10404.6816,E,1,05,1.6,446.9,M,-31.9,M,0.0,0000*51
$GPGSA,A,3,04,10,02,17,05,,,,,,,,4.1,1.6,3.7*30
$GPRMC,051011.875,A,3038.0512,N,10404.6816,E,0.07,112.41,171112,,*0E
$GPZDA,051012,17,11,2012,00,00*48
$GPGGA,051012.875,3038.0512,N,10404.6817,E,1,05,1.6,446.5,M,-31.9,M,0.0,0000*5F
$GPGSA,A,3,04,10,02,17,05,,,,,,,,4.1,1.6,3.7*30
$GPGSV,3,1,09,10,76,133,43,04,55,023,45,02,49,293,45,17,44,100,46*73
$GPGSV,3,2,09,05,28,207,37,29,16,122,00,13,08,148,34,28,07,162,00*7A
$GPGSV,3,3,09,23,06,052,00*40
$GPRMC,051012.875,A,3038.0512,N,10404.6817,E,0.08,123.53,171112,,*02
$GPMSS,0,0,0.000000,0,*58
$GPZDA,051013,17,11,2012,00,00*49
$GPGGA,051013.875,3038.0512,N,10404.6818,E,1,05,1.6,446.1,M,-31.9,M,0.0,0000*55
$GPGSA,A,3,04,10,02,17,05,,,,,,,,4.1,1.6,3.7*30
$GPRMC,051013.875,A,3038.0512,N,10404.6818,E,0.07,105.83,171112,,*0A
$GPZDA,051014,17,11,2012,00,00*4E
$GPGGA,051014.875,3038.0512,N,10404.6819,E,1,05,1.6,445.8,M,-31.9,M,0.0,0000*59
$GPGSA,A,3,04,10,02,17,05,,,,,,,,4.1,1.6,3.7*30
$GPRMC,051014.875,A,3038.0512,N,10404.6819,E,0.08,112.60,171112,,*08
$GPZDA,051015,17,11,2012,00,00*4F
$GPGGA,051015.875,3038.0511,N,10404.6819,E,1,05,1.6,445.5,M,-31.9,M,0.0,0000*56
$GPGSA,A,3,04,10,02,17,05,,,,,,,,4.1,1.6,3.7*30
$GPRMC,051015.875,A,3038.0511,N,10404.6819,E,0.08,120.48,171112,,*01
$GPZDA,051016,17,11,2012,00,00*4C
$GPGGA,051016.875,3038.0510,N,10404.6820,E,1,05,1.6,445.4,M,-31.9,M,0.0,0000*5F
$GPGSA,A,3,04,10,02,17,05,,,,,,,,4.1,1.6,3.7*30
$GPRMC,051016.875,A,3038.0510,N,10404.6820,E,0.07,110.69,171112,,*06
$GPZDA,051017,17,11,2012,00,00*4D
$GPGGA,051017.875,3038.0510,N,10404.6820,E,1,05,1.6,445.4,M,-31.9,M,0.0,0000*5E
$GPGSA,A,3,04,10,02,17,05,,,,,,,,4.1,1.6,3.7*30
$GPGSV,3,1,10,10,76,131,44,04,55,024,46,02,50,294,45,17,43,100,46*72
$GPGSV,3,2,10,05,29,207,39,31,18,115,00,29,16,122,00,13,08,147,33*73
$GPGSV,3,3,10,28,07,162,00,23,06,052,00*70
$GPRMC,051017.875,A,3038.0510,N,10404.6820,E,0.08,107.54,171112,,*00
$GPMSS,0,0,0.000000,0,*58
$GPZDA,051018,17,11,2012,00,00*42
$GPGGA,051018.875,3038.0510,N,10404.6820,E,1,05,1.6,445.5,M,-31.9,M,0.0,0000*50
$GPGSA,A,3,04,10,02,17,05,,,,,,,,4.1,1.6,3.7*30
$GPRMC,051018.875,A,3038.0510,N,10404.6820,E,0.08,107.69,171112,,*01
$GPZDA,051019,17,11,2012,00,00*43
$GPGGA,051019.875,3038.0510,N,10404.6820,E,1,05,1.6,445.9,M,-31.9,M,0.0,0000*5D
$GPGSA,A,3,04,10,02,17,05,,,,,,,,4.1,1.6,3.7*30
$GPRMC,051019.875,A,3038.0510,N,10404.6820,E,0.08,114.71,171112,,*0B
$GPZDA,051020,17,11,2012,00,00*49
$GPGGA,051020.875,3038.0510,N,10404.6820,E,1,05,1.6,446.4,M,-31.9,M,0.0,0000*59
$GPGSA,A,3,04,10,02,17,05,,,,,,,,4.1,1.6,3.7*30
$GPRMC,051020.875,A,3038.0510,N,10404.6820,E,0.07,112.85,171112,,*03
$GPZDA,051021,17,11,2012,00,00*48
$GPGGA,051021.875,3038.0510,N,10404.6821,E,1,05,1.6,447.0,M,-31.9,M,0.0,0000*5C
$GPGSA,A,3,04,10,02,17,05,,,,,,,,4.1,1.6,3.7*30
$GPRMC,051021.875,A,3038.0510,N,10404.6821,E,0.07,106.98,171112,,*0A
$GPZDA,051022,17,11,2012,00,00*4B
$GPGGA,051022.875,3038.0510,N,10404.6821,E,1,05,1.6,447.6,M,-31.9,M,0.0,0000*59
$GPGSA,A,3,04,10,02,17,05,,,,,,,,4.1,1.6,3.7*30
$GPGSV,3,1,10,10,76,131,42,04,55,024,45,02,50,294,45,17,43,100,46*77
$GPGSV,3,2,10,05,29,207,39,31,18,115,00,29,16,122,00,13,08,147,32*72
$GPGSV,3,3,10,28,07,162,00,23,06,052,00*70
$GPRMC,051022.875,A,3038.0510,N,10404.6821,E,0.07,110.84,171112,,*03
$GPMSS,0,0,0.000000,0,*58
$GPZDA,051023,17,11,2012,00,00*4A
$GPGGA,051023.875,3038.0510,N,10404.6821,E,1,05,1.6,448.2,M,-31.9,M,0.0,0000*53
$GPGSA,A,3,04,10,02,17,05,,,,,,,,4.1,1.6,3.7*30
$GPRMC,051023.875,A,3038.0510,N,10404.6821,E,0.07,110.63,171112,,*0B
$GPZDA,051024,17,11,2012,00,00*4D
$GPGGA,051024.875,3038.0510,N,10404.6821,E,1,05,1.6,449.0,M,-31.9,M,0.0,0000*57
$GPGSA,A,3,04,10,02,17,05,,,,,,,,4.1,1.6,3.7*30
$GPRMC,051024.875,A,3038.0510,N,10404.6821,E,0.08,114.12,171112,,*01
$GPZDA,051025,17,11,2012,00,00*4C
$GPGGA,051025.874,3038.0511,N,10404.6822,E,1,05,1.6,449.8,M,-31.9,M,0.0,0000*5D
$GPGSA,A,3,04,10,02,17,05,,,,,,,,4.1,1.6,3.7*30
$GPRMC,051025.874,A,3038.0511,N,10404.6822,E,0.09,121.73,171112,,*03
$GPZDA,051026,17,11,2012,00,00*4F
$GPGGA,051026.874,3038.0511,N,10404.6822,E,1,05,1.6,450.5,M,-31.9,M,0.0,0000*5B
$GPGSA,A,3,04,10,02,17,05,,,,,,,,4.1,1.6,3.7*30
$GPRMC,051026.874,A,3038.0511,N,10404.6822,E,0.08,116.69,171112,,*0E
$GPZDA,051027,17,11,2012,00,00*4E
$GPGGA,051027.874,3038.0511,N,10404.6821,E,1,06,1.4,452.4,M,-31.9,M,0.0,0000*5B
$GPGSA,A,3,04,13,10,02,17,05,,,,,,,2.5,1.4,2.0*34
$GPGSV,3,1,10,10,76,131,42,04,55,024,45,02,50,294,44,17,43,100,46*76
$GPGSV,3,2,10,05,29,207,39,31,18,115,00,29,16,121,00,13,15,084,30*71
$GPGSV,3,3,10,28,07,162,00,23,06,052,00*70
$GPRMC,051027.874,A,3038.0511,N,10404.6821,E,0.09,118.23,171112,,*0D
$GPMSS,0,0,0.000000,0,*58
$GPZDA,051028,17,11,2012,00,00*41
$GPGGA,051028.874,3038.0510,N,10404.6820,E,1,06,1.4,454.5,M,-31.9,M,0.0,0000*53
$GPGSA,A,3,04,13,10,02,17,05,,,,,,,2.5,1.4,2.0*34
$GPRMC,051028.874,A,3038.0510,N,10404.6820,E,0.08,95.79,171112,,*38
$GPZDA,051029,17,11,2012,00,00*40
$GPGGA,051029.874,3038.0509,N,10404.6818,E,1,06,1.4,456.8,M,-31.9,M,0.0,0000*5E
$GPGSA,A,3,04,13,10,02,17,05,,,,,,,2.5,1.4,2.0*34
$GPRMC,051029.874,A,3038.0509,N,10404.6818,E,0.10,120.87,171112,,*0D
$GPZDA,051030,17,11,2012,00,00*48
$GPGGA,051030.874,3038.0508,N,10404.6817,E,1,06,1.4,459.0,M,-31.9,M,0.0,0000*5F
$GPGSA,A,3,04,13,10,02,17,05,,,,,,,2.5,1.4,2.0*34
$GPRMC,051030.874,A,3038.0508,N,10404.6817,E,0.08,101.48,171112,,*02
$GPZDA,051031,17,11,2012,00,00*49
$GPGGA,051031.874,3038.0507,N,10404.6816,E,1,06,1.4,461.1,M,-31.9,M,0.0,0000*5A
$GPGSA,A,3,04,13,10,02,17,05,,,,,,,2.5,1.4,2.0*34
$GPRMC,051031.874,A,3038.0507,N,10404.6816,E,0.09,111.59,171112,,*0D
$GPZDA,051032,17,11,2012,00,00*4A
$GPGGA,051032.874,3038.0506,N,10404.6816,E,1,05,1.6,462.7,M,-31.9,M,0.0,0000*5C
$GPGSA,A,3,04,10,02,17,05,,,,,,,,4.1,1.6,3.7*30
$GPGSV,3,1,10,10,76,131,42,04,55,024,46,02,50,294,44,17,43,100,45*76
$GPGSV,3,2,10,05,29,207,40,31,18,115,00,29,16,121,00,13,15,084,27*79
$GPGSV,3,3,10,28,07,162,00,23,06,052,00*70
$GPRMC,051032.874,A,3038.0506,N,10404.6816,E,0.09,113.77,171112,,*01
$GPMSS,0,0,0.000000,0,*58
$GPZDA,051033,17,11,2012,00,00*4B
$GPGGA,051033.874,3038.0506,N,10404.6817,E,1,05,1.6,463.9,M,-31.9,M,0.0,0000*53
$GPGSA,A,3,04,10,02,17,05,,,,,,,,4.1,1.6,3.7*30
$GPRMC,051033.874,A,3038.0506,N,10404.6817,E,0.08,121.86,171112,,*0F
$GPZDA,051034,17,11,2012,00,00*4C
$GPGGA,051034.874,3038.0505,N,10404.6818,E,1,05,1.6,465.1,M,-31.9,M,0.0,0000*56
$GPGSA,A,3,04,10,02,17,05,,,,,,,,4.1,1.6,3.7*30
$GPRMC,051034.874,A,3038.0505,N,10404.6818,E,0.07,115.35,171112,,*04
$GPZDA,051035,17,11,2012,00,00*4D
$GPGGA,051035.874,3038.0504,N,10404.6820,E,1,05,1.6,466.1,M,-31.9,M,0.0,0000*5E
$GPGSA,A,3,04,10,02,17,05,,,,,,,,4.1,1.6,3.7*30
$GPRMC,051035.874,A,3038.0504,N,10404.6820,E,0.09,113.01,171112,,*00
$GPZDA,051036,17,11,2012,00,00*4E
$GPGGA,051036.874,3038.0503,N,10404.6822,E,1,05,1.6,467.0,M,-31.9,M,0.0,0000*58
$GPGSA,A,3,04,10,02,17,05,,,,,,,,4.1,1.6,3.7*30
$GPRMC,051036.874,A,3038.0503,N,10404.6822,E,0.09,119.35,171112,,*0B
$GPZDA,051037,17,11,2012,00,00*4F
$GPGGA,051037.874,3038.0501,N,10404.6824,E,1,05,1.6,468.0,M,-31.9,M,0.0,0000*52
$GPGSA,A,3,04,10,02,17,05,,,,,,,,4.1,1.6,3.7*30
$GPGSV,3,1,10,10,76,131,41,04,55,024,47,02,50,294,45,17,43,100,45*75
$GPGSV,3,2,10,05,29,207,40,31,18,115,00,29,16,121,00,13,15,084,25*7B
$GPGSV,3,3,10,28,07,162,00,23,06,052,00*70
$GPRMC,051037.874,A,3038.0501,N,10404.6824,E,0.08,108.77,171112,,*09
$GPMSS,0,0,0.000000,0,*58
$GPZDA,051038,17,11,2012,00,00*40
$GPGGA,051038.874,3038.0500,N,10404.6826,E,1,05,1.6,468.7,M,-31.9,M,0.0,0000*59
$GPGSA,A,3,04,10,02,17,05,,,,,,,,4.1,1.6,3.7*30
$GPRMC,051038.874,A,3038.0500,N,10404.6826,E,0.09,103.56,171112,,*0C
$GPZDA,051039,17,11,2012,00,00*41
$GPGGA,051039.874,3038.0498,N,10404.6828,E,1,05,1.6,469.3,M,-31.9,M,0.0,0000*53
$GPGSA,A,3,04,10,02,17,05,,,,,,,,4.1,1.6,3.7*30
$GPRMC,051039.874,A,3038.0498,N,10404.6828,E,0.08,103.97,171112,,*0F
$GPZDA,051040,17,11,2012,00,00*4F
$GPGGA,051040.874,3038.0496,N,10404.6829,E,1,05,1.6,469.8,M,-31.9,M,0.0,0000*59
$GPGSA,A,3,04,10,02,17,05,,,,,,,,4.1,1.6,3.7*30
$GPRMC,051040.874,A,3038.0496,N,10404.6829,E,0.09,111.66,171112,,*02
$GPZDA,051041,17,11,2012,00,00*4E
$GPGGA,051041.874,3038.0495,N,10404.6831,E,1,05,1.6,470.2,M,-31.9,M,0.0,0000*50
$GPGSA,A,3,04,10,02,17,05,,,,,,,,4.1,1.6,3.7*30
$GPRMC,051041.874,A,3038.0495,N,10404.6831,E,0.08,102.24,171112,,*0C
$GPZDA,051042,17,11,2012,00,00*4D
$GPGGA,051042.874,3038.0494,N,10404.6833,E,1,05,1.6,470.5,M,-31.9,M,0.0,0000*57
$GPGSA,A,3,04,10,02,17,05,,,,,,,,4.1,1.6,3.7*30
$GPGSV,3,1,10,10,76,130,40,04,55,024,46,02,50,294,43,17,43,100,45*72
$GPGSV,3,2,10,05,29,207,40,31,17,116,00,29,16,121,00,13,15,084,00*70
$GPGSV,3,3,10,28,07,162,00,23,06,051,00*73
$GPRMC,051042.874,A,3038.0494,N,10404.6833,E,0.08,117.00,171112,,*0E
$GPMSS,0,0,0.000000,0,*58
$GPZDA,051043,17,11,2012,00,00*4C
$GPGGA,051043.873,3038.0494,N,10404.6834,E,1,05,1.6,470.7,M,-31.9,M,0.0,0000*54
$GPGSA,A,3,04,10,02,17,05,,,,,,,,4.1,1.6,3.7*30
$GPRMC,051043.873,A,3038.0494,N,10404.6834,E,0.08,102.03,171112,,*08
$GPZDA,051044,17,11,2012,00,00*4B
$GPGGA,051044.873,3038.0495,N,10404.6835,E,1,05,1.6,470.8,M,-31.9,M,0.0,0000*5C
$GPGSA,A,3,04,10,02,17,05,,,,,,,,4.1,1.6,3.7*30
$GPRMC,051044.873,A,3038.0495,N,10404.6835,E,0.09,106.20,171112,,*0B
$GPZDA,051045,17,11,2012,00,00*4A
$GPGGA,051045.873,3038.0496,N,10404.6835,E,1,05,1.6,470.8,M,-31.9,M,0.0,0000*5E
$GPGSA,A,3,04,10,02,17,05,,,,,,,,4.1,1.6,3.7*30
$GPRMC,051045.873,A,3038.0496,N,10404.6835,E,0.08,103.43,171112,,*08
$GPZDA,051046,17,11,2012,00,00*49
$GPGGA,051046.873,3038.0498,N,10404.6836,E,1,05,1.6,470.7,M,-31.9,M,0.0,0000*5F
$GPGSA,A,3,04,10,02,17,05,,,,,,,,4.1,1.6,3.7*30
$GPRMC,051046.873,A,3038.0498,N,10404.6836,E,0.09,100.96,171112,,*0C
$GPZDA,051047,17,11,2012,00,00*48
$GPGGA,051047.873,3038.0500,N,10404.6836,E,1,05,1.6,470.4,M,-31.9,M,0.0,0000*5D
$GPGSA,A,3,04,10,02,17,05,,,,,,,,4.1,1.6,3.7*30
$GPGSV,3,1,10,10,76,130,41,04,55,024,45,02,50,294,43,17,43,100,45*70
$GPGSV,3,2,10,05,29,207,40,31,17,116,00,29,17,121,00,13,15,084,00*71
$GPGSV,3,3,10,28,07,162,00,23,06,051,00*73
$GPRMC,051047.873,A,3038.0500,N,10404.6836,E,0.06,102.98,171112,,*0E
$GPMSS,0,0,0.000000,0,*58
$GPZDA,051048,17,11,2012,00,00*47
$GPGGA,051048.873,3038.0503,N,10404.6837,E,1,05,1.6,469.8,M,-31.9,M,0.0,0000*54
$GPGSA,A,3,04,10,02,17,05,,,,,,,,4.1,1.6,3.7*30
$GPRMC,051048.873,A,3038.0503,N,10404.6837,E,0.09,99.53,171112,,*38
$GPZDA,051049,17,11,2012,00,00*46
$GPGGA,051049.873,3038.0506,N,10404.6837,E,1,05,1.6,469.1,M,-31.9,M,0.0,0000*59
$GPGSA,A,3,04,10,02,17,05,,,,,,,,4.1,1.6,3.7*30
$GPRMC,051049.873,A,3038.0506,N,10404.6837,E,0.07,99.31,171112,,*36
$GPZDA,051050,17,11,2012,00,00*4E
$GPGGA,051050.873,3038.0509,N,10404.6837,E,1,05,1.6,468.4,M,-31.9,M,0.0,0000*5A
$GPGSA,A,3,04,10,02,17,05,,,,,,,,4.1,1.6,3.7*30
$GPRMC,051050.873,A,3038.0509,N,10404.6837,E,0.08,101.99,171112,,*0C
$GPZDA,051051,17,11,2012,00,00*4F
$GPGGA,051051.873,3038.0512,N,10404.6837,E,1,05,1.6,467.6,M,-31.9,M,0.0,0000*5C
$GPGSA,A,3,04,10,02,17,05,,,,,,,,4.1,1.6,3.7*30
$GPRMC,051051.873,A,3038.0512,N,10404.6837,E,0.07,97.73,171112,,*32
$GPZDA,051052,17,11,2012,00,00*4C
$GPGGA,051052.873,3038.0516,N,10404.6837,E,1,05,1.6,467.0,M,-31.9,M,0.0,0000*5D
$GPGSA,A,3,04,10,02,17,05,,,,,,,,4.1,1.6,3.7*30
$GPGSV,3,1,10,10,76,130,41,04,55,024,46,02,50,294,43,17,43,100,44*72
$GPGSV,3,2,10,05,29,207,41,31,17,116,00,29,17,121,00,13,15,084,00*70
$GPGSV,3,3,10,28,07,162,00,23,06,051,00*73
$GPRMC,051052.873,A,3038.0516,N,10404.6837,E,0.08,97.47,171112,,*3D
$GPMSS,0,0,0.000000,0,*58
$GPZDA,051053,17,11,2012,00,00*4D
$GPGGA,051053.873,3038.0519,N,10404.6837,E,1,05,1.6,466.4,M,-31.9,M,0.0,0000*56
$GPGSA,A,3,04,10,02,17,05,,,,,,,,4.1,1.6,3.7*30
$GPRMC,051053.873,A,3038.0519,N,10404.6837,E,0.08,99.92,171112,,*35
$GPZDA,051054,17,11,2012,00,00*4A
$GPGGA,051054.873,3038.0522,N,10404.6836,E,1,05,1.6,466.0,M,-31.9,M,0.0,0000*5C
$GPGSA,A,3,04,10,02,17,05,,,,,,,,4.1,1.6,3.7*30
$GPRMC,051054.873,A,3038.0522,N,10404.6836,E,0.08,95.12,171112,,*3F
$GPZDA,051055,17,11,2012,00,00*4B
$GPGGA,051055.873,3038.0525,N,10404.6836,E,1,05,1.6,465.7,M,-31.9,M,0.0,0000*5E
$GPGSA,A,3,04,10,02,17,05,,,,,,,,4.1,1.6,3.7*30
$GPRMC,051055.873,A,3038.0525,N,10404.6836,E,0.06,101.35,171112,,*0E
$GPZDA,051056,17,11,2012,00,00*48
$GPGGA,051056.873,3038.0528,N,10404.6835,E,1,05,1.6,465.2,M,-31.9,M,0.0,0000*56
$GPGSA,A,3,04,10,02,17,05,,,,,,,,4.1,1.6,3.7*30
$GPRMC,051056.873,A,3038.0528,N,10404.6835,E,0.08,103.32,171112,,*08
$GPZDA,051057,17,11,2012,00,00*49
$GPGGA,051057.873,3038.0530,N,10404.6834,E,1,05,1.6,464.8,M,-31.9,M,0.0,0000*54
$GPGSA,A,3,04,10,02,17,05,,,,,,,,4.1,1.6,3.7*30
$GPGSV,3,1,10,10,76,130,41,04,55,024,46,02,50,294,43,17,43,100,46*70
$GPGSV,3,2,10,05,29,207,41,31,17,116,00,29,17,121,00,13,15,084,00*70
$GPGSV,3,3,10,28,07,162,00,23,06,051,00*73
$GPRMC,051057.873,A,3038.0530,N,10404.6834,E,0.07,102.10,171112,,*0F
$GPMSS,0,0,0.000000,0,*58
$GPZDA,051058,17,11,2012,00,00*46
$GPGGA,051058.873,3038.0532,N,10404.6832,E,1,05,1.6,464.6,M,-31.9,M,0.0,0000*51
$GPGSA,A,3,04,10,02,17,05,,,,,,,,4.1,1.6,3.7*30
$GPRMC,051058.873,A,3038.0532,N,10404.6832,E,0.07,104.86,171112,,*0D
$GPZDA,051059,17,11,2012,00,00*47
$GPGGA,051059.873,3038.0534,N,10404.6831,E,1,06,1.4,464.2,M,-31.9,M,0.0,0000*50
$GPGSA,A,3,04,13,10,02,17,05,,,,,,,2.5,1.4,2.0*34
$GPRMC,051059.873,A,3038.0534,N,10404.6831,E,0.10,60.83,171112,,*39
$GPZDA,051100,17,11,2012,00,00*4A
$GPGGA,051100.873,3038.0535,N,10404.6831,E,1,06,1.4,463.7,M,-31.9,M,0.0,0000*5E
$GPGSA,A,3,04,13,10,02,17,05,,,,,,,2.5,1.4,2.0*34
$GPRMC,051100.873,A,3038.0535,N,10404.6831,E,0.09,89.05,171112,,*34
$GPZDA,051101,17,11,2012,00,00*4B
$GPGGA,051101.873,3038.0535,N,10404.6831,E,1,06,1.4,463.0,M,-31.9,M,0.0,0000*58
$GPGSA,A,3,04,13,10,02,17,05,,,,,,,2.5,1.4,2.0*34
$GPRMC,051101.873,A,3038.0535,N,10404.6831,E,0.08,103.37,171112,,*06
$GPZDA,051102,17,11,2012,00,00*48
$GPGGA,051102.872,3038.0536,N,10404.6831,E,1,06,1.4,462.3,M,-31.9,M,0.0,0000*5B
$GPGSA,A,3,04,13,10,02,17,05,,,,,,,2.5,1.4,2.0*34
$GPGSV,3,1,10,10,76,130,42,04,55,024,46,02,50,294,43,17,43,100,46*73
$GPGSV,3,2,10,05,29,207,40,31,17,116,00,29,17,121,00,13,15,084,32*70
$GPGSV,3,3,10,28,07,162,00,23,06,051,00*73
$GPRMC,051102.872,A,3038.0536,N,10404.6831,E,0.06,95.34,171112,,*34
$GPMSS,0,0,0.000000,0,*58
$GPZDA,051103,17,11,2012,00,00*49
$GPGGA,051103.872,3038.0537,N,10404.6830,E,1,06,1.4,461.6,M,-31.9,M,0.0,0000*5C
$GPGSA,A,3,04,13,10,02,17,05,,,,,,,2.5,1.4,2.0*34
$GPRMC,051103.872,A,3038.0537,N,10404.6830,E,0.07,84.44,171112,,*33
$GPZDA,051104,17,11,2012,00,00*4E
$GPGGA,051104.872,3038.0537,N,10404.6830,E,1,06,1.4,461.1,M,-31.9,M,0.0,0000*5C
$GPGSA,A,3,04,13,10,02,17,05,,,,,,,2.5,1.4,2.0*34
$GPRMC,051104.872,A,3038.0537,N,10404.6830,E,0.06,97.77,171112,,*37
$GPZDA,051105,17,11,2012,00,00*4F
$GPGGA,051105.872,3038.0537,N,10404.6829,E,1,06,1.4,460.9,M,-31.9,M,0.0,0000*5C
$GPGSA,A,3,04,13,10,02,17,05,,,,,,,2.5,1.4,2.0*34
$GPRMC,051105.872,A,3038.0537,N,10404.6829,E,0.08,101.23,171112,,*0F
$GPZDA,051106,17,11,2012,00,00*4C
$GPGGA,051106.872,3038.0537,N,10404.6828,E,1,06,1.4,460.9,M,-31.9,M,0.0,0000*5E
$GPGSA,A,3,04,13,10,02,17,05,,,,,,,2.5,1.4,2.0*34
$GPRMC,051106.872,A,3038.0537,N,10404.6828,E,0.07,96.29,171112,,*37
$GPZDA,051107,17,11,2012,00,00*4D
$GPGGA,051107.872,3038.0537,N,10404.6827,E,1,06,1.4,461.0,M,-31.9,M,0.0,0000*58
$GPGSA,A,3,04,13,10,02,17,05,,,,,,,2.5,1.4,2.0*34
$GPGSV,3,1,10,10,76,130,42,04,55,024,45,02,50,294,42,17,43,100,46*71
$GPGSV,3,2,10,05,29,207,40,31,17,116,00,29,17,121,00,13,15,084,34*76
$GPGSV,3,3,10,28,07,162,00,23,06,051,00*73
$GPRMC,051107.872,A,3038.0537,N,10404.6827,E,0.08,97.33,171112,,*3C
$GPMSS,0,0,0.000000,0,*58
$GPZDA,051108,17,11,2012,00,00*42
$GPGGA,051108.872,3038.0537,N,10404.6826,E,1,06,1.4,460.8,M,-31.9,M,0.0,0000*5F
$GPGSA,A,3,04,13,10,02,17,05,,,,,,,2.5,1.4,2.0*34
$GPRMC,051108.872,A,3038.0537,N,10404.6826,E,0.08,103.39,171112,,*04
$GPZDA,051109,17,11,2012,00,00*43
$GPGGA,051109.872,3038.0538,N,10404.6825,E,1,06,1.4,460.5,M,-31.9,M,0.0,0000*5F
$GPGSA,A,3,04,13,10,02,17,05,,,,,,,2.5,1.4,2.0*34
$GPRMC,051109.872,A,3038.0538,N,10404.6825,E,0.08,108.85,171112,,*05
$GPZDA,051110,17,11,2012,00,00*4B
$GPGGA,051110.872,3038.0538,N,10404.6823,E,1,06,1.4,460.1,M,-31.9,M,0.0,0000*55
$GPGSA,A,3,04,13,10,02,17,05,,,,,,,2.5,1.4,2.0*34
$GPRMC,051110.872,A,3038.0538,N,10404.6823,E,0.08,90.74,171112,,*35
$GPZDA,051111,17,11,2012,00,00*4A
$GPGGA,051111.872,3038.0538,N,10404.6821,E,1,06,1.4,459.7,M,-31.9,M,0.0,0000*5A
$GPGSA,A,3,04,13,10,02,17,05,,,,,,,2.5,1.4,2.0*34
$GPRMC,051111.872,A,3038.0538,N,10404.6821,E,0.08,104.98,171112,,*08
$GPZDA,051112,17,11,2012,00,00*49
$GPGGA,051112.872,3038.0538,N,10404.6819,E,1,06,1.4,459.3,M,-31.9,M,0.0,0000*56
$GPGSA,A,3,04,13,10,02,17,05,,,,,,,2.5,1.4,2.0*34
$GPGSV,3,1,10,10,76,129,43,04,55,024,46,02,50,294,42,17,43,101,46*7A
$GPGSV,3,2,10,05,29,208,39,31,17,116,00,29,17,121,00,13,15,084,34*77
$GPGSV,3,3,10,28,07,162,00,23,06,051,00*73
$GPRMC,051112.872,A,3038.0538,N,10404.6819,E,0.07,106.34,171112,,*0B
$GPMSS,0,0,0.000000,0,*58
$GPZDA,051113,17,11,2012,00,00*48
$GPGGA,051113.872,3038.0538,N,10404.6818,E,1,06,1.4,458.9,M,-31.9,M,0.0,0000*5D
$GPGSA,A,3,04,13,10,02,17,05,,,,,,,2.5,1.4,2.0*34
$GPRMC,051113.872,A,3038.0538,N,10404.6818,E,0.09,103.17,171112,,*01
$GPZDA,051114,17,11,2012,00,00*4F
$GPGGA,051114.872,3038.0538,N,10404.6816,E,1,06,1.4,458.5,M,-31.9,M,0.0,0000*58
$GPGSA,A,3,04,13,10,02,17,05,,,,,,,2.5,1.4,2.0*34
$GPRMC,051114.872,A,3038.0538,N,10404.6816,E,0.08,106.98,171112,,*0B
$GPZDA,051115,17,11,2012,00,00*4E
$GPGGA,051115.872,3038.0538,N,10404.6815,E,1,06,1.4,458.2,M,-31.9,M,0.0,0000*5D
$GPGSA,A,3,04,13,10,02,17,05,,,,,,,2.5,1.4,2.0*34
$GPRMC,051115.872,A,3038.0538,N,10404.6815,E,0.08,110.20,171112,,*0D
$GPZDA,051116,17,11,2012,00,00*4D
$GPGGA,051116.872,3038.0537,N,10404.6813,E,1,06,1.4,457.8,M,-31.9,M,0.0,0000*52
$GPGSA,A,3,04,13,10,02,17,05,,,,,,,2.5,1.4,2.0*34
$GPRMC,051116.872,A,3038.0537,N,10404.6813,E,0.08,102.78,171112,,*09
$GPZDA,051117,17,11,2012,00,00*4C
$GPGGA,051117.872,3038.0536,N,10404.6811,E,1,06,1.4,457.6,M,-31.9,M,0.0,0000*5E
$GPGSA,A,3,04,13,10,02,17,05,,,,,,,2.5,1.4,2.0*34
$GPGSV,3,1,10,10,76,129,42,04,55,024,46,02,50,294,42,17,43,101,46*7B
$GPGSV,3,2,10,05,29,208,39,31,17,116,00,29,17,121,00,13,15,084,31*72
$GPGSV,3,3,10,28,07,162,00,23,06,051,00*73
$GPRMC,051117.872,A,3038.0536,N,10404.6811,E,0.07,111.40,171112,,*0D
$GPMSS,0,0,0.000000,0,*58
$GPZDA,051118,17,11,2012,00,00*43
$GPGGA,051118.872,3038.0534,N,10404.6809,E,1,06,1.4,457.5,M,-31.9,M,0.0,0000*59
$GPGSA,A,3,04,13,10,02,17,05,,,,,,,2.5,1.4,2.0*34
$GPRMC,051118.872,A,3038.0534,N,10404.6809,E,0.09,105.25,171112,,*01
$GPZDA,051119,17,11,2012,00,00*42
$GPGGA,051119.872,3038.0533,N,10404.6807,E,1,06,1.4,457.6,M,-31.9,M,0.0,0000*52
$GPGSA,A,3,04,13,10,02,17,05,,,,,,,2.5,1.4,2.0*34
$GPRMC,051119.872,A,3038.0533,N,10404.6807,E,0.07,118.59,171112,,*00
$GPZDA,051120,17,11,2012,00,00*48
$GPGGA,051120.871,3038.0531,N,10404.6804,E,1,06,1.4,457.8,M,-31.9,M,0.0,0000*54
$GPGSA,A,3,04,13,10,02,17,05,,,,,,,2.5,1.4,2.0*34
$GPRMC,051120.871,A,3038.0531,N,10404.6804,E,0.09,107.31,171112,,*06
$GPZDA,051121,17,11,2012,00,00*49
$GPGGA,051121.871,3038.0530,N,10404.6802,E,1,06,1.4,458.0,M,-31.9,M,0.0,0000*55
$GPGSA,A,3,04,13,10,02,17,05,,,,,,,2.5,1.4,2.0*34
$GPRMC,051121.871,A,3038.0530,N,10404.6802,E,0.09,109.01,171112,,*0D
$GPZDA,051122,17,11,2012,00,00*4A
$GPGGA,051122.871,3038.0529,N,10404.6800,E,1,06,1.4,458.3,M,-31.9,M,0.0,0000*5F
$GPGSA,A,3,04,13,10,02,17,05,,,,,,,2.5,1.4,2.0*34
$GPGSV,3,1,10,10,76,129,43,04,55,024,46,02,50,294,42,17,43,101,47*7B
$GPGSV,3,2,10,05,29,208,39,31,17,116,00,29,17,121,00,13,15,084,29*7B
$GPGSV,3,3,10,28,07,162,00,23,06,051,00*73
$GPRMC,051122.871,A,3038.0529,N,10404.6800,E,0.08,97.52,171112,,*35
$GPMSS,0,0,0.000000,0,*58
$GPZDA,051123,17,11,2012,00,00*4B
$GPGGA,051123.871,3038.0527,N,10404.6798,E,1,06,1.4,458.7,M,-31.9,M,0.0,0000*5A
$GPGSA,A,3,04,13,10,02,17,05,,,,,,,2.5,1.4,2.0*34
$GPRMC,051123.871,A,3038.0527,N,10404.6798,E,0.08,109.81,171112,,*0C
$GPZDA,051124,17,11,2012,00,00*4C
$GPGGA,051124.871,3038.0526,N,10404.6797,E,1,06,1.4,459.2,M,-31.9,M,0.0,0000*57
$GPGSA,A,3,04,13,10,02,17,05,,,,,,,2.5,1.4,2.0*34
$GPRMC,051124.871,A,3038.0526,N,10404.6797,E,0.08,109.74,171112,,*0F
$GPZDA,051125,17,11,2012,00,00*4D
$GPGGA,051125.871,3038.0524,N,10404.6797,E,1,06,1.4,459.9,M,-31.9,M,0.0,0000*5F
$GPGSA,A,3,04,13,10,02,17,05,,,,,,,2.5,1.4,2.0*34
$GPRMC,051125.871,A,3038.0524,N,10404.6797,E,0.08,112.98,171112,,*04
$GPZDA,051126,17,11,2012,00,00*4E
$GPGGA,051126.871,3038.0522,N,10404.6796,E,1,06,1.4,461.0,M,-31.9,M,0.0,0000*59
$GPGSA,A,3,04,13,10,02,17,05,,,,,,,2.5,1.4,2.0*34
$GPRMC,051126.871,A,3038.0522,N,10404.6796,E,0.09,122.73,171112,,*07
$GPZDA,051127,17,11,2012,00,00*4F
$GPGGA,051127.871,3038.0520,N,10404.6795,E,1,06,1.4,462.4,M,-31.9,M,0.0,0000*5E
$GPGSA,A,3,04,13,10,02,17,05,,,,,,,2.5,1.4,2.0*34
$GPGSV,3,1,10,10,76,129,41,04,55,024,46,02,50,294,44,17,43,101,46*7E
$GPGSV,3,2,10,05,29,208,38,31,17,116,00,29,17,121,00,13,15,084,32*70
$GPGSV,3,3,10,28,07,162,00,23,06,051,00*73
$GPRMC,051127.871,A,3038.0520,N,10404.6795,E,0.09,110.25,171112,,*05
$GPMSS,0,0,0.000000,0,*58
$GPZDA,051128,17,11,2012,00,00*40
$GPGGA,051128.871,3038.0518,N,10404.6795,E,1,06,1.4,463.7,M,-31.9,M,0.0,0000*58
$GPGSA,A,3,04,13,10,02,17,05,,,,,,,2.5,1.4,2.0*34
$GPRMC,051128.871,A,3038.0518,N,10404.6795,E,0.10,115.33,171112,,*0B
$GPZDA,051129,17,11,2012,00,00*41
$GPGGA,051129.871,3038.0515,N,10404.6795,E,1,06,1.4,464.9,M,-31.9,M,0.0,0000*5D
$GPGSA,A,3,04,13,10,02,17,05,,,,,,,2.5,1.4,2.0*34
$GPRMC,051129.871,A,3038.0515,N,10404.6795,E,0.10,107.06,171112,,*02
$GPZDA,051130,17,11,2012,00,00*49
$GPGGA,051130.871,3038.0513,N,10404.6796,E,1,06,1.4,466.0,M,-31.9,M,0.0,0000*5B
$GPGSA,A,3,04,13,10,02,17,05,,,,,,,2.5,1.4,2.0*34
$GPRMC,051130.871,A,3038.0513,N,10404.6796,E,0.08,112.42,171112,,*02
$GPZDA,051131,17,11,2012,00,00*48
$GPGGA,051131.871,3038.0510,N,10404.6796,E,1,06,1.4,467.1,M,-31.9,M,0.0,0000*59
$GPGSA,A,3,04,13,10,02,17,05,,,,,,,2.5,1.4,2.0*34
$GPRMC,051131.871,A,3038.0510,N,10404.6796,E,0.09,106.54,171112,,*03
$GPZDA,051132,17,11,2012,00,00*4B
$GPGGA,051132.871,3038.0508,N,10404.6796,E,1,06,1.4,468.1,M,-31.9,M,0.0,0000*5C
$GPGSA,A,3,04,13,10,02,17,05,,,,,,,2.5,1.4,2.0*34
$GPGSV,3,1,10,10,76,129,41,04,55,024,46,02,50,294,45,17,43,101,46*7F
$GPGSV,3,2,10,05,29,208,38,31,17,116,00,29,17,121,00,13,15,084,36*74
$GPGSV,3,3,10,28,07,162,00,23,06,051,00*73
$GPRMC,051132.871,A,3038.0508,N,10404.6796,E,0.08,94.26,171112,,*37
$GPMSS,0,0,0.000000,0,*58
$GPZDA,051133,17,11,2012,00,00*4A
$GPGGA,051133.871,3038.0506,N,10404.6797,E,1,06,1.4,469.0,M,-31.9,M,0.0,0000*52
$GPGSA,A,3,04,13,10,02,17,05,,,,,,,2.5,1.4,2.0*34
$GPRMC,051133.871,A,3038.0506,N,10404.6797,E,0.11,105.12,171112,,*0F
$GPZDA,051134,17,11,2012,00,00*4D
$GPGGA,051134.871,3038.0504,N,10404.6799,E,1,06,1.4,469.7,M,-31.9,M,0.0,0000*5E
$GPGSA,A,3,04,13,10,02,17,05,,,,,,,2.5,1.4,2.0*34
$GPRMC,051134.871,A,3038.0504,N,10404.6799,E,0.09,100.01,171112,,*0A
$GPZDA,051135,17,11,2012,00,00*4C
$GPGGA,051135.871,3038.0502,N,10404.6800,E,1,06,1.4,470.3,M,-31.9,M,0.0,0000*5A
$GPGSA,A,3,04,13,10,02,17,05,,,,,,,2.5,1.4,2.0*34
$GPRMC,051135.871,A,3038.0502,N,10404.6800,E,0.10,109.29,171112,,*09
$GPZDA,051136,17,11,2012,00,00*4F
$GPGGA,051136.871,3038.0501,N,10404.6802,E,1,06,1.4,470.8,M,-31.9,M,0.0,0000*53
$GPGSA,A,3,04,13,10,02,17,05,,,,,,,2.5,1.4,2.0*34
$GPRMC,051136.871,A,3038.0501,N,10404.6802,E,0.09,104.77,171112,,*05
$GPZDA,051137,17,11,2012,00,00*4E
$GPGGA,051137.871,3038.0500,N,10404.6804,E,1,06,1.4,471.1,M,-31.9,M,0.0,0000*5D
$GPGSA,A,3,04,13,10,02,17,05,,,,,,,2.5,1.4,2.0*34
$GPGSV,3,1,10,10,76,129,40,04,55,024,47,02,50,294,45,17,43,101,46*7F
$GPGSV,3,2,10,05,29,208,39,31,17,116,00,29,17,121,00,13,15,084,36*75
$GPGSV,3,3,10,28,07,162,00,23,06,051,00*73
$GPRMC,051137.871,A,3038.0500,N,10404.6804,E,0.08,103.87,171112,,*0A
$GPMSS,0,0,0.000000,0,*58
$GPZDA,051138,17,11,2012,00,00*41
$GPGGA,051138.871,3038.0499,N,10404.6806,E,1,06,1.4,471.2,M,-31.9,M,0.0,0000*52
$GPGSA,A,3,04,13,10,02,17,05,,,,,,,2.5,1.4,2.0*34
$GPRMC,051138.871,A,3038.0499,N,10404.6806,E,0.09,106.14,171112,,*08
$GPZDA,051139,17,11,2012,00,00*40
$GPGGA,051139.870,3038.0499,N,10404.6807,E,1,06,1.4,471.0,M,-31.9,M,0.0,0000*51
$GPGSA,A,3,04,13,10,02,17,05,,,,,,,2.5,1.4,2.0*34
$GPRMC,051139.870,A,3038.0499,N,10404.6807,E,0.08,107.51,171112,,*08
$GPZDA,051140,17,11,2012,00,00*4E
$GPGGA,051140.870,3038.0499,N,10404.6808,E,1,06,1.4,470.9,M,-31.9,M,0.0,0000*58
$GPGSA,A,3,04,13,10,02,17,05,,,,,,,2.5,1.4,2.0*34
$GPRMC,051140.870,A,3038.0499,N,10404.6808,E,0.09,100.80,171112,,*03
$GPZDA,051141,17,11,2012,00,00*4F
$GPGGA,051141.870,3038.0499,N,10404.6809,E,1,06,1.4,470.6,M,-31.9,M,0.0,0000*57
$GPGSA,A,3,04,13,10,02,17,05,,,,,,,2.5,1.4,2.0*34
$GPRMC,051141.870,A,3038.0499,N,10404.6809,E,0.09,106.08,171112,,*05
$GPZDA,051142,17,11,2012,00,00*4C
$GPGGA,051142.870,3038.0500,N,10404.6810,E,1,06,1.4,470.2,M,-31.9,M,0.0,0000*59
$GPGSA,A,3,04,13,10,02,17,05,,,,,,,2.5,1.4,2.0*34
$GPGSV,3,1,10,10,76,129,41,04,55,024,46,02,50,294,45,17,43,101,46*7F
$GPGSV,3,2,10,05,29,208,39,31,17,116,00,29,17,121,00,13,15,084,36*75
$GPGSV,3,3,10,28,07,162,00,23,06,051,00*73
$GPRMC,051142.870,A,3038.0500,N,10404.6810,E,0.08,100.48,171112,,*0C
$GPMSS,0,0,0.000000,0,*58
$GPZDA,051143,17,11,2012,00,00*4D
$GPGGA,051143.870,3038.0501,N,10404.6812,E,1,06,1.4,469.8,M,-31.9,M,0.0,0000*59
$GPGSA,A,3,04,13,10,02,17,05,,,,,,,2.5,1.4,2.0*34
$GPRMC,051143.870,A,3038.0501,N,10404.6812,E,0.09,105.63,171112,,*03
$GPZDA,051144,17,11,2012,00,00*4A
$GPGGA,051144.870,3038.0501,N,10404.6812,E,1,06,1.4,469.2,M,-31.9,M,0.0,0000*54
$GPGSA,A,3,04,13,10,02,17,05,,,,,,,2.5,1.4,2.0*34
$GPRMC,051144.870,A,3038.0501,N,10404.6812,E,0.08,107.31,171112,,*00
$GPZDA,051145,17,11,2012,00,00*4B
$GPGGA,051145.870,3038.0502,N,10404.6813,E,1,06,1.4,468.6,M,-31.9,M,0.0,0000*52
$GPGSA,A,3,04,13,10,02,17,05,,,,,,,2.5,1.4,2.0*34
$GPRMC,051145.870,A,3038.0502,N,10404.6813,E,0.09,97.52,171112,,*3F
$GPZDA,051146,17,11,2012,00,00*48
$GPGGA,051146.870,3038.0503,N,10404.6813,E,1,06,1.4,468.2,M,-31.9,M,0.0,0000*54
$GPGSA,A,3,04,13,10,02,17,05,,,,,,,2.5,1.4,2.0*34
$GPRMC,051146.870,A,3038.0503,N,10404.6813,E,0.08,107.23,171112,,*02
$GPZDA,051147,17,11,2012,00,00*49
$GPGGA,051147.870,3038.0503,N,10404.6813,E,1,06,1.4,468.0,M,-31.9,M,0.0,0000*57
$GPGSA,A,3,04,13,10,02,17,05,,,,,,,2.5,1.4,2.0*34
$GPGSV,3,1,10,10,76,128,42,04,55,025,46,02,50,295,45,17,43,101,45*7E
$GPGSV,3,2,10,05,29,208,40,31,17,116,00,29,17,121,00,13,15,083,35*7F
$GPGSV,3,3,10,28,06,162,00,23,06,051,00*72
$GPRMC,051147.870,A,3038.0503,N,10404.6813,E,0.08,109.05,171112,,*09
$GPMSS,0,0,0.000000,0,*58
$GPZDA,051148,17,11,2012,00,00*46
$GPGGA,051148.870,3038.0504,N,10404.6813,E,1,06,1.4,467.9,M,-31.9,M,0.0,0000*59
$GPGSA,A,3,04,13,10,02,17,05,,,,,,,2.5,1.4,2.0*34
$GPRMC,051148.870,A,3038.0504,N,10404.6813,E,0.08,98.92,171112,,*36
$GPZDA,051149,17,11,2012,00,00*47
$GPGGA,051149.870,3038.0504,N,10404.6813,E,1,06,1.4,468.2,M,-31.9,M,0.0,0000*5C
$GPGSA,A,3,04,13,10,02,17,05,,,,,,,2.5,1.4,2.0*34
$GPRMC,051149.870,A,3038.0504,N,10404.6813,E,0.08,95.88,171112,,*31
$GPZDA,051150,17,11,2012,00,00*4F
$GPGGA,051150.870,3038.0503,N,10404.6813,E,1,06,1.4,468.7,M,-31.9,M,0.0,0000*56
$GPGSA,A,3,04,13,10,02,17,05,,,,,,,2.5,1.4,2.0*34
$GPRMC,051150.870,A,3038.0503,N,10404.6813,E,0.09,105.60,171112,,*01
$GPZDA,051151,17,11,2012,00,00*4E
$GPGGA,051151.870,3038.0503,N,10404.6812,E,1,06,1.4,469.2,M,-31.9,M,0.0,0000*52
$GPGSA,A,3,04,13,10,02,17,05,,,,,,,2.5,1.4,2.0*34
$GPRMC,051151.870,A,3038.0503,N,10404.6812,E,0.09,103.46,171112,,*03
$GPZDA,051152,17,11,2012,00,00*4D
$GPGGA,051152.870,3038.0502,N,10404.6812,E,1,06,1.4,469.8,M,-31.9,M,0.0,0000*5A
$GPGSA,A,3,04,13,10,02,17,05,,,,,,,2.5,1.4,2.0*34
$GPGSV,3,1,10,10,76,128,42,04,55,025,46,02,50,295,43,17,43,101,46*7B
$GPGSV,3,2,10,05,29,208,40,31,17,116,00,29,17,121,00,13,15,083,34*7E
$GPGSV,3,3,10,28,06,162,00,23,06,051,00*72
$GPRMC,051152.870,A,3038.0502,N,10404.6812,E,0.09,108.90,171112,,*01
$GPMSS,0,0,0.000000,0,*58
$GPZDA,051153,17,11,2012,00,00*4C
$GPGGA,051153.870,3038.0501,N,10404.6811,E,1,06,1.4,470.5,M,-31.9,M,0.0,0000*5E
$GPGSA,A,3,04,13,10,02,17,05,,,,,,,2.5,1.4,2.0*34
$GPRMC,051153.870,A,3038.0501,N,10404.6811,E,0.09,104.99,171112,,*05
$GPZDA,051154,17,11,2012,00,00*4B
$GPGGA,051154.870,3038.0500,N,10404.6810,E,1,06,1.4,470.9,M,-31.9,M,0.0,0000*55
$GPGSA,A,3,04,13,10,02,17,05,,,,,,,2.5,1.4,2.0*34
$GPRMC,051154.870,A,3038.0500,N,10404.6810,E,0.08,100.95,171112,,*0B
$GPZDA,051155,17,11,2012,00,00*4A
$GPGGA,051155.870,3038.0499,N,10404.6810,E,1,06,1.4,471.2,M,-31.9,M,0.0,0000*5F
$GPGSA,A,3,04,13,10,02,17,05,,,,,,,2.5,1.4,2.0*34
$GPRMC,051155.870,A,3038.0499,N,10404.6810,E,0.09,106.76,171112,,*01
$GPZDA,051156,17,11,2012,00,00*49
$GPGGA,051156.870,3038.0498,N,10404.6810,E,1,05,1.6,471.0,M,-31.9,M,0.0,0000*5E
$GPGSA,A,3,04,10,02,17,05,,,,,,,,4.1,1.6,3.7*30
$GPRMC,051156.870,A,3038.0498,N,10404.6810,E,0.08,101.08,171112,,*0C
$GPZDA,051157,17,11,2012,00,00*48
$GPGGA,051157.869,3038.0498,N,10404.6810,E,1,06,1.4,470.7,M,-31.9,M,0.0,0000*50
$GPGSA,A,3,04,13,10,02,17,05,,,,,,,2.5,1.4,2.0*34
$GPGSV,3,1,10,10,76,128,40,04,55,025,44,02,50,295,42,17,43,101,45*79
$GPGSV,3,2,10,05,29,208,39,31,17,116,00,29,17,121,00,13,15,083,28*7D
$GPGSV,3,3,10,28,06,162,00,23,06,051,00*72
$GPRMC,051157.869,A,3038.0498,N,10404.6810,E,0.09,124.13,171112,,*09
$GPMSS,0,0,0.000000,0,*58
$GPZDA,051158,17,11,2012,00,00*47
$GPGGA,051158.869,3038.0498,N,10404.6810,E,1,06,1.4,471.0,M,-31.9,M,0.0,0000*59
$GPGSA,A,3,04,13,10,02,17,05,,,,,,,2.5,1.4,2.0*34
$GPRMC,051158.869,A,3038.0498,N,10404.6810,E,0.08,107.55,171112,,*04
$GPZDA,051159,17,11,2012,00,00*46
$GPGGA,051159.869,3038.0498,N,10404.6810,E,1,05,1.6,470.6,M,-31.9,M,0.0,0000*5E
$GPGSA,A,3,04,10,02,17,05,,,,,,,,4.1,1.6,3.7*30
$GPRMC,051159.869,A,3038.0498,N,10404.6810,E,0.09,100.55,171112,,*03
$GPZDA,051200,17,11,2012,00,00*49
$GPGGA,051200.869,3038.0499,N,10404.6811,E,1,05,1.6,469.8,M,-31.9,M,0.0,0000*57
$GPGSA,A,3,04,10,02,17,05,,,,,,,,4.1,1.6,3.7*30
$GPRMC,051200.869,A,3038.0499,N,10404.6811,E,0.09,106.02,171112,,*08
$GPZDA,051201,17,11,2012,00,00*48
$GPGGA,051201.869,3038.0500,N,10404.6812,E,1,05,1.6,468.9,M,-31.9,M,0.0,0000*54
$GPGSA,A,3,04,10,02,17,05,,,,,,,,4.1,1.6,3.7*30
$GPRMC,051201.869,A,3038.0500,N,10404.6812,E,0.08,98.23,171112,,*3F
$GPZDA,051202,17,11,2012,00,00*4B
$GPGGA,051202.869,3038.0501,N,10404.6814,E,1,05,1.6,468.0,M,-31.9,M,0.0,0000*59
$GPGSA,A,3,04,10,02,17,05,,,,,,,,4.1,1.6,3.7*30
$GPGSV,3,1,10,10,76,128,40,04,55,025,43,02,50,295,42,17,43,101,43*78
$GPGSV,3,2,10,05,29,208,39,31,17,116,00,29,17,121,00,13,15,083,24*71
$GPGSV,3,3,10,28,06,162,00,23,06,051,00*72
$GPRMC,051202.869,A,3038.0501,N,10404.6814,E,0.08,103.57,171112,,*0B
$GPMSS,0,0,0.000000,0,*58
$GPZDA,051203,17,11,2012,00,00*4A
$GPGGA,051203.869,3038.0503,N,10404.6816,E,1,05,1.6,466.9,M,-31.9,M,0.0,0000*5F
$GPGSA,A,3,04,10,02,17,05,,,,,,,,4.1,1.6,3.7*30
$GPRMC,051203.869,A,3038.0503,N,10404.6816,E,0.09,113.88,171112,,*08
$GPZDA,051204,17,11,2012,00,00*4D
$GPGGA,051204.869,3038.0504,N,10404.6818,E,1,05,1.6,465.8,M,-31.9,M,0.0,0000*53
$GPGSA,A,3,04,10,02,17,05,,,,,,,,4.1,1.6,3.7*30
$GPRMC,051204.869,A,3038.0504,N,10404.6818,E,0.07,110.52,171112,,*0C
$GPZDA,051205,17,11,2012,00,00*4C
$GPGGA,051205.869,3038.0505,N,10404.6820,E,1,05,1.6,464.7,M,-31.9,M,0.0,0000*56
$GPGSA,A,3,04,10,02,17,05,,,,,,,,4.1,1.6,3.7*30
$GPRMC,051205.869,A,3038.0505,N,10404.6820,E,0.09,115.70,171112,,*0C
$GPZDA,051206,17,11,2012,00,00*4F
$GPGGA,051206.869,3038.0505,N,10404.6822,E,1,05,1.6,463.7,M,-31.9,M,0.0,0000*50
$GPGSA,A,3,04,10,02,17,05,,,,,,,,4.1,1.6,3.7*30
$GPRMC,051206.869,A,3038.0505,N,10404.6822,E,0.07,113.03,171112,,*01
$GPZDA,051207,17,11,2012,00,00*4E
$GPGGA,051207.869,3038.0505,N,10404.6824,E,1,05,1.6,462.8,M,-31.9,M,0.0,0000*59
$GPGSA,A,3,04,10,02,17,05,,,,,,,,4.1,1.6,3.7*30
$GPGSV,3,1,10,10,76,128,39,04,55,025,44,02,50,295,43,17,43,101,44*77
$GPGSV,3,2,10,05,29,208,39,31,17,116,00,29,17,121,00,13,15,083,00*77
$GPGSV,3,3,10,28,06,162,00,23,06,051,00*72
$GPRMC,051207.869,A,3038.0505,N,10404.6824,E,0.08,105.98,171112,,*0C
$GPMSS,0,0,0.000000,0,*58
$GPZDA,051208,17,11,2012,00,00*41
$GPGGA,051208.869,3038.0505,N,10404.6826,E,1,05,1.6,462.1,M,-31.9,M,0.0,0000*5D
$GPGSA,A,3,04,10,02,17,05,,,,,,,,4.1,1.6,3.7*30
$GPRMC,051208.869,A,3038.0505,N,10404.6826,E,0.09,103.56,171112,,*04
$GPZDA,051209,17,11,2012,00,00*40
$GPGGA,051209.869,3038.0505,N,10404.6827,E,1,05,1.6,461.6,M,-31.9,M,0.0,0000*59
$GPGSA,A,3,04,10,02,17,05,,,,,,,,4.1,1.6,3.7*30
$GPRMC,051209.869,A,3038.0505,N,10404.6827,E,0.09,115.23,171112,,*01
$GPZDA,051210,17,11,2012,00,00*48
$GPGGA,051210.869,3038.0505,N,10404.6827,E,1,05,1.6,461.1,M,-31.9,M,0.0,0000*56
$GPGSA,A,3,04,10,02,17,05,,,,,,,,4.1,1.6,3.7*30
$GPRMC,051210.869,A,3038.0505,N,10404.6827,E,0.10,111.28,171112,,*0E
$GPZDA,051211,17,11,2012,00,00*49
$GPGGA,051211.869,3038.0506,N,10404.6828,E,1,05,1.6,460.7,M,-31.9,M,0.0,0000*5C
$GPGSA,A,3,04,10,02,17,05,,,,,,,,4.1,1.6,3.7*30
$GPRMC,051211.869,A,3038.0506,N,10404.6828,E,0.07,95.63,171112,,*37
$GPZDA,051212,17,11,2012,00,00*4A
$GPGGA,051212.869,3038.0506,N,10404.6828,E,1,05,1.6,460.4,M,-31.9,M,0.0,0000*5C
$GPGSA,A,3,04,10,02,17,05,,,,,,,,4.1,1.6,3.7*30
$GPGSV,3,1,10,10,77,127,39,04,55,025,43,02,50,295,43,17,43,101,44*7E
$GPGSV,3,2,10,05,29,208,40,31,17,116,00,29,17,121,00,13,15,083,00*79
$GPGSV,3,3,10,23,06,051,00,28,06,162,00*72
$GPRMC,051212.869,A,3038.0506,N,10404.6828,E,0.08,112.48,171112,,*0C
$GPMSS,0,0,0.000000,0,*58
$GPZDA,051213,17,11,2012,00,00*4B
$GPGGA,051213.869,3038.0506,N,10404.6828,E,1,05,1.6,460.1,M,-31.9,M,0.0,0000*58
$GPGSA,A,3,04,10,02,17,05,,,,,,,,4.1,1.6,3.7*30
$GPRMC,051213.869,A,3038.0506,N,10404.6828,E,0.08,105.94,171112,,*0A
$GPZDA,051214,17,11,2012,00,00*4C
$GPGGA,051214.869,3038.0506,N,10404.6829,E,1,05,1.6,459.9,M,-31.9,M,0.0,0000*5C
$GPGSA,A,3,04,10,02,17,05,,,,,,,,4.1,1.6,3.7*30
$GPRMC,051214.869,A,3038.0506,N,10404.6829,E,0.09,98.27,171112,,*30
$GPZDA,051215,17,11,2012,00,00*4D
$GPGGA,051215.868,3038.0506,N,10404.6829,E,1,05,1.6,460.0,M,-31.9,M,0.0,0000*5F
$GPGSA,A,3,04,10,02,17,05,,,,,,,,4.1,1.6,3.7*30
$GPRMC,051215.868,A,3038.0506,N,10404.6829,E,0.08,100.28,171112,,*0E
$GPZDA,051216,17,11,2012,00,00*4E
$GPGGA,051216.868,3038.0506,N,10404.6830,E,1,05,1.6,460.2,M,-31.9,M,0.0,0000*56
$GPGSA,A,3,04,10,02,17,05,,,,,,,,4.1,1.6,3.7*30
$GPRMC,051216.868,A,3038.0506,N,10404.6830,E,0.08,107.83,171112,,*03
$GPZDA,051217,17,11,2012,00,00*4F
$GPGGA,051217.868,3038.0506,N,10404.6830,E,1,05,1.6,460.5,M,-31.9,M,0.0,0000*50
$GPGSA,A,3,04,10,02,17,05,,,,,,,,4.1,1.6,3.7*30
$GPGSV,3,1,10,10,77,127,39,04,55,025,42,02,50,295,44,17,43,101,45*79
$GPGSV,3,2,10,05,30,208,40,31,17,116,00,29,17,121,00,13,15,083,00*71
$GPGSV,3,3,10,23,06,051,00,28,06,162,00*72
$GPRMC,051217.868,A,3038.0506,N,10404.6830,E,0.07,107.92,171112,,*0D
$GPMSS,0,0,0.000000,0,*58
$GPZDA,051218,17,11,2012,00,00*40
$GPGGA,051218.868,3038.0506,N,10404.6831,E,1,05,1.6,460.9,M,-31.9,M,0.0,0000*52
$GPGSA,A,3,04,10,02,17,05,,,,,,,,4.1,1.6,3.7*30
$GPRMC,051218.868,A,3038.0506,N,10404.6831,E,0.09,111.28,171112,,*0B
$GPZDA,051219,17,11,2012,00,00*41
$GPGGA,051219.868,3038.0506,N,10404.6831,E,1,05,1.6,461.4,M,-31.9,M,0.0,0000*5F
$GPGSA,A,3,04,10,02,17,05,,,,,,,,4.1,1.6,3.7*30
$GPRMC,051219.868,A,3038.0506,N,10404.6831,E,0.08,112.11,171112,,*02
$GPZDA,051220,17,11,2012,00,00*4B
$GPGGA,051220.868,3038.0507,N,10404.6830,E,1,06,1.4,462.1,M,-31.9,M,0.0,0000*52
$GPGSA,A,3,04,13,10,02,17,05,,,,,,,2.5,1.4,2.0*34
$GPRMC,051220.868,A,3038.0507,N,10404.6830,E,0.09,114.74,171112,,*0C
$GPZDA,051221,17,11,2012,00,00*4A
$GPGGA,051221.868,3038.0507,N,10404.6830,E,1,06,1.4,462.8,M,-31.9,M,0.0,0000*5A
$GPGSA,A,3,04,13,10,02,17,05,,,,,,,2.5,1.4,2.0*34
$GPRMC,051221.868,A,3038.0507,N,10404.6830,E,0.09,118.99,171112,,*02
$GPZDA,051222,17,11,2012,00,00*49
$GPGGA,051222.868,3038.0508,N,10404.6828,E,1,06,1.4,463.5,M,-31.9,M,0.0,0000*53
$GPGSA,A,3,04,13,10,02,17,05,,,,,,,2.5,1.4,2.0*34
$GPGSV,3,1,10,10,77,127,39,04,55,025,42,02,50,295,44,17,43,101,44*78
$GPGSV,3,2,10,05,30,208,40,31,17,116,00,29,17,121,00,13,15,083,30*72
$GPGSV,3,3,10,23,06,051,00,28,06,162,00*72
$GPRMC,051222.868,A,3038.0508,N,10404.6828,E,0.09,110.67,171112,,*0E
$GPMSS,0,0,0.000000,0,*58
$GPZDA,051223,17,11,2012,00,00*48
$GPGGA,051223.868,3038.0508,N,10404.6827,E,1,06,1.4,464.2,M,-31.9,M,0.0,0000*5D
$GPGSA,A,3,04,13,10,02,17,05,,,,,,,2.5,1.4,2.0*34
$GPRMC,051223.868,A,3038.0508,N,10404.6827,E,0.09,110.38,171112,,*0A
$GPZDA,051224,17,11,2012,00,00*4F
$GPGGA,051224.868,3038.0509,N,10404.6825,E,1,06,1.4,464.6,M,-31.9,M,0.0,0000*5D
$GPGSA,A,3,04,13,10,02,17,05,,,,,,,2.5,1.4,2.0*34
$GPRMC,051224.868,A,3038.0509,N,10404.6825,E,0.09,101.12,171112,,*06
$GPZDA,051225,17,11,2012,00,00*4E
$GPGGA,051225.868,3038.0511,N,10404.6823,E,1,06,1.4,464.9,M,-31.9,M,0.0,0000*5C
$GPGSA,A,3,04,13,10,02,17,05,,,,,,,2.5,1.4,2.0*34
$GPRMC,051225.868,A,3038.0511,N,10404.6823,E,0.08,120.06,171112,,*0F
$GPZDA,051226,17,11,2012,00,00*4D
$GPGGA,051226.868,3038.0512,N,10404.6820,E,1,06,1.4,464.8,M,-31.9,M,0.0,0000*5E
$GPGSA,A,3,04,13,10,02,17,05,,,,,,,2.5,1.4,2.0*34
$GPRMC,051226.868,A,3038.0512,N,10404.6820,E,0.08,100.79,171112,,*06
$GPZDA,051227,17,11,2012,00,00*4C
$GPGGA,051227.868,3038.0514,N,10404.6818,E,1,06,1.4,464.6,M,-31.9,M,0.0,0000*5C
$GPGSA,A,3,04,13,10,02,17,05,,,,,,,2.5,1.4,2.0*34
$GPGSV,3,1,10,10,77,127,40,04,55,025,41,02,50,295,43,17,43,101,44*72
$GPGSV,3,2,10,05,30,208,39,31,17,116,00,29,17,121,00,13,15,083,31*7D
$GPGSV,3,3,10,23,06,051,00,28,06,162,00*72
$GPRMC,051227.868,A,3038.0514,N,10404.6818,E,0.09,105.45,171112,,*01
$GPMSS,0,0,0.000000,0,*58
$GPZDA,051228,17,11,2012,00,00*43
$GPGGA,051228.868,3038.0516,N,10404.6816,E,1,06,1.4,464.1,M,-31.9,M,0.0,0000*58
$GPGSA,A,3,04,13,10,02,17,05,,,,,,,2.5,1.4,2.0*34
$GPRMC,051228.868,A,3038.0516,N,10404.6816,E,0.08,91.48,171112,,*32
$GPZDA,051229,17,11,2012,00,00*42
$GPGGA,051229.868,3038.0518,N,10404.6814,E,1,06,1.4,463.2,M,-31.9,M,0.0,0000*51
$GPGSA,A,3,04,13,10,02,17,05,,,,,,,2.5,1.4,2.0*34
$GPRMC,051229.868,A,3038.0518,N,10404.6814,E,0.06,84.90,171112,,*30
$GPZDA,051230,17,11,2012,00,00*4A
$GPGGA,051230.868,3038.0521,N,10404.6812,E,1,06,1.4,462.1,M,-31.9,M,0.0,0000*57
$GPGSA,A,3,04,13,10,02,17,05,,,,,,,2.5,1.4,2.0*34
$GPRMC,051230.868,A,3038.0521,N,10404.6812,E,0.10,96.17,171112,,*3F
$GPZDA,051231,17,11,2012,00,00*4B
$GPGGA,051231.868,3038.0524,N,10404.6811,E,1,06,1.4,460.8,M,-31.9,M,0.0,0000*5B
$GPGSA,A,3,04,13,10,02,17,05,,,,,,,2.5,1.4,2.0*34
$GPRMC,051231.868,A,3038.0524,N,10404.6811,E,0.10,95.04,171112,,*39
$GPZDA,051232,17,11,2012,00,00*48
$GPGGA,051232.868,3038.0527,N,10404.6810,E,1,06,1.4,459.4,M,-31.9,M,0.0,0000*5C
$GPGSA,A,3,04,13,10,02,17,05,,,,,,,2.5,1.4,2.0*34
$GPGSV,3,1,10,10,77,127,39,04,55,025,42,02,50,295,43,17,43,101,45*7E
$GPGSV,3,2,10,05,30,208,40,31,17,116,00,29,17,121,00,13,15,083,28*7B
$GPGSV,3,3,10,23,06,051,00,28,06,162,00*72
$GPRMC,051232.868,A,3038.0527,N,10404.6810,E,0.09,91.85,171112,,*3D
$GPMSS,0,0,0.000000,0,*58
$GPZDA,051233,17,11,2012,00,00*49
$GPGGA,051233.868,3038.0529,N,10404.6810,E,1,06,1.4,458.1,M,-31.9,M,0.0,0000*57
$GPGSA,A,3,04,13,10,02,17,05,,,,,,,2.5,1.4,2.0*34
$GPRMC,051233.868,A,3038.0529,N,10404.6810,E,0.10,84.56,171112,,*30
$GPZDA,051234,17,11,2012,00,00*4E
$GPGGA,051234.867,3038.0532,N,10404.6810,E,1,06,1.4,456.9,M,-31.9,M,0.0,0000*53
$GPGSA,A,3,04,13,10,02,17,05,,,,,,,2.5,1.4,2.0*34
$GPRMC,051234.867,A,3038.0532,N,10404.6810,E,0.08,92.86,171112,,*31
$GPZDA,051235,17,11,2012,00,00*4F
$GPGGA,051235.867,3038.0535,N,10404.6810,E,1,06,1.4,455.5,M,-31.9,M,0.0,0000*5A
$GPGSA,A,3,04,13,10,02,17,05,,,,,,,2.5,1.4,2.0*34
$GPRMC,051235.867,A,3038.0535,N,10404.6810,E,0.06,78.95,171112,,*3F
$GPZDA,051236,17,11,2012,00,00*4C
$GPGGA,051236.867,3038.0538,N,10404.6810,E,1,06,1.4,454.2,M,-31.9,M,0.0,0000*52
$GPGSA,A,3,04,13,10,02,17,05,,,,,,,2.5,1.4,2.0*34
$GPRMC,051236.867,A,3038.0538,N,10404.6810,E,0.07,90.27,171112,,*3F
$GPZDA,051237,17,11,2012,00,00*4D
$GPGGA,051237.867,3038.0540,N,10404.6811,E,1,05,1.6,453.5,M,-31.9,M,0.0,0000*5C
$GPGSA,A,3,04,10,02,17,05,,,,,,,,4.1,1.6,3.7*30
$GPGSV,3,1,10,10,77,127,40,04,55,025,41,02,50,295,43,17,43,101,45*73
$GPGSV,3,2,10,05,30,208,41,31,17,116,00,29,17,121,00,13,15,083,27*75
$GPGSV,3,3,10,23,06,051,00,28,06,162,00*72
$GPRMC,051237.867,A,3038.0540,N,10404.6811,E,0.09,87.69,171112,,*32
$GPMSS,0,0,0.000000,0,*58
$GPZDA,051238,17,11,2012,00,00*42
$GPGGA,051238.867,3038.0543,N,10404.6811,E,1,05,1.6,453.1,M,-31.9,M,0.0,0000*54
$GPGSA,A,3,04,10,02,17,05,,,,,,,,4.1,1.6,3.7*30
$GPRMC,051238.867,A,3038.0543,N,10404.6811,E,0.09,100.27,171112,,*0A
$GPZDA,051239,17,11,2012,00,00*43
$GPGGA,051239.867,3038.0545,N,10404.6813,E,1,06,1.4,452.4,M,-31.9,M,0.0,0000*54
$GPGSA,A,3,04,13,10,02,17,05,,,,,,,2.5,1.4,2.0*34
$GPRMC,051239.867,A,3038.0545,N,10404.6813,E,0.09,95.86,171112,,*39
$GPZDA,051240,17,11,2012,00,00*4D
$GPGGA,051240.867,3038.0546,N,10404.6814,E,1,05,1.6,452.1,M,-31.9,M,0.0,0000*5A
$GPGSA,A,3,04,10,02,17,05,,,,,,,,4.1,1.6,3.7*30
$GPRMC,051240.867,A,3038.0546,N,10404.6814,E,0.09,80.80,171112,,*31
$GPZDA,051241,17,11,2012,00,00*4C
$GPGGA,051241.867,3038.0547,N,10404.6815,E,1,05,1.6,452.2,M,-31.9,M,0.0,0000*58
$GPGSA,A,3,04,10,02,17,05,,,,,,,,4.1,1.6,3.7*30
$GPRMC,051241.867,A,3038.0547,N,10404.6815,E,0.08,107.42,171112,,*01
$GPZDA,051242,17,11,2012,00,00*4F
$GPGGA,051242.867,3038.0548,N,10404.6816,E,1,05,1.6,452.4,M,-31.9,M,0.0,0000*51
$GPGSA,A,3,04,10,02,17,05,,,,,,,,4.1,1.6,3.7*30
$GPGSV,3,1,10,10,77,127,41,04,55,025,44,02,50,295,43,17,43,101,45*77
$GPGSV,3,2,10,05,30,208,42,31,17,116,00,29,17,121,00,13,15,083,25*74
$GPGSV,3,3,10,23,06,051,00,28,06,162,00*72
$GPRMC,051242.867,A,3038.0548,N,10404.6816,E,0.09,100.72,171112,,*0B
$GPMSS,0,0,0.000000,0,*58
$GPZDA,051243,17,11,2012,00,00*4E
$GPGGA,051243.867,3038.0549,N,10404.6817,E,1,05,1.6,452.9,M,-31.9,M,0.0,0000*5D
$GPGSA,A,3,04,10,02,17,05,,,,,,,,4.1,1.6,3.7*30
$GPRMC,051243.867,A,3038.0549,N,10404.6817,E,0.08,109.62,171112,,*03
$GPZDA,051244,17,11,2012,00,00*49
$GPGGA,051244.867,3038.0549,N,10404.6818,E,1,05,1.6,453.4,M,-31.9,M,0.0,0000*59
$GPGSA,A,3,04,10,02,17,05,,,,,,,,4.1,1.6,3.7*30
$GPRMC,051244.867,A,3038.0549,N,10404.6818,E,0.08,100.98,171112,,*07
$GPZDA,051245,17,11,2012,00,00*48
$GPGGA,051245.867,3038.0549,N,10404.6819,E,1,05,1.6,453.9,M,-31.9,M,0.0,0000*54
$GPGSA,A,3,04,10,02,17,05,,,,,,,,4.1,1.6,3.7*30
$GPRMC,051245.867,A,3038.0549,N,10404.6819,E,0.09,104.52,171112,,*04
$GPZDA,051246,17,11,2012,00,00*4B
$GPGGA,051246.867,3038.0549,N,10404.6819,E,1,05,1.6,454.3,M,-31.9,M,0.0,0000*5A
$GPGSA,A,3,04,10,02,17,05,,,,,,,,4.1,1.6,3.7*30
$GPRMC,051246.867,A,3038.0549,N,10404.6819,E,0.08,108.74,171112,,*0E
$GPZDA,051247,17,11,2012,00,00*4A
$GPGGA,051247.867,3038.0549,N,10404.6819,E,1,05,1.6,454.6,M,-31.9,M,0.0,0000*5E
$GPGSA,A,3,04,10,02,17,05,,,,,,,,4.1,1.6,3.7*30
$GPGSV,3,1,10,10,77,126,41,04,55,025,45,02,50,295,45,17,43,102,46*71
$GPGSV,3,2,10,05,30,208,41,29,17,121,00,31,17,116,00,13,15,083,25*77
$GPGSV,3,3,10,23,06,051,00,28,06,162,00*72
$GPRMC,051247.867,A,3038.0549,N,10404.6819,E,0.08,106.34,171112,,*05
$GPMSS,0,0,0.000000,0,*58
$GPZDA,051248,17,11,2012,00,00*45
$GPGGA,051248.867,3038.0548,N,10404.6819,E,1,05,1.6,454.8,M,-31.9,M,0.0,0000*5E
$GPGSA,A,3,04,10,02,17,05,,,,,,,,4.1,1.6,3.7*30
$GPRMC,051248.867,A,3038.0548,N,10404.6819,E,0.10,103.61,171112,,*07
$GPZDA,051249,17,11,2012,00,00*44
$GPGGA,051249.867,3038.0548,N,10404.6818,E,1,05,1.6,454.9,M,-31.9,M,0.0,0000*5F
$GPGSA,A,3,04,10,02,17,05,,,,,,,,4.1,1.6,3.7*30
$GPRMC,051249.867,A,3038.0548,N,10404.6818,E,0.08,111.11,171112,,*0A
$GPZDA,051250,17,11,2012,00,00*4C
$GPGGA,051250.867,3038.0546,N,10404.6817,E,1,05,1.6,454.9,M,-31.9,M,0.0,0000*56
$GPGSA,A,3,04,10,02,17,05,,,,,,,,4.1,1.6,3.7*30
$GPRMC,051250.867,A,3038.0546,N,10404.6817,E,0.08,110.76,171112,,*03
$GPZDA,051251,17,11,2012,00,00*4D
$GPGGA,051251.867,3038.0545,N,10404.6816,E,1,05,1.6,455.0,M,-31.9,M,0.0,0000*5D
$GPGSA,A,3,04,10,02,17,05,,,,,,,,4.1,1.6,3.7*30
$GPRMC,051251.867,A,3038.0545,N,10404.6816,E,0.08,102.87,171112,,*0D
$GPZDA,051252,17,11,2012,00,00*4E
$GPGGA,051252.866,3038.0543,N,10404.6815,E,1,05,1.6,455.1,M,-31.9,M,0.0,0000*5B
$GPGSA,A,3,04,10,02,17,05,,,,,,,,4.1,1.6,3.7*30
$GPGSV,3,1,10,10,77,126,41,04,55,025,45,02,50,295,44,17,43,102,46*70
$GPGSV,3,2,10,05,30,208,41,29,17,121,00,31,17,116,00,13,15,083,00*70
$GPGSV,3,3,10,23,06,051,00,28,06,162,00*72
$GPRMC,051252.866,A,3038.0543,N,10404.6815,E,0.08,107.23,171112,,*01
$GPMSS,0,0,0.000000,0,*58
$GPZDA,051253,17,11,2012,00,00*4F
$GPGGA,051253.866,3038.0541,N,10404.6814,E,1,05,1.6,455.0,M,-31.9,M,0.0,0000*58
$GPGSA,A,3,04,10,02,17,05,,,,,,,,4.1,1.6,3.7*30
$GPRMC,051253.866,A,3038.0541,N,10404.6814,E,0.08,105.32,171112,,*01
$GPZDA,051254,17,11,2012,00,00*48
$GPGGA,051254.866,3038.0539,N,10404.6813,E,1,05,1.6,454.9,M,-31.9,M,0.0,0000*5F
$GPGSA,A,3,04,10,02,17,05,,,,,,,,4.1,1.6,3.7*30
$GPRMC,051254.866,A,3038.0539,N,10404.6813,E,0.08,104.03,171112,,*0D
$GPZDA,051255,17,11,2012,00,00*49
$GPGGA,051255.866,3038.0536,N,10404.6812,E,1,05,1.6,454.8,M,-31.9,M,0.0,0000*51
$GPGSA,A,3,04,10,02,17,05,,,,,,,,4.1,1.6,3.7*30
$GPRMC,051255.866,A,3038.0536,N,10404.6812,E,0.09,110.71,171112,,*03
$GPZDA,051256,17,11,2012,00,00*4A
$GPGGA,051256.866,3038.0534,N,10404.6811,E,1,05,1.6,454.7,M,-31.9,M,0.0,0000*5C
$GPGSA,A,3,04,10,02,17,05,,,,,,,,4.1,1.6,3.7*30
$GPRMC,051256.866,A,3038.0534,N,10404.6811,E,0.08,113.23,171112,,*04
$GPZDA,051257,17,11,2012,00,00*4B
$GPGGA,051257.866,3038.0532,N,10404.6810,E,1,05,1.6,454.6,M,-31.9,M,0.0,0000*5B
$GPGSA,A,3,04,10,02,17,05,,,,,,,,4.1,1.6,3.7*30
$GPGSV,3,1,10,10,77,126,42,04,55,025,45,02,50,295,44,17,43,102,45*70
$GPGSV,3,2,10,05,30,208,41,29,17,121,00,31,17,116,00,13,15,083,00*70
$GPGSV,3,3,10,23,06,051,00,28,06,162,00*72
$GPRMC,051257.866,A,3038.0532,N,10404.6810,E,0.06,106.94,171112,,*04
$GPMSS,0,0,0.000000,0,*58
$GPZDA,051258,17,11,2012,00,00*44
$GPGGA,051258.866,3038.0530,N,10404.6810,E,1,05,1.6,454.5,M,-31.9,M,0.0,0000*55
$GPGSA,A,3,04,10,02,17,05,,,,,,,,4.1,1.6,3.7*30
$GPRMC,051258.866,A,3038.0530,N,10404.6810,E,0.07,106.62,171112,,*01
$GPZDA,051259,17,11,2012,00,00*45
$GPGGA,051259.866,3038.0528,N,10404.6809,E,1,05,1.6,454.3,M,-31.9,M,0.0,0000*53
$GPGSA,A,3,04,10,02,17,05,,,,,,,,4.1,1.6,3.7*30
$GPRMC,051259.866,A,3038.0528,N,10404.6809,E,0.08,97.25,171112,,*34
$GPZDA,051300,17,11,2012,00,00*48
$GPGGA,051300.866,3038.0526,N,10404.6809,E,1,05,1.6,454.1,M,-31.9,M,0.0,0000*52
$GPGSA,A,3,04,10,02,17,05,,,,,,,,4.1,1.6,3.7*30
$GPRMC,051300.866,A,3038.0526,N,10404.6809,E,0.08,103.68,171112,,*02
$GPZDA,051301,17,11,2012,00,00*49
$GPGGA,051301.866,3038.0525,N,10404.6808,E,1,05,1.6,453.8,M,-31.9,M,0.0,0000*5F
$GPGSA,A,3,04,10,02,17,05,,,,,,,,4.1,1.6,3.7*30
$GPRMC,051301.866,A,3038.0525,N,10404.6808,E,0.08,106.68,171112,,*04
$GPZDA,051302,17,11,2012,00,00*4A
$GPGGA,051302.866,3038.0524,N,10404.6808,E,1,05,1.6,453.6,M,-31.9,M,0.0,0000*53
$GPGSA,A,3,04,10,02,17,05,,,,,,,,4.1,1.6,3.7*30
$GPGSV,3,1,10,10,77,126,42,04,55,025,46,02,50,295,43,17,43,102,44*75
$GPGSV,3,2,10,05,30,208,41,29,17,121,00,31,17,116,00,13,15,083,00*70
$GPGSV,3,3,10,23,06,051,00,28,06,162,00*72
$GPRMC,051302.866,A,3038.0524,N,10404.6808,E,0.08,108.45,171112,,*07
$GPMSS,0,0,0.000000,0,*58
$GPZDA,051303,17,11,2012,00,00*4B
$GPGGA,051303.866,3038.0523,N,10404.6808,E,1,05,1.6,453.4,M,-31.9,M,0.0,0000*57
$GPGSA,A,3,04,10,02,17,05,,,,,,,,4.1,1.6,3.7*30
$GPRMC,051303.866,A,3038.0523,N,10404.6808,E,0.08,102.31,171112,,*08
$GPZDA,051304,17,11,2012,00,00*4C
$GPGGA,051304.866,3038.0523,N,10404.6809,E,1,05,1.6,453.1,M,-31.9,M,0.0,0000*54
$GPGSA,A,3,04,10,02,17,05,,,,,,,,4.1,1.6,3.7*30
$GPRMC,051304.866,A,3038.0523,N,10404.6809,E,0.07,94.10,171112,,*3C
$GPZDA,051305,17,11,2012,00,00*4D
$GPGGA,051305.866,3038.0522,N,10404.6810,E,1,05,1.6,452.8,M,-31.9,M,0.0,0000*54
$GPGSA,A,3,04,10,02,17,05,,,,,,,,4.1,1.6,3.7*30
$GPRMC,051305.866,A,3038.0522,N,10404.6810,E,0.09,104.21,171112,,*00
$GPZDA,051306,17,11,2012,00,00*4E
$GPGGA,051306.866,3038.0522,N,10404.6811,E,1,05,1.6,452.4,M,-31.9,M,0.0,0000*5A
$GPGSA,A,3,04,10,02,17,05,,,,,,,,4.1,1.6,3.7*30
$GPRMC,051306.866,A,3038.0522,N,10404.6811,E,0.07,96.20,171112,,*37
$GPZDA,051307,17,11,2012,00,00*4F
$GPGGA,051307.866,3038.0522,N,10404.6813,E,1,05,1.6,451.9,M,-31.9,M,0.0,0000*57
$GPGSA,A,3,04,10,02,17,05,,,,,,,,4.1,1.6,3.7*30
$GPGSV,3,1,10,10,77,126,43,04,55,025,46,02,50,295,43,17,43,102,44*74
$GPGSV,3,2,10,05,30,208,41,29,17,121,00,31,17,116,00,13,15,083,00*70
$GPGSV,3,3,10,23,06,051,00,28,06,162,00*72
$GPRMC,051307.866,A,3038.0522,N,10404.6813,E,0.08,112.04,171112,,*00
$GPMSS,0,0,0.000000,0,*58
$GPZDA,051308,17,11,2012,00,00*40
$GPGGA,051308.866,3038.0522,N,10404.6814,E,1,05,1.6,451.4,M,-31.9,M,0.0,0000*52
$GPGSA,A,3,04,10,02,17,05,,,,,,,,4.1,1.6,3.7*30
$GPRMC,051308.866,A,3038.0522,N,10404.6814,E,0.08,108.72,171112,,*02
$GPZDA,051309,17,11,2012,00,00*41
$GPGGA,051309.866,3038.0522,N,10404.6815,E,1,05,1.6,450.9,M,-31.9,M,0.0,0000*5E
$GPGSA,A,3,04,10,02,17,05,,,,,,,,4.1,1.6,3.7*30
$GPRMC,051309.866,A,3038.0522,N,10404.6815,E,0.08,103.78,171112,,*03
$GPZDA,051310,17,11,2012,00,00*49
$GPGGA,051310.866,3038.0523,N,10404.6816,E,1,05,1.6,450.4,M,-31.9,M,0.0,0000*59
$GPGSA,A,3,04,10,02,17,05,,,,,,,,4.1,1.6,3.7*30
$GPRMC,051310.866,A,3038.0523,N,10404.6816,E,0.08,100.68,171112,,*0B
$GPZDA,051311,17,11,2012,00,00*48
$GPGGA,051311.865,3038.0523,N,10404.6817,E,1,05,1.6,449.9,M,-31.9,M,0.0,0000*5F
$GPGSA,A,3,04,10,02,17,05,,,,,,,,4.1,1.6,3.7*30
$GPRMC,051311.865,A,3038.0523,N,10404.6817,E,0.06,104.84,171112,,*00
$GPZDA,051312,17,11,2012,00,00*4B
$GPGGA,051312.865,3038.0524,N,10404.6817,E,1,05,1.6,449.5,M,-31.9,M,0.0,0000*57
$GPGSA,A,3,04,10,02,17,05,,,,,,,,4.1,1.6,3.7*30
$GPGSV,3,1,10,10,77,125,43,04,54,025,46,02,50,296,42,17,43,102,43*73
$GPGSV,3,2,10,05,30,208,42,29,17,120,00,31,17,116,00,13,15,083,00*72
$GPGSV,3,3,10,23,06,051,00,28,06,162,00*72
$GPRMC,051312.865,A,3038.0524,N,10404.6817,E,0.07,109.84,171112,,*08
$GPMSS,0,0,0.000000,0,*58
$GPZDA,051313,17,11,2012,00,00*4A
$GPGGA,051313.865,3038.0525,N,10404.6816,E,1,05,1.6,449.2,M,-31.9,M,0.0,0000*51
$GPGSA,A,3,04,10,02,17,05,,,,,,,,4.1,1.6,3.8*3F
$GPRMC,051313.865,A,3038.0525,N,10404.6816,E,0.08,109.26,171112,,*0E
$GPZDA,051314,17,11,2012,00,00*4D
$GPGGA,051314.865,3038.0526,N,10404.6816,E,1,05,1.6,448.9,M,-31.9,M,0.0,0000*5F
$GPGSA,A,3,04,10,02,17,05,,,,,,,,4.1,1.6,3.8*3F
$GPRMC,051314.865,A,3038.0526,N,10404.6816,E,0.06,104.43,171112,,*0A
$GPZDA,051315,17,11,2012,00,00*4C
$GPGGA,051315.865,3038.0527,N,10404.6816,E,1,05,1.6,448.6,M,-31.9,M,0.0,0000*50
$GPGSA,A,3,04,10,02,17,05,,,,,,,,4.1,1.6,3.8*3F
$GPRMC,051315.865,A,3038.0527,N,10404.6816,E,0.07,94.47,171112,,*37
$GPZDA,051316,17,11,2012,00,00*4F
$GPGGA,051316.865,3038.0528,N,10404.6816,E,1,05,1.6,448.1,M,-31.9,M,0.0,0000*5B
$GPGSA,A,3,04,10,02,17,05,,,,,,,,4.1,1.6,3.8*3F
$GPRMC,051316.865,A,3038.0528,N,10404.6816,E,0.07,103.03,171112,,*04
$GPZDA,051317,17,11,2012,00,00*4E
$GPGGA,051317.865,3038.0529,N,10404.6816,E,1,05,1.6,447.7,M,-31.9,M,0.0,0000*52
$GPGSA,A,3,04,10,02,17,05,,,,,,,,4.1,1.6,3.8*3F
$GPGSV,3,1,10,10,77,125,43,04,54,025,46,02,50,296,42,17,42,102,43*72
$GPGSV,3,2,10,05,30,208,42,29,17,120,00,31,17,116,00,13,15,083,00*72
$GPGSV,3,3,10,23,06,050,00,28,06,162,00*73
$GPRMC,051317.865,A,3038.0529,N,10404.6816,E,0.07,98.68,171112,,*3A
$GPMSS,0,0,0.000000,0,*58
$GPZDA,051318,17,11,2012,00,00*41
$GPGGA,051318.865,3038.0530,N,10404.6816,E,1,05,1.6,447.1,M,-31.9,M,0.0,0000*53
$GPGSA,A,3,04,10,02,17,05,,,,,,,,4.1,1.6,3.8*3F
$GPRMC,051318.865,A,3038.0530,N,10404.6816,E,0.07,102.08,171112,,*09
$GPZDA,051319,17,11,2012,00,00*40
$GPGGA,051319.865,3038.0531,N,10404.6817,E,1,05,1.6,446.6,M,-31.9,M,0.0,0000*54
$GPGSA,A,3,04,10,02,17,05,,,,,,,,4.1,1.6,3.8*3F
$GPRMC,051319.865,A,3038.0531,N,10404.6817,E,0.08,89.32,171112,,*3C
$GPZDA,051320,17,11,2012,00,00*4A
$GPGGA,051320.865,3038.0531,N,10404.6818,E,1,05,1.6,446.2,M,-31.9,M,0.0,0000*55
$GPGSA,A,3,04,10,02,17,05,,,,,,,,4.1,1.6,3.8*3F
$GPRMC,051320.865,A,3038.0531,N,10404.6818,E,0.08,111.30,171112,,*0B
$GPZDA,051321,17,11,2012,00,00*4B
$GPGGA,051321.865,3038.0531,N,10404.6819,E,1,05,1.6,445.7,M,-31.9,M,0.0,0000*53
$GPGSA,A,3,04,10,02,17,05,,,,,,,,4.1,1.6,3.8*3F
$GPRMC,051321.865,A,3038.0531,N,10404.6819,E,0.09,102.75,171112,,*09
$GPZDA,051322,17,11,2012,00,00*48
$GPGGA,051322.865,3038.0531,N,10404.6820,E,1,05,1.6,445.3,M,-31.9,M,0.0,0000*5E
$GPGSA,A,3,04,10,02,17,05,,,,,,,,4.1,1.6,3.8*3F
$GPGSV,3,1,10,10,77,125,42,04,54,025,46,02,50,296,42,17,42,102,43*73
$GPGSV,3,2,10,05,30,208,41,29,17,120,00,31,17,116,00,13,15,083,00*71
$GPGSV,3,3,10,23,06,050,00,28,06,162,00*73
$GPRMC,051322.865,A,3038.0531,N,10404.6820,E,0.09,101.88,171112,,*01
$GPMSS,0,0,0.000000,0,*58
$GPZDA,051323,17,11,2012,00,00*49
$GPGGA,051323.865,3038.0531,N,10404.6820,E,1,05,1.6,444.8,M,-31.9,M,0.0,0000*55
$GPGSA,A,3,04,10,02,17,05,,,,,,,,4.1,1.6,3.8*3F
$GPRMC,051323.865,A,3038.0531,N,10404.6820,E,0.08,119.34,171112,,*0F
$GPZDA,051324,17,11,2012,00,00*4E
$GPGGA,051324.865,3038.0531,N,10404.6819,E,1,05,1.6,444.4,M,-31.9,M,0.0,0000*54
$GPGSA,A,3,04,10,02,17,05,,,,,,,,4.1,1.6,3.8*3F
$GPRMC,051324.865,A,3038.0531,N,10404.6819,E,0.07,88.51,171112,,*37
$GPZDA,051325,17,11,2012,00,00*4F
$GPGGA,051325.865,3038.0531,N,10404.6818,E,1,05,1.6,444.1,M,-31.9,M,0.0,0000*51
$GPGSA,A,3,04,10,02,17,05,,,,,,,,4.1,1.6,3.8*3F
$GPRMC,051325.865,A,3038.0531,N,10404.6818,E,0.09,101.61,171112,,*0A
$GPZDA,051326,17,11,2012,00,00*4C
$GPGGA,051326.865,3038.0532,N,10404.6816,E,1,05,1.6,444.1,M,-31.9,M,0.0,0000*5F
$GPGSA,A,3,04,10,02,17,05,,,,,,,,4.1,1.6,3.8*3F
$GPRMC,051326.865,A,3038.0532,N,10404.6816,E,0.08,105.31,171112,,*04
$GPZDA,051327,17,11,2012,00,00*4D
$GPGGA,051327.865,3038.0532,N,10404.6814,E,1,05,1.6,444.3,M,-31.9,M,0.0,0000*5E
$GPGSA,A,3,04,10,02,17,05,,,,,,,,4.1,1.6,3.8*3F
$GPGSV,3,1,10,10,77,125,42,04,54,025,46,02,50,296,42,17,42,102,44*74
$GPGSV,3,2,10,05,30,208,42,29,17,120,00,31,17,116,00,13,15,083,00*72
$GPGSV,3,3,10,23,06,050,00,28,06,162,00*73
$GPRMC,051327.865,A,3038.0532,N,10404.6814,E,0.08,104.35,171112,,*02
$GPMSS,0,0,0.000000,0,*58
