
$GPGSV,3,1,09,21,62,321,47,26,54,033,45,29,38,038,45,18,37,301,32*76
$GPGSV,3,2,09,09,35,153,46,06,28,214,43,15,21,317,43,10,11,079,26*79
$GPGSV,3,3,09,22,11,282,25*4F
$GPRMC,050702.441,A,3037.1243,N,10403.9072,E,0.0,268.9,010605,,*0C
$GPVTG,268.9,T,,M,0.0,N,0.0,K*65
$GPGGA,050703.441,3037.1242,N,10403.9074,E,1,07,1.1,446.3,M,,,,0000*03
$GPRMC,050703.441,A,3037.1242,N,10403.9074,E,0.0,268.9,010605,,*0A
$GPVTG,268.9,T,,M,0.0,N,0.0,K*65
$GPGGA,050704.441,3037.1241,N,10403.9076,E,1,07,1.1,445.9,M,,,,0000*0C
$GPRMC,050704.441,A,3037.1241,N,10403.9076,E,0.0,268.9,010605,,*0C
$GPVTG,268.9,T,,M,0.0,N,0.0,K*65
$GPGGA,050705.441,3037.1241,N,10403.9078,E,1,07,1.1,445.6,M,,,,0000*0C
$GPRMC,050705.441,A,3037.1241,N,10403.9078,E,0.0,268.9,010605,,*03
$GPVTG,268.9,T,,M,0.0,N,0.0,K*65
$GPGGA,050706.441,3037.1240,N,10403.9080,E,1,07,1.1,445.2,M,,,,0000*0D
$GPRMC,050706.441,A,3037.1240,N,10403.9080,E,0.0,268.9,010605,,*06
$GPVTG,268.9,T,,M,0.0,N,0.0,K*65
$GPGGA,050707.441,3037.1240,N,10403.9082,E,1,07,1.1,444.9,M,,,,0000*04
$GPGSA,A,3,21,26,29,18,09,06,15,,,,,,2.8,1.1,2.5*31
$GPGSV,3,1,09,21,62,321,46,26,54,033,46,29,38,038,44,18,37,301,30*77
$GPGSV,3,2,09,09,35,153,47,06,28,214,44,15,21,317,43,10,11,079,27*7E
$GPGSV,3,3,09,22,11,282,25*4F
$GPRMC,050707.441,A,3037.1240,N,10403.9082,E,0.0,268.9,010605,,*05
$GPVTG,268.9,T,,M,0.0,N,0.0,K*65
$GPGGA,050708.441,3037.1241,N,10403.9084,E,1,07,1.1,444.6,M,,,,0000*03
$GPRMC,050708.441,A,3037.1241,N,10403.9084,E,0.0,268.9,010605,,*0D
$GPVTG,268.9,T,,M,0.0,N,0.0,K*65
$GPGGA,050709.441,3037.1242,N,10403.9085,E,1,07,1.1,444.3,M,,,,0000*05
$GPRMC,050709.441,A,3037.1242,N,10403.9085,E,0.0,268.9,010605,,*0E
$GPVTG,268.9,T,,M,0.0,N,0.0,K*65
$GPGGA,050710.441,3037.1243,N,10403.9085,E,1,07,1.1,444.0,M,,,,0000*0F
$GPRMC,050710.441,A,3037.1243,N,10403.9085,E,0.0,268.9,010605,,*07
$GPVTG,268.9,T,,M,0.0,N,0.0,K*65
$GPGGA,050711.441,3037.1244,N,10403.9084,E,1,07,1.1,443.6,M,,,,0000*09
$GPRMC,050711.441,A,3037.1244,N,10403.9084,E,0.0,268.9,010605,,*00
$GPVTG,268.9,T,,M,0.0,N,0.0,K*65
$GPGGA,050712.441,3037.1246,N,10403.9083,E,1,07,1.1,443.4,M,,,,0000*0D
$GPGSA,A,3,21,26,29,18,09,06,15,,,,,,2.8,1.1,2.5*31
$GPGSV,3,1,09,21,62,321,46,26,54,033,46,29,38,038,45,18,37,301,29*7E
$GPGSV,3,2,09,09,35,152,48,06,28,214,44,15,21,317,41,22,11,282,29*7B
$GPGSV,3,3,09,10,11,079,30*4C
$GPRMC,050712.441,A,3037.1246,N,10403.9083,E,0.0,268.9,010605,,*06
$GPVTG,268.9,T,,M,0.0,N,0.0,K*65
$GPGGA,050713.441,3037.1247,N,10403.9082,E,1,07,1.1,443.2,M,,,,0000*0A
$GPRMC,050713.441,A,3037.1247,N,10403.9082,E,0.0,268.9,010605,,*07
$GPVTG,268.9,T,,M,0.0,N,0.0,K*65
$GPGGA,050714.441,3037.1248,N,10403.9081,E,1,07,1.1,442.9,M,,,,0000*0B
$GPRMC,050714.441,A,3037.1248,N,10403.9081,E,0.0,268.9,010605,,*0C
$GPVTG,268.9,T,,M,0.0,N,0.0,K*65
$GPGGA,050715.441,3037.1249,N,10403.9080,E,1,07,1.1,442.8,M,,,,0000*0B
$GPRMC,050715.441,A,3037.1249,N,10403.9080,E,0.0,268.9,010605,,*0D
$GPVTG,268.9,T,,M,0.0,N,0.0,K*65
$GPGGA,050716.441,3037.1249,N,10403.9079,E,1,07,1.1,442.6,M,,,,0000*00
$GPRMC,050716.441,A,3037.1249,N,10403.9079,E,0.0,268.9,010605,,*08
$GPVTG,268.9,T,,M,0.0,N,0.0,K*65
$GPGGA,050717.441,3037.1249,N,10403.9077,E,1,07,1.1,442.5,M,,,,0000*0C
$GPGSA,A,3,21,26,29,18,09,06,15,,,,,,2.8,1.1,2.5*31
$GPGSV,3,1,09,21,62,321,46,26,54,033,47,29,38,038,46,18,37,301,30*74
$GPGSV,3,2,09,09,35,152,48,06,28,214,43,15,21,317,42,22,11,282,34*73
$GPGSV,3,3,09,10,11,079,26*4B
$GPRMC,050717.441,A,3037.1249,N,10403.9077,E,0.0,268.9,010605,,*07
$GPVTG,268.9,T,,M,0.0,N,0.0,K*65
$GPGGA,050718.440,3037.1249,N,10403.9076,E,1,07,1.1,442.5,M,,,,0000*03
$GPRMC,050718.440,A,3037.1249,N,10403.9076,E,0.0,268.9,010605,,*08
$GPVTG,268.9,T,,M,0.0,N,0.0,K*65
$GPGGA,050719.440,3037.1249,N,10403.9074,E,1,07,1.1,442.6,M,,,,0000*03
$GPRMC,050719.440,A,3037.1249,N,10403.9074,E,0.0,268.9,010605,,*0B
$GPVTG,268.9,T,,M,0.0,N,0.0,K*65
$GPGGA,050720.440,3037.1249,N,10403.9073,E,1,07,1.1,442.8,M,,,,0000*00
$GPRMC,050720.440,A,3037.1249,N,10403.9073,E,0.0,268.9,010605,,*06
$GPVTG,268.9,T,,M,0.0,N,0.0,K*65
$GPGGA,050721.440,3037.1249,N,10403.9072,E,1,07,1.1,443.0,M,,,,0000*09
$GPRMC,050721.440,A,3037.1249,N,10403.9072,E,0.0,268.9,010605,,*06
$GPVTG,268.9,T,,M,0.0,N,0.0,K*65
$GPGGA,050722.440,3037.1248,N,10403.9074,E,1,08,0.9,443.4,M,,,,0000*0F
$GPGSA,A,3,21,26,29,18,09,06,15,10,,,,,2.0,0.9,1.7*30
$GPGSV,3,1,09,21,62,321,47,26,54,033,46,29,38,038,46,18,37,301,32*76
$GPGSV,3,2,09,09,35,152,47,06,28,214,44,15,21,317,43,22,11,282,32*7C
$GPGSV,3,3,09,10,11,079,27*4A
$GPRMC,050722.440,A,3037.1248,N,10403.9074,E,0.0,268.9,010605,,*02
$GPVTG,268.9,T,,M,0.0,N,0.0,K*65
$GPGGA,050723.440,3037.1248,N,10403.9075,E,1,07,1.1,443.9,M,,,,0000*04
$GPRMC,050723.440,A,3037.1248,N,10403.9075,E,0.0,268.9,010605,,*02
$GPVTG,268.9,T,,M,0.0,N,0.0,K*65
$GPGGA,050724.440,3037.1247,N,10403.9076,E,1,07,1.1,444.2,M,,,,0000*03
$GPRMC,050724.440,A,3037.1247,N,10403.9076,E,0.0,268.9,010605,,*09
$GPVTG,268.9,T,,M,0.0,N,0.0,K*65
$GPGGA,050725.440,3037.1247,N,10403.9077,E,1,07,1.1,444.5,M,,,,0000*04
$GPRMC,050725.440,A,3037.1247,N,10403.9077,E,0.0,268.9,010605,,*09
$GPVTG,268.9,T,,M,0.0,N,0.0,K*65
$GPGGA,050726.440,3037.1246,N,10403.9077,E,1,07,1.1,444.8,M,,,,0000*0B
$GPRMC,050726.440,A,3037.1246,N,10403.9077,E,0.0,268.9,010605,,*0B
$GPVTG,268.9,T,,M,0.0,N,0.0,K*65
$GPGGA,050727.440,3037.1246,N,10403.9077,E,1,07,1.1,444.8,M,,,,0000*0A
$GPGSA,A,3,21,26,29,18,09,06,15,,,,,,2.8,1.1,2.5*31
$GPGSV,3,1,09,21,62,321,46,26,54,033,46,29,38,038,46,18,37,301,30*75
$GPGSV,3,2,09,09,35,152,48,06,28,214,42,15,21,317,42,22,11,282,26*71
$GPGSV,3,3,09,10,11,079,21*4C
$GPRMC,050727.440,A,3037.1246,N,10403.9077,E,0.0,268.9,010605,,*0A
$GPVTG,268.9,T,,M,0.0,N,0.0,K*65
$GPGGA,050728.440,3037.1246,N,10403.9077,E,1,07,1.1,444.8,M,,,,0000*05
$GPRMC,050728.440,A,3037.1246,N,10403.9077,E,0.0,268.9,010605,,*05
$GPVTG,268.9,T,,M,0.0,N,0.0,K*65
$GPGGA,050729.440,3037.1245,N,10403.9077,E,1,07,1.1,444.6,M,,,,0000*09
$GPRMC,050729.440,A,3037.1245,N,10403.9077,E,0.0,268.9,010605,,*07
$GPVTG,268.9,T,,M,0.0,N,0.0,K*65
$GPGGA,050730.440,3037.1245,N,10403.9076,E,1,07,1.1,444.3,M,,,,0000*05
$GPRMC,050730.440,A,3037.1245,N,10403.9076,E,0.0,268.9,010605,,*0E
$GPVTG,268.9,T,,M,0.0,N,0.0,K*65
$GPGGA,050731.440,3037.1244,N,10403.9075,E,1,07,1.1,443.9,M,,,,0000*0B
$GPRMC,050731.440,A,3037.1244,N,10403.9075,E,0.0,268.9,010605,,*0D
$GPVTG,268.9,T,,M,0.0,N,0.0,K*65
$GPGGA,050732.440,3037.1243,N,10403.9073,E,1,07,1.1,443.4,M,,,,0000*04
$GPGSA,A,3,21,26,29,18,09,06,15,,,,,,2.8,1.1,2.5*31
$GPGSV,3,1,09,21,62,321,46,26,54,033,47,29,38,038,47,18,37,301,30*75
$GPGSV,3,2,09,09,35,152,48,06,28,214,41,15,21,317,42,22,11,282,*76
$GPGSV,3,3,09,10,11,079,20*4D
$GPRMC,050732.440,A,3037.1243,N,10403.9073,E,0.0,268.9,010605,,*0F
$GPVTG,268.9,T,,M,0.0,N,0.0,K*65
$GPGGA,050733.440,3037.1243,N,10403.9072,E,1,07,1.1,442.8,M,,,,0000*09
$GPRMC,050733.440,A,3037.1243,N,10403.9072,E,0.0,268.9,010605,,*0F
$GPVTG,268.9,T,,M,0.0,N,0.0,K*65
$GPGGA,050734.440,3037.1243,N,10403.9071,E,1,08,0.9,442.3,M,,,,0000*00
$GPRMC,050734.440,A,3037.1243,N,10403.9071,E,0.0,268.9,010605,,*0B
$GPVTG,268.9,T,,M,0.0,N,0.0,K*65
$GPGGA,050735.439,3037.1243,N,10403.9070,E,1,07,1.1,441.9,M,,,,0000*01
$GPRMC,050735.439,A,3037.1243,N,10403.9070,E,0.0,268.9,010605,,*05
$GPVTG,268.9,T,,M,0.0,N,0.0,K*65
$GPGGA,050736.439,3037.1242,N,10403.9069,E,1,08,0.9,441.5,M,,,,0000*01
$GPRMC,050736.439,A,3037.1242,N,10403.9069,E,0.0,268.9,010605,,*0F
$GPVTG,268.9,T,,M,0.0,N,0.0,K*65
$GPGGA,050737.439,3037.1242,N,10403.9068,E,1,08,0.9,441.1,M,,,,0000*05
$GPGSA,A,3,21,26,29,18,09,06,15,10,,,,,2.0,0.9,1.7*30
$GPGSV,3,1,09,21,62,321,47,26,54,033,46,29,38,038,47,18,37,301,32*77
$GPGSV,3,2,09,09,35,152,48,06,28,214,43,15,21,317,43,22,11,282,32*74
$GPGSV,3,3,09,10,11,079,24*49
$GPRMC,050737.439,A,3037.1242,N,10403.9068,E,0.0,268.9,010605,,*0F
$GPVTG,268.9,T,,M,0.0,N,0.0,K*65
$GPGGA,050738.439,3037.1242,N,10403.9067,E,1,07,1.1,440.8,M,,,,0000*0B
$GPRMC,050738.439,A,3037.1242,N,10403.9067,E,0.0,268.9,010605,,*0F
$GPVTG,268.9,T,,M,0.0,N,0.0,K*65
$GPGGA,050739.439,3037.1242,N,10403.9067,E,1,07,1.1,440.5,M,,,,0000*07
$GPRMC,050739.439,A,3037.1242,N,10403.9067,E,0.0,268.9,010605,,*0E
$GPVTG,268.9,T,,M,0.0,N,0.0,K*65
$GPGGA,050740.439,3037.1242,N,10403.9066,E,1,07,1.1,440.3,M,,,,0000*0E
$GPRMC,050740.439,A,3037.1242,N,10403.9066,E,0.0,268.9,010605,,*01
$GPVTG,268.9,T,,M,0.0,N,0.0,K*65
$GPGGA,050741.439,3037.1242,N,10403.9066,E,1,07,1.1,440.0,M,,,,0000*0C
$GPRMC,050741.439,A,3037.1242,N,10403.9066,E,0.0,268.9,010605,,*00
$GPVTG,268.9,T,,M,0.0,N,0.0,K*65
$GPGGA,050742.439,3037.1242,N,10403.9066,E,1,07,1.1,439.8,M,,,,0000*09
$GPGSA,A,3,21,26,29,18,09,06,15,,,,,,2.8,1.1,2.5*31
$GPGSV,3,1,09,21,62,321,46,26,54,033,47,29,38,038,46,18,37,301,30*74
$GPGSV,3,2,09,09,35,152,48,06,28,214,43,15,21,317,43,22,11,282,32*74
$GPGSV,3,3,09,10,11,079,19*47
$GPRMC,050742.439,A,3037.1242,N,10403.9066,E,0.0,268.9,010605,,*03
$GPVTG,268.9,T,,M,0.0,N,0.0,K*65
$GPGGA,050743.439,3037.1242,N,10403.9066,E,1,07,1.1,439.7,M,,,,0000*07
$GPRMC,050743.439,A,3037.1242,N,10403.9066,E,0.0,268.9,010605,,*02
$GPVTG,268.9,T,,M,0.0,N,0.0,K*65
$GPGGA,050744.439,3037.1242,N,10403.9066,E,1,07,1.1,439.5,M,,,,0000*02
$GPRMC,050744.439,A,3037.1242,N,10403.9066,E,0.0,268.9,010605,,*05
$GPVTG,268.9,T,,M,0.0,N,0.0,K*65
$GPGGA,050745.439,3037.1243,N,10403.9066,E,1,07,1.1,439.4,M,,,,0000*03
$GPRMC,050745.439,A,3037.1243,N,10403.9066,E,0.0,268.9,010605,,*05
$GPVTG,268.9,T,,M,0.0,N,0.0,K*65
$GPGGA,050746.439,3037.1243,N,10403.9065,E,1,07,1.1,439.3,M,,,,0000*04
$GPRMC,050746.439,A,3037.1243,N,10403.9065,E,0.0,268.9,010605,,*05
$GPVTG,268.9,T,,M,0.0,N,0.0,K*65
$GPGGA,050747.439,3037.1243,N,10403.9065,E,1,07,1.1,439.2,M,,,,0000*04
$GPGSA,A,3,21,26,29,18,09,06,15,,,,,,2.8,1.1,2.5*31
$GPGSV,3,1,09,21,62,321,47,26,54,033,47,29,38,038,46,18,37,301,29*7D
$GPGSV,3,2,09,09,35,152,48,06,28,214,42,15,21,317,43,22,11,282,31*76
$GPGSV,3,3,09,10,11,079,19*47
$GPRMC,050747.439,A,3037.1243,N,10403.9065,E,0.0,268.9,010605,,*04
$GPVTG,268.9,T,,M,0.0,N,0.0,K*65
$GPGGA,050748.439,3037.1244,N,10403.9065,E,1,07,1.1,439.0,M,,,,0000*0E
$GPRMC,050748.439,A,3037.1244,N,10403.9065,E,0.0,268.9,010605,,*0C
$GPVTG,268.9,T,,M,0.0,N,0.0,K*65
$GPGGA,050749.439,3037.1244,N,10403.9064,E,1,06,1.2,438.9,M,,,,0000*04
$GPRMC,050749.439,A,3037.1244,N,10403.9064,E,0.0,268.9,010605,,*0C
$GPVTG,268.9,T,,M,0.0,N,0.0,K*65
$GPGGA,050750.439,3037.1244,N,10403.9064,E,1,06,1.2,438.7,M,,,,0000*02
$GPRMC,050750.439,A,3037.1244,N,10403.9064,E,0.0,268.9,010605,,*04
$GPVTG,268.9,T,,M,0.0,N,0.0,K*65
$GPGGA,050751.439,3037.1245,N,10403.9063,E,1,06,1.2,438.6,M,,,,0000*04
$GPRMC,050751.439,A,3037.1245,N,10403.9063,E,0.0,268.9,010605,,*03
$GPVTG,268.9,T,,M,0.0,N,0.0,K*65
$GPGGA,050752.439,3037.1245,N,10403.9063,E,1,06,1.2,438.6,M,,,,0000*07
$GPGSA,A,3,21,26,29,09,06,15,,,,,,,2.8,1.2,2.6*38
$GPGSV,3,1,09,21,63,321,46,26,54,033,46,29,37,038,46,18,37,302,30*78
$GPGSV,3,2,09,09,35,152,48,06,28,214,43,15,21,317,44,22,11,282,26*76
$GPGSV,3,3,09,10,11,079,*4F
$GPRMC,050752.439,A,3037.1245,N,10403.9063,E,0.0,268.9,010605,,*00
$GPVTG,268.9,T,,M,0.0,N,0.0,K*65
$GPGGA,050753.438,3037.1245,N,10403.9062,E,1,06,1.2,438.5,M,,,,0000*05
$GPRMC,050753.438,A,3037.1245,N,10403.9062,E,0.0,268.9,010605,,*01
$GPVTG,268.9,T,,M,0.0,N,0.0,K*65
$GPGGA,050754.438,3037.1245,N,10403.9063,E,1,07,1.1,438.4,M,,,,0000*00
$GPRMC,050754.438,A,3037.1245,N,10403.9063,E,0.0,268.9,010605,,*07
$GPVTG,268.9,T,,M,0.0,N,0.0,K*65
$GPGGA,050755.438,3037.1245,N,10403.9063,E,1,07,1.1,438.3,M,,,,0000*06
$GPRMC,050755.438,A,3037.1245,N,10403.9063,E,0.0,268.9,010605,,*06
$GPVTG,268.9,T,,M,0.0,N,0.0,K*65
$GPGGA,050756.438,3037.1245,N,10403.9063,E,1,06,1.2,438.2,M,,,,0000*06
$GPRMC,050756.438,A,3037.1245,N,10403.9063,E,0.0,268.9,010605,,*05
$GPVTG,268.9,T,,M,0.0,N,0.0,K*65
$GPGGA,050757.438,3037.1245,N,10403.9063,E,1,07,1.1,438.2,M,,,,0000*05
$GPGSA,A,3,21,26,29,18,09,06,15,,,,,,2.8,1.1,2.5*31
$GPGSV,3,1,09,21,63,321,46,26,54,033,47,29,37,038,46,18,37,302,29*71
$GPGSV,3,2,09,09,35,152,48,06,28,214,42,15,21,317,45,22,11,282,31*70
$GPGSV,3,3,09,10,11,079,*4F
$GPRMC,050757.438,A,3037.1245,N,10403.9063,E,0.0,268.9,010605,,*04
$GPVTG,268.9,T,,M,0.0,N,0.0,K*65
$GPGGA,050758.438,3037.1245,N,10403.9063,E,1,07,1.1,438.2,M,,,,0000*0A
$GPRMC,050758.438,A,3037.1245,N,10403.9063,E,0.0,268.9,010605,,*0B
$GPVTG,268.9,T,,M,0.0,N,0.0,K*65
$GPGGA,050759.438,3037.1245,N,10403.9063,E,1,06,1.2,438.1,M,,,,0000*0A
$GPRMC,050759.438,A,3037.1245,N,10403.9063,E,0.0,268.9,010605,,*0A
$GPVTG,268.9,T,,M,0.0,N,0.0,K*65
$GPGGA,050800.438,3037.1244,N,10403.9063,E,1,08,0.9,438.2,M,,,,0000*0F
$GPRMC,050800.438,A,3037.1244,N,10403.9063,E,0.0,268.9,010605,,*08
$GPVTG,268.9,T,,M,0.0,N,0.0,K*65
$GPGGA,050801.438,3037.1244,N,10403.9063,E,1,08,0.9,438.4,M,,,,0000*08
$GPRMC,050801.438,A,3037.1244,N,10403.9063,E,0.0,268.9,010605,,*09
$GPVTG,268.9,T,,M,0.0,N,0.0,K*65
$GPGGA,050802.438,3037.1244,N,10403.9063,E,1,08,0.9,438.6,M,,,,0000*09
$GPGSA,A,3,21,26,29,18,09,06,15,10,,,,,2.0,0.9,1.7*30
$GPGSV,3,1,09,21,63,321,46,26,54,033,47,29,37,038,45,18,37,302,28*73
$GPGSV,3,2,09,09,35,152,48,06,28,214,42,15,21,317,45,22,11,282,33*72
$GPGSV,3,3,09,10,11,079,27*4A
$GPRMC,050802.438,A,3037.1244,N,10403.9063,E,0.0,268.9,010605,,*0A
$GPVTG,268.9,T,,M,0.0,N,0.0,K*65
$GPGGA,050803.438,3037.1244,N,10403.9062,E,1,08,0.9,438.9,M,,,,0000*06
$GPRMC,050803.438,A,3037.1244,N,10403.9062,E,0.0,268.9,010605,,*0A
$GPVTG,268.9,T,,M,0.0,N,0.0,K*65
$GPGGA,050804.438,3037.1243,N,10403.9061,E,1,08,0.9,439.2,M,,,,0000*0F
$GPRMC,050804.438,A,3037.1243,N,10403.9061,E,0.0,268.9,010605,,*09
$GPVTG,268.9,T,,M,0.0,N,0.0,K*65
$GPGGA,050805.438,3037.1243,N,10403.9060,E,1,07,1.1,439.5,M,,,,0000*0E
$GPRMC,050805.438,A,3037.1243,N,10403.9060,E,0.0,268.9,010605,,*09
$GPVTG,268.9,T,,M,0.0,N,0.0,K*65
$GPGGA,050806.438,3037.1243,N,10403.9059,E,1,07,1.1,439.8,M,,,,0000*0A
$GPRMC,050806.438,A,3037.1243,N,10403.9059,E,0.0,268.9,010605,,*00
$GPVTG,268.9,T,,M,0.0,N,0.0,K*65
$GPGGA,050807.438,3037.1243,N,10403.9058,E,1,07,1.1,440.0,M,,,,0000*0C
$GPGSA,A,3,21,26,29,18,09,06,15,,,,,,2.8,1.1,2.5*31
$GPGSV,3,1,09,21,63,321,47,26,54,033,47,29,37,038,46,18,37,302,27*7E
$GPGSV,3,2,09,09,35,152,48,06,28,214,43,15,21,317,45,22,11,282,32*72
$GPGSV,3,3,09,10,11,079,25*48
$GPRMC,050807.438,A,3037.1243,N,10403.9058,E,0.0,268.9,010605,,*00
$GPVTG,268.9,T,,M,0.0,N,0.0,K*65
$GPGGA,050808.438,3037.1243,N,10403.9058,E,1,07,1.1,440.2,M,,,,0000*01
$GPRMC,050808.438,A,3037.1243,N,10403.9058,E,0.0,268.9,010605,,*0F
$GPVTG,268.9,T,,M,0.0,N,0.0,K*65
$GPGGA,050809.438,3037.1243,N,10403.9058,E,1,07,1.1,440.5,M,,,,0000*07
$GPRMC,050809.438,A,3037.1243,N,10403.9058,E,0.0,268.9,010605,,*0E
$GPVTG,268.9,T,,M,0.0,N,0.0,K*65
$GPGGA,050810.437,3037.1242,N,10403.9059,E,1,07,1.1,440.7,M,,,,0000*02
$GPRMC,050810.437,A,3037.1242,N,10403.9059,E,0.0,268.9,010605,,*09
$GPVTG,268.9,T,,M,0.0,N,0.0,K*65
$GPGGA,050811.437,3037.1242,N,10403.9059,E,1,07,1.1,440.9,M,,,,0000*0D
$GPRMC,050811.437,A,3037.1242,N,10403.9059,E,0.0,268.9,010605,,*08
$GPVTG,268.9,T,,M,0.0,N,0.0,K*65
$GPGGA,050812.437,3037.1242,N,10403.9059,E,1,07,1.1,441.1,M,,,,0000*07
$GPGSA,A,3,21,26,29,18,09,06,15,,,,,,2.8,1.1,2.5*31
$GPGSV,3,1,09,21,63,321,46,26,53,033,47,18,37,302,27,29,37,038,46*78
$GPGSV,3,2,09,09,36,152,48,06,28,214,43,15,22,317,45,22,12,283,*71
$GPGSV,3,3,09,10,11,079,25*48
$GPRMC,050812.437,A,3037.1242,N,10403.9059,E,0.0,268.9,010605,,*0B
$GPVTG,268.9,T,,M,0.0,N,0.0,K*65
$GPGGA,050813.437,3037.1242,N,10403.9056,E,1,06,1.2,441.3,M,,,,0000*09
$GPRMC,050813.437,A,3037.1242,N,10403.9056,E,0.0,268.9,010605,,*05
$GPVTG,268.9,T,,M,0.0,N,0.0,K*65
$GPGGA,050814.437,3037.1242,N,10403.9046,E,1,06,1.2,441.4,M,,,,0000*08
$GPRMC,050814.437,A,3037.1242,N,10403.9046,E,3.20,266.8,010605,,*3D
$GPVTG,266.8,T,,M,3.20,N,5.9,K*57
$GPGGA,050815.437,3037.1241,N,10403.9032,E,1,06,1.2,441.5,M,,,,0000*08
$GPRMC,050815.437,A,3037.1241,N,10403.9032,E,4.58,265.6,010605,,*39
$GPVTG,265.6,T,,M,4.58,N,8.5,K*53
$GPGGA,050816.437,3037.1240,N,10403.9017,E,1,06,1.2,441.6,M,,,,0000*0E
$GPRMC,050816.437,A,3037.1240,N,10403.9017,E,4.79,265.6,010605,,*3F
$GPVTG,265.6,T,,M,4.79,N,8.9,K*5C
$GPGGA,050817.437,3037.1239,N,10403.9000,E,1,06,1.2,441.7,M,,,,0000*06
$GPGSA,A,3,21,26,29,09,06,15,,,,,,,2.8,1.2,2.6*38
$GPGSV,3,1,09,21,63,321,46,26,53,033,47,18,37,302,27,29,37,038,45*7B
$GPGSV,3,2,09,09,36,152,47,06,28,214,44,15,22,317,45,22,12,283,*79
$GPGSV,3,3,09,10,11,079,*4F
$GPRMC,050817.437,A,3037.1239,N,10403.9000,E,5.50,265.3,010605,,*39
$GPVTG,265.3,T,,M,5.50,N,10.2,K*61
$GPGGA,050818.437,3037.1237,N,10403.8978,E,1,06,1.2,441.9,M,,,,0000*0E
$GPRMC,050818.437,A,3037.1237,N,10403.8978,E,7.01,264.8,010605,,*33
$GPVTG,264.8,T,,M,7.01,N,13.0,K*6C
$GPGGA,050819.437,3037.1234,N,10403.8950,E,1,06,1.2,442.0,M,,,,0000*0C
$GPRMC,050819.437,A,3037.1234,N,10403.8950,E,8.82,263.8,010605,,*38
$GPVTG,263.8,T,,M,8.82,N,16.3,K*69
$GPGGA,050820.437,3037.1229,N,10403.8920,E,1,06,1.2,442.1,M,,,,0000*0C
$GPRMC,050820.437,A,3037.1229,N,10403.8920,E,9.67,258.3,010605,,*30
$GPVTG,258.3,T,,M,9.67,N,17.9,K*6B
$GPGGA,050821.437,3037.1220,N,10403.8889,E,1,07,1.0,442.2,M,,,,0000*06
$GPRMC,050821.437,A,3037.1220,N,10403.8889,E,10.28,251.3,010605,,*00
$GPVTG,251.3,T,,M,10.28,N,19.0,K*56
$GPGGA,050822.437,3037.1209,N,10403.8857,E,1,05,1.7,442.2,M,,,,0000*08
$GPGSA,A,3,21,26,29,09,06,,,,,,,,4.6,1.7,4.2*33
$GPGSV,3,1,09,21,63,321,46,26,53,033,47,18,37,302,,29,37,038,45*7E
$GPGSV,3,2,09,09,36,152,46,06,27,214,43,15,22,317,24,22,12,283,31*75
$GPGSV,3,3,09,10,11,079,22*4F
$GPRMC,050822.437,A,3037.1209,N,10403.8857,E,10.65,248.1,010605,,*08
$GPVTG,248.1,T,,M,10.65,N,19.7,K*52
$GPGGA,050823.437,3037.1195,N,10403.8827,E,1,05,1.7,442.2,M,,,,0000*08
$GPRMC,050823.437,A,3037.1195,N,10403.8827,E,10.62,242.4,010605,,*00
$GPVTG,242.4,T,,M,10.62,N,19.7,K*5A
$GPGGA,050824.437,3037.1179,N,10403.8801,E,1,05,1.7,442.3,M,,,,0000*08
$GPRMC,050824.437,A,3037.1179,N,10403.8801,E,9.96,234.2,010605,,*35
$GPVTG,234.2,T,,M,9.96,N,18.4,K*6C
$GPGGA,050825.437,3037.1163,N,10403.8779,E,1,06,1.6,442.3,M,,,,0000*00
$GPRMC,050825.437,A,3037.1163,N,10403.8779,E,9.04,228.4,010605,,*3F
$GPVTG,228.4,T,,M,9.04,N,16.7,K*61
$GPGGA,050826.437,3037.1143,N,10403.8760,E,1,06,1.6,442.3,M,,,,0000*09
$GPRMC,050826.437,A,3037.1143,N,10403.8760,E,9.23,219.2,010605,,*37
$GPVTG,219.2,T,,M,9.23,N,17.1,K*67
$GPGGA,050827.437,3037.1118,N,10403.8746,E,1,05,1.7,442.3,M,,,,0000*00
$GPGSA,A,3,21,26,29,09,06,,,,,,,,4.6,1.7,4.2*33
$GPGSV,3,1,09,21,63,321,47,26,53,033,48,18,37,302,,29,37,038,46*73
$GPGSV,3,2,09,09,36,152,46,06,27,214,42,15,22,317,24,22,12,283,25*71
$GPGSV,3,3,09,10,11,079,26*4B
$GPRMC,050827.437,A,3037.1118,N,10403.8746,E,10.04,203.4,010605,,*0C
$GPVTG,203.4,T,,M,10.04,N,18.6,K*5F
$GPGGA,050828.436,3037.1087,N,10403.8739,E,1,07,1.0,442.5,M,,,,0000*02
$GPRMC,050828.436,A,3037.1087,N,10403.8739,E,11.33,190.9,010605,,*0C
$GPVTG,190.9,T,,M,11.33,N,21.0,K*52
$GPGGA,050829.436,3037.1051,N,10403.8736,E,1,07,1.0,442.7,M,,,,0000*05
$GPRMC,050829.436,A,3037.1051,N,10403.8736,E,12.63,182.0,010605,,*05
$GPVTG,182.0,T,,M,12.63,N,23.4,K*58
$GPGGA,050830.436,3037.1011,N,10403.8737,E,1,05,1.7,442.7,M,,,,0000*0D
$GPRMC,050830.436,A,3037.1011,N,10403.8737,E,14.15,176.8,010605,,*0C
$GPVTG,176.8,T,,M,14.15,N,26.2,K*5F
$GPGGA,050831.436,3037.0968,N,10403.8737,E,1,09,0.9,443.0,M,,,,0000*0F
$GPRMC,050831.436,A,3037.0968,N,10403.8737,E,15.60,178.4,010605,,*0A
$GPVTG,178.4,T,,M,15.60,N,28.9,K*5B
$GPGGA,050832.436,3037.0919,N,10403.8739,E,1,09,0.9,443.2,M,,,,0000*06
$GPGSA,A,3,21,22,26,29,18,09,06,15,10,,,,1.7,0.9,1.5*36
$GPGSV,3,1,09,21,63,321,46,26,53,033,46,18,37,302,44,29,37,038,47*7D
$GPGSV,3,2,09,09,36,152,46,06,27,214,43,15,22,317,32,22,12,283,25*77
$GPGSV,3,3,09,10,11,079,32*4E
$GPRMC,050832.436,A,3037.0919,N,10403.8739,E,17.48,177.3,010605,,*01
$GPVTG,177.3,T,,M,17.48,N,32.4,K*5D
$GPGGA,050833.436,3037.0867,N,10403.8741,E,1,08,0.9,443.4,M,,,,0000*07
$GPRMC,050833.436,A,3037.0867,N,10403.8741,E,18.51,177.7,010605,,*04
$GPVTG,177.7,T,,M,18.51,N,34.3,K*5F
$GPGGA,050834.436,3037.0814,N,10403.8743,E,1,07,1.1,443.7,M,,,,0000*03
$GPRMC,050834.436,A,3037.0814,N,10403.8743,E,18.94,177.9,010605,,*02
$GPVTG,177.9,T,,M,18.94,N,35.1,K*5B
$GPGGA,050835.436,3037.0759,N,10403.8743,E,1,08,0.9,444.4,M,,,,0000*06
$GPRMC,050835.436,A,3037.0759,N,10403.8743,E,19.50,178.4,010605,,*0E
$GPVTG,178.4,T,,M,19.50,N,36.1,K*53
$GPGGA,050836.436,3037.0703,N,10403.8744,E,1,08,0.9,445.1,M,,,,0000*09
$GPRMC,050836.436,A,3037.0703,N,10403.8744,E,19.86,178.5,010605,,*0F
$GPVTG,178.5,T,,M,19.86,N,36.8,K*50
$GPGGA,050837.436,3037.0646,N,10403.8745,E,1,09,0.9,445.9,M,,,,0000*00
$GPGSA,A,3,21,22,26,29,18,09,06,15,10,,,,1.7,0.9,1.5*36
$GPGSV,3,1,09,21,63,321,46,26,53,033,47,18,37,302,44,29,37,038,45*7E
$GPGSV,3,2,09,09,36,152,46,06,27,214,44,15,22,317,33,22,12,283,36*73
$GPGSV,3,3,09,10,11,079,33*4F
$GPRMC,050837.436,A,3037.0646,N,10403.8745,E,20.06,178.1,010605,,*09
$GPVTG,178.1,T,,M,20.06,N,37.2,K*5D
$GPGGA,050838.436,3037.0589,N,10403.8748,E,1,09,0.9,446.6,M,,,,0000*0E
$GPRMC,050838.436,A,3037.0589,N,10403.8748,E,20.09,178.3,010605,,*06
$GPVTG,178.3,T,,M,20.09,N,37.2,K*50
$GPGGA,050839.436,3037.0533,N,10403.8749,E,1,09,0.9,447.2,M,,,,0000*0A
$GPRMC,050839.436,A,3037.0533,N,10403.8749,E,19.68,179.1,010605,,*09
$GPVTG,179.1,T,,M,19.68,N,36.5,K*58
$GPGGA,050840.436,3037.0479,N,10403.8751,E,1,08,1.1,447.7,M,,,,0000*0F
$GPRMC,050840.436,A,3037.0479,N,10403.8751,E,19.25,178.8,010605,,*00
$GPVTG,178.8,T,,M,19.25,N,35.7,K*58
$GPGGA,050841.436,3037.0426,N,10403.8753,E,1,08,1.1,448.1,M,,,,0000*0F
$GPRMC,050841.436,A,3037.0426,N,10403.8753,E,18.89,179.0,010605,,*07
$GPVTG,179.0,T,,M,18.89,N,35.0,K*51
$GPGGA,050842.436,3037.0372,N,10403.8754,E,1,08,1.1,448.5,M,,,,0000*09
$GPGSA,A,3,21,22,26,29,18,09,06,15,,,,,2.4,1.1,2.2*3A
$GPGSV,3,1,09,21,63,321,45,26,53,033,47,18,37,302,44,29,37,038,45*7D
$GPGSV,3,2,09,09,36,152,47,06,27,213,44,15,22,317,39,22,12,283,33*7A
$GPGSV,3,3,09,10,11,079,23*4E
$GPRMC,050842.436,A,3037.0372,N,10403.8754,E,19.09,180.0,010605,,*0A
$GPVTG,180.0,T,,M,19.09,N,35.4,K*5A
$GPGGA,050843.436,3037.0317,N,10403.8756,E,1,07,1.1,448.7,M,,,,0000*04
$GPRMC,050843.436,A,3037.0317,N,10403.8756,E,19.51,179.0,010605,,*01
$GPVTG,179.0,T,,M,19.51,N,36.1,K*57
$GPGGA,050844.436,3037.0260,N,10403.8757,E,1,08,1.1,449.0,M,,,,0000*0A
$GPRMC,050844.436,A,3037.0260,N,10403.8757,E,20.30,179.5,010605,,*0E
$GPVTG,179.5,T,,M,20.30,N,37.6,K*59
$GPGGA,050845.435,3037.0200,N,10403.8758,E,1,07,1.1,449.2,M,,,,0000*0C
$GPRMC,050845.435,A,3037.0200,N,10403.8758,E,21.12,179.8,010605,,*09
$GPVTG,179.8,T,,M,21.12,N,39.1,K*5C
$GPGGA,050846.435,3037.0138,N,10403.8760,E,1,08,1.1,449.4,M,,,,0000*05
$GPRMC,050846.435,A,3037.0138,N,10403.8760,E,22.08,178.9,010605,,*01
$GPVTG,178.9,T,,M,22.08,N,40.9,K*52
$GPGGA,050847.435,3037.0074,N,10403.8763,E,1,08,1.1,449.5,M,,,,0000*0F
$GPGSA,A,3,21,22,26,29,18,09,06,15,,,,,2.4,1.1,2.2*3A
$GPGSV,3,1,09,21,63,321,46,26,53,033,46,18,37,302,42,29,37,038,46*7A
$GPGSV,3,2,09,09,36,152,46,06,27,213,43,15,22,317,41,22,12,283,36*76
$GPGSV,3,3,09,10,11,079,23*4E
$GPRMC,050847.435,A,3037.0074,N,10403.8763,E,23.10,178.1,010605,,*0A
$GPVTG,178.1,T,,M,23.10,N,42.8,K*51
$GPGGA,050848.435,3037.0006,N,10403.8767,E,1,08,1.1,449.7,M,,,,0000*03
$GPRMC,050848.435,A,3037.0006,N,10403.8767,E,24.15,178.0,010605,,*07
$GPVTG,178.0,T,,M,24.15,N,44.7,K*5B
$GPGGA,050849.435,3036.9936,N,10403.8770,E,1,08,1.1,450.0,M,,,,0000*09
$GPRMC,050849.435,A,3036.9936,N,10403.8770,E,25.11,178.1,010605,,*06
$GPVTG,178.1,T,,M,25.11,N,46.5,K*5F
$GPGGA,050850.435,3036.9864,N,10403.8772,E,1,09,0.9,450.5,M,,,,0000*08
$GPRMC,050850.435,A,3036.9864,N,10403.8772,E,25.58,178.3,010605,,*05
$GPVTG,178.3,T,,M,25.58,N,47.4,K*50
$GPGGA,050851.435,3036.9792,N,10403.8773,E,1,09,0.9,450.8,M,,,,0000*03
$GPRMC,050851.435,A,3036.9792,N,10403.8773,E,25.97,179.0,010605,,*02
$GPVTG,179.0,T,,M,25.97,N,48.1,K*5B
$GPGGA,050852.435,3036.9719,N,10403.8773,E,1,09,0.9,451.0,M,,,,0000*0A
$GPGSA,A,3,21,22,26,29,18,09,06,15,10,,,,1.7,0.9,1.5*36
$GPGSV,3,1,09,21,63,321,46,26,53,033,46,18,38,302,44,29,37,038,36*74
$GPGSV,3,2,09,09,36,152,46,06,27,213,42,15,22,317,41,22,12,283,40*76
$GPGSV,3,3,09,10,11,079,27*4A
$GPRMC,050852.435,A,3036.9719,N,10403.8773,E,26.25,179.4,010605,,*0C
$GPVTG,179.4,T,,M,26.25,N,48.6,K*52
$GPGGA,050853.435,3036.9645,N,10403.8776,E,1,09,0.9,451.2,M,,,,0000*04
$GPRMC,050853.435,A,3036.9645,N,10403.8776,E,26.63,177.9,010605,,*01
$GPVTG,177.9,T,,M,26.63,N,49.3,K*57
$GPGGA,050854.435,3036.9569,N,10403.8776,E,1,08,0.9,451.5,M,,,,0000*08
$GPRMC,050854.435,A,3036.9569,N,10403.8776,E,27.18,179.2,010605,,*03
$GPVTG,179.2,T,,M,27.18,N,50.3,K*57
$GPGGA,050855.435,3036.9492,N,10403.8778,E,1,08,1.1,451.7,M,,,,0000*09
$GPRMC,050855.435,A,3036.9492,N,10403.8778,E,27.54,178.5,010605,,*07
$GPVTG,178.5,T,,M,27.54,N,51.0,K*5B
$GPGGA,050856.435,3036.9416,N,10403.8780,E,1,09,0.9,451.8,M,,,,0000*06
$GPRMC,050856.435,A,3036.9416,N,10403.8780,E,27.55,178.8,010605,,*03
$GPVTG,178.8,T,,M,27.55,N,51.0,K*57
$GPGGA,050857.435,3036.9338,N,10403.8782,E,1,09,0.9,452.0,M,,,,0000*05
$GPGSA,A,3,21,22,26,29,18,09,06,15,10,,,,1.7,0.9,1.5*36
$GPGSV,3,1,09,21,63,321,46,26,53,033,47,18,38,302,45,29,37,038,47*72
$GPGSV,3,2,09,09,36,152,46,06,27,213,42,15,22,317,40,22,12,283,41*76
$GPGSV,3,3,09,10,11,079,38*44
$GPRMC,050857.435,A,3036.9338,N,10403.8782,E,27.69,178.3,010605,,*0F
$GPVTG,178.3,T,,M,27.69,N,51.3,K*50
$GPGGA,050858.435,3036.9260,N,10403.8785,E,1,09,0.9,452.2,M,,,,0000*03
$GPRMC,050858.435,A,3036.9260,N,10403.8785,E,27.81,178.5,010605,,*0B
$GPVTG,178.5,T,,M,27.81,N,51.5,K*56
$GPGGA,050859.435,3036.9183,N,10403.8787,E,1,09,0.9,452.4,M,,,,0000*08
$GPRMC,050859.435,A,3036.9183,N,10403.8787,E,27.75,178.5,010605,,*0D
$GPVTG,178.5,T,,M,27.75,N,51.4,K*5C
$GPGGA,050900.435,3036.9105,N,10403.8791,E,1,09,0.9,452.7,M,,,,0000*0F
$GPRMC,050900.435,A,3036.9105,N,10403.8791,E,27.73,177.3,010605,,*06
$GPVTG,177.3,T,,M,27.73,N,51.3,K*54
$GPGGA,050901.435,3036.9027,N,10403.8795,E,1,09,0.9,453.0,M,,,,0000*0D
$GPRMC,050901.435,A,3036.9027,N,10403.8795,E,27.84,177.4,010605,,*0D
$GPVTG,177.4,T,,M,27.84,N,51.6,K*5E
$GPGGA,050902.435,3036.8949,N,10403.8798,E,1,09,0.9,453.3,M,,,,0000*00
$GPGSA,A,3,21,22,26,29,18,09,06,15,10,,,,1.7,0.9,1.5*36
$GPGSV,3,1,09,21,63,321,46,26,53,033,47,18,38,302,45,29,37,038,47*72
$GPGSV,3,2,09,09,36,152,46,06,27,213,43,15,22,317,39,22,12,283,42*7A
$GPGSV,3,3,09,10,11,079,31*4D
$GPRMC,050902.435,A,3036.8949,N,10403.8798,E,28.03,178.3,010605,,*0B
$GPVTG,178.3,T,,M,28.03,N,51.9,K*59
$GPGGA,050903.434,3036.8872,N,10403.8801,E,1,08,1.1,453.7,M,,,,0000*0A
$GPRMC,050903.434,A,3036.8872,N,10403.8801,E,27.64,177.9,010605,,*06
$GPVTG,177.9,T,,M,27.64,N,51.2,K*59
$GPGGA,050904.434,3036.8796,N,10403.8804,E,1,08,1.1,454.1,M,,,,0000*0C
$GPRMC,050904.434,A,3036.8796,N,10403.8804,E,27.24,178.2,010605,,*01
$GPVTG,178.2,T,,M,27.24,N,50.4,K*5E
$GPGGA,050905.434,3036.8720,N,10403.8807,E,1,08,1.1,454.6,M,,,,0000*04
$GPRMC,050905.434,A,3036.8720,N,10403.8807,E,27.31,178.3,010605,,*0B
$GPVTG,178.3,T,,M,27.31,N,50.6,K*59
$GPGGA,050906.434,3036.8643,N,10403.8811,E,1,08,1.1,455.1,M,,,,0000*02
$GPRMC,050906.434,A,3036.8643,N,10403.8811,E,27.47,178.1,010605,,*08
$GPVTG,178.1,T,,M,27.47,N,50.9,K*55
$GPGGA,050907.434,3036.8567,N,10403.8815,E,1,09,0.9,455.9,M,,,,0000*02
$GPGSA,A,3,21,22,26,29,18,09,06,15,10,,,,1.7,0.9,1.5*36
$GPGSV,3,1,09,21,63,321,46,26,53,033,47,18,38,302,44,29,37,038,44*70
$GPGSV,3,2,09,09,36,152,45,06,27,213,43,15,22,317,37,22,12,283,41*74
$GPGSV,3,3,09,10,11,079,39*45
$GPRMC,050907.434,A,3036.8567,N,10403.8815,E,27.49,178.2,010605,,*05
$GPVTG,178.2,T,,M,27.49,N,50.9,K*58
$GPGGA,050908.434,3036.8491,N,10403.8818,E,1,09,0.9,456.5,M,,,,0000*07
$GPRMC,050908.434,A,3036.8491,N,10403.8818,E,27.55,178.4,010605,,*04
$GPVTG,178.4,T,,M,27.55,N,51.0,K*5B
$GPGGA,050909.434,3036.8415,N,10403.8820,E,1,09,0.9,457.0,M,,,,0000*05
$GPRMC,050909.434,A,3036.8415,N,10403.8820,E,27.61,178.8,010605,,*09
$GPVTG,178.8,T,,M,27.61,N,51.1,K*51
$GPGGA,050910.434,3036.8338,N,10403.8823,E,1,08,1.1,457.5,M,,,,0000*0B
$GPRMC,050910.434,A,3036.8338,N,10403.8823,E,27.67,178.3,010605,,*07
$GPVTG,178.3,T,,M,27.67,N,51.2,K*5F
$GPGGA,050911.434,3036.8262,N,10403.8825,E,1,07,1.1,457.9,M,,,,0000*01
$GPRMC,050911.434,A,3036.8262,N,10403.8825,E,27.57,179.0,010605,,*0F
$GPVTG,179.0,T,,M,27.57,N,51.0,K*5C
$GPGGA,050912.434,3036.8184,N,10403.8827,E,1,07,1.1,458.2,M,,,,0000*0F
$GPGSA,A,3,21,26,29,18,09,06,15,,,,,,2.8,1.1,2.5*31
$GPGSV,3,1,09,21,63,321,47,26,53,033,47,18,38,302,44,29,37,038,46*73
$GPGSV,3,2,09,09,36,152,45,06,27,213,43,15,22,317,39,22,12,283,34*78
$GPGSV,3,3,09,10,11,080,27*4C
$GPRMC,050912.434,A,3036.8184,N,10403.8827,E,27.83,178.9,010605,,*04
$GPVTG,178.9,T,,M,27.83,N,51.5,K*58
$GPGGA,050913.434,3036.8104,N,10403.8829,E,1,09,0.9,459.3,M,,,,0000*0F
$GPRMC,050913.434,A,3036.8104,N,10403.8829,E,28.06,179.6,010605,,*0F
$GPVTG,179.6,T,,M,28.06,N,52.0,K*52
$GPGGA,050914.434,3036.8025,N,10403.8831,E,1,08,0.9,460.5,M,,,,0000*0E
$GPRMC,050914.434,A,3036.8025,N,10403.8831,E,27.77,179.1,010605,,*0D
$GPVTG,179.1,T,,M,27.77,N,51.4,K*5B
$GPGGA,050915.434,3036.7946,N,10403.8833,E,1,09,0.9,461.9,M,,,,0000*02
$GPRMC,050915.434,A,3036.7946,N,10403.8833,E,27.60,178.9,010605,,*02
$GPVTG,178.9,T,,M,27.60,N,51.1,K*51
$GPGGA,050916.434,3036.7869,N,10403.8835,E,1,07,1.1,463.1,M,,,,0000*06
$GPRMC,050916.434,A,3036.7869,N,10403.8835,E,27.25,178.5,010605,,*06
$GPVTG,178.5,T,,M,27.25,N,50.5,K*59
$GPGGA,050917.434,3036.7791,N,10403.8839,E,1,07,1.1,464.2,M,,,,0000*07
$GPGSA,A,3,21,22,26,29,18,09,06,,,,,,2.6,1.1,2.3*3D
$GPGSV,3,1,09,21,63,321,46,26,53,033,47,18,38,302,45,29,37,038,33*71
$GPGSV,3,2,09,09,36,152,45,06,27,213,43,15,22,317,36,22,12,283,42*76
$GPGSV,3,3,09,10,11,080,35*4F
$GPRMC,050917.434,A,3036.7791,N,10403.8839,E,27.33,177.8,010605,,*06
$GPVTG,177.8,T,,M,27.33,N,50.6,K*5F
$GPGGA,050918.434,3036.7714,N,10403.8841,E,1,07,1.1,465.0,M,,,,0000*09
$GPRMC,050918.434,A,3036.7714,N,10403.8841,E,27.16,178.6,010605,,*0D
$GPVTG,178.6,T,,M,27.16,N,50.3,K*5C
$GPGGA,050919.434,3036.7638,N,10403.8843,E,1,08,1.1,465.9,M,,,,0000*03
$GPRMC,050919.434,A,3036.7638,N,10403.8843,E,27.00,179.3,010605,,*02
$GPVTG,179.3,T,,M,27.00,N,50.0,K*5C
$GPGGA,050920.433,3036.7562,N,10403.8844,E,1,08,1.1,466.5,M,,,,0000*0A
$GPRMC,050920.433,A,3036.7562,N,10403.8844,E,26.87,179.2,010605,,*0B
$GPVTG,179.2,T,,M,26.87,N,49.8,K*53
$GPGGA,050921.433,3036.7488,N,10403.8845,E,1,09,0.9,467.0,M,,,,0000*03
$GPRMC,050921.433,A,3036.7488,N,10403.8845,E,27.04,178.9,010605,,*0E
$GPVTG,178.9,T,,M,27.04,N,50.1,K*52
$GPGGA,050922.433,3036.7412,N,10403.8846,E,1,09,0.9,467.3,M,,,,0000*03
$GPGSA,A,3,21,22,26,29,18,09,06,15,10,,,,1.7,0.9,1.5*36
$GPGSV,3,1,09,21,63,321,47,26,53,033,47,18,38,302,46,29,37,038,37*77
$GPGSV,3,2,09,09,36,152,46,06,27,213,42,15,22,317,40,22,12,283,44*73
$GPGSV,3,3,09,10,11,080,40*4D
$GPRMC,050922.433,A,3036.7412,N,10403.8846,E,27.33,179.0,010605,,*01
$GPVTG,179.0,T,,M,27.33,N,50.6,K*59
$GPGGA,050923.433,3036.7335,N,10403.8846,E,1,09,0.9,467.5,M,,,,0000*06
$GPRMC,050923.433,A,3036.7335,N,10403.8846,E,27.68,179.4,010605,,*08
$GPVTG,179.4,T,,M,27.68,N,51.3,K*57
$GPGGA,050924.433,3036.7257,N,10403.8847,E,1,09,0.9,467.5,M,,,,0000*05
$GPRMC,050924.433,A,3036.7257,N,10403.8847,E,28.16,179.6,010605,,*0F
$GPVTG,179.6,T,,M,28.16,N,52.2,K*51
$GPGGA,050925.433,3036.7178,N,10403.8847,E,1,09,0.9,467.5,M,,,,0000*0A
$GPRMC,050925.433,A,3036.7178,N,10403.8847,E,28.59,179.6,010605,,*0B
$GPVTG,179.6,T,,M,28.59,N,53.0,K*59
$GPGGA,050926.433,3036.7097,N,10403.8847,E,1,09,0.9,467.4,M,,,,0000*08
$GPRMC,050926.433,A,3036.7097,N,10403.8847,E,29.04,179.6,010605,,*01
$GPVTG,179.6,T,,M,29.04,N,53.8,K*58
$GPGGA,050927.433,3036.7016,N,10403.8848,E,1,09,0.9,467.3,M,,,,0000*08
$GPGSA,A,3,21,22,26,29,18,09,06,15,10,,,,1.7,0.9,1.5*36
$GPGSV,3,1,09,21,63,321,48,26,53,033,48,18,38,302,46,29,37,038,46*71
$GPGSV,3,2,09,09,36,152,46,06,27,213,42,15,22,317,41,22,12,283,38*79
$GPGSV,3,3,09,10,11,080,40*4D
$GPRMC,050927.433,A,3036.7016,N,10403.8848,E,29.47,179.3,010605,,*04
$GPVTG,179.3,T,,M,29.47,N,54.6,K*53
$GPGGA,050928.433,3036.6933,N,10403.8849,E,1,09,0.9,467.1,M,,,,0000*0B
$GPRMC,050928.433,A,3036.6933,N,10403.8849,E,29.91,179.4,010605,,*09
$GPVTG,179.4,T,,M,29.91,N,55.4,K*5C
$GPGGA,050929.433,3036.6849,N,10403.8850,E,1,09,0.9,466.9,M,,,,0000*07
$GPRMC,050929.433,A,3036.6849,N,10403.8850,E,30.37,179.3,010605,,*0F
$GPVTG,179.3,T,,M,30.37,N,56.2,K*5A
$GPGGA,050930.433,3036.6764,N,10403.8851,E,1,09,0.9,466.8,M,,,,0000*0F
$GPRMC,050930.433,A,3036.6764,N,10403.8851,E,30.67,179.2,010605,,*02
$GPVTG,179.2,T,,M,30.67,N,56.8,K*54
$GPGGA,050931.433,3036.6680,N,10403.8853,E,1,09,0.9,466.6,M,,,,0000*09
$GPRMC,050931.433,A,3036.6680,N,10403.8853,E,30.74,179.1,010605,,*0B
$GPVTG,179.1,T,,M,30.74,N,56.9,K*54
$GPGGA,050932.433,3036.6594,N,10403.8852,E,1,09,0.9,466.5,M,,,,0000*0E
$GPGSA,A,3,21,22,26,29,18,09,06,15,10,,,,1.7,0.9,1.5*36
$GPGSV,3,1,09,21,63,321,47,26,53,033,47,18,38,302,46,29,37,038,46*71
$GPGSV,3,2,09,09,36,152,46,06,27,213,43,15,22,317,41,22,12,283,42*75
$GPGSV,3,3,09,10,11,080,40*4D
$GPRMC,050932.433,A,3036.6594,N,10403.8852,E,31.05,180.1,010605,,*0E
$GPVTG,180.1,T,,M,31.05,N,57.5,K*58
$GPGGA,050933.433,3036.6507,N,10403.8851,E,1,09,0.9,466.3,M,,,,0000*00
$GPRMC,050933.433,A,3036.6507,N,10403.8851,E,31.47,180.7,010605,,*06
$GPVTG,180.7,T,,M,31.47,N,58.3,K*51
$GPGGA,050934.433,3036.6418,N,10403.8850,E,1,09,0.9,466.2,M,,,,0000*08
$GPRMC,050934.433,A,3036.6418,N,10403.8850,E,31.89,180.3,010605,,*09
$GPVTG,180.3,T,,M,31.89,N,59.1,K*54
$GPGGA,050935.433,3036.6329,N,10403.8850,E,1,09,0.9,466.2,M,,,,0000*0C
$GPRMC,050935.433,A,3036.6329,N,10403.8850,E,32.41,180.0,010605,,*09
$GPVTG,180.0,T,,M,32.41,N,60.0,K*5B
$GPGGA,050936.433,3036.6238,N,10403.8851,E,1,09,0.9,466.1,M,,,,0000*0C
$GPRMC,050936.433,A,3036.6238,N,10403.8851,E,32.82,179.5,010605,,*06
$GPVTG,179.5,T,,M,32.82,N,60.8,K*5F
$GPGGA,050937.433,3036.6146,N,10403.8852,E,1,09,0.9,466.0,M,,,,0000*05
$GPGSA,A,3,21,22,26,29,18,09,06,15,10,,,,1.7,0.9,1.5*36
$GPGSV,3,1,09,21,63,321,46,26,53,033,47,18,38,302,45,29,37,038,46*73
$GPGSV,3,2,09,09,36,152,46,06,27,213,43,15,22,317,40,22,12,283,42*74
$GPGSV,3,3,09,10,11,080,39*43
$GPRMC,050937.433,A,3036.6146,N,10403.8852,E,33.29,179.4,010605,,*0F
$GPVTG,179.4,T,,M,33.29,N,61.7,K*50
$GPGGA,050938.432,3036.6052,N,10403.8854,E,1,09,0.9,466.0,M,,,,0000*09
$GPRMC,050938.432,A,3036.6052,N,10403.8854,E,33.80,179.0,010605,,*04
$GPVTG,179.0,T,,M,33.80,N,62.6,K*55
$GPGGA,050939.432,3036.5957,N,10403.8856,E,1,09,0.9,465.9,M,,,,0000*0F
$GPRMC,050939.432,A,3036.5957,N,10403.8856,E,34.20,178.8,010605,,*0C
$GPVTG,178.8,T,,M,34.20,N,63.3,K*55
$GPGGA,050940.432,3036.5861,N,10403.8858,E,1,09,0.9,465.8,M,,,,0000*0A
$GPRMC,050940.432,A,3036.5861,N,10403.8858,E,34.67,178.8,010605,,*0B
$GPVTG,178.8,T,,M,34.67,N,64.2,K*50
$GPGGA,050941.432,3036.5764,N,10403.8861,E,1,09,0.9,465.8,M,,,,0000*0B
$GPRMC,050941.432,A,3036.5764,N,10403.8861,E,35.11,178.6,010605,,*04
$GPVTG,178.6,T,,M,35.11,N,65.0,K*5D
$GPGGA,050942.432,3036.5665,N,10403.8863,E,1,09,0.9,465.6,M,,,,0000*04
$GPGSA,A,3,21,22,26,29,18,09,06,15,10,,,,1.7,0.9,1.5*36
$GPGSV,3,1,09,21,63,321,42,26,53,033,46,18,38,302,39,29,37,038,44*7F
$GPGSV,3,2,09,09,36,152,45,06,27,213,44,15,22,317,34,22,12,283,36*70
$GPGSV,3,3,09,10,11,080,36*4C
$GPRMC,050942.432,A,3036.5665,N,10403.8863,E,35.67,179.0,010605,,*03
$GPVTG,179.0,T,,M,35.67,N,66.1,K*59
$GPGGA,050943.432,3036.5566,N,10403.8865,E,1,09,0.9,465.4,M,,,,0000*01
$GPRMC,050943.432,A,3036.5566,N,10403.8865,E,35.87,178.9,010605,,*02
$GPVTG,178.9,T,,M,35.87,N,66.4,K*5A
$GPGGA,050944.432,3036.5466,N,10403.8867,E,1,09,0.9,465.2,M,,,,0000*03
$GPRMC,050944.432,A,3036.5466,N,10403.8867,E,35.90,178.9,010605,,*00
$GPVTG,178.9,T,,M,35.90,N,66.5,K*5D
$GPGGA,050945.432,3036.5365,N,10403.8869,E,1,09,0.9,464.9,M,,,,0000*02
$GPRMC,050945.432,A,3036.5365,N,10403.8869,E,36.30,178.7,010605,,*0C
$GPVTG,178.7,T,,M,36.30,N,67.2,K*5C
$GPGGA,050946.432,3036.5263,N,10403.8872,E,1,09,0.9,464.6,M,,,,0000*03
$GPRMC,050946.432,A,3036.5263,N,10403.8872,E,36.93,178.6,010605,,*0A
$GPVTG,178.6,T,,M,36.93,N,68.4,K*5D
$GPGGA,050947.432,3036.5159,N,10403.8875,E,1,09,0.9,464.3,M,,,,0000*0A
$GPGSA,A,3,21,22,26,29,18,09,06,15,10,,,,1.7,0.9,1.5*36
$GPGSV,3,1,09,21,63,321,46,26,53,033,48,18,38,302,45,29,37,038,45*7F
$GPGSV,3,2,09,09,36,152,46,06,27,213,42,15,22,317,45,22,12,283,42*70
$GPGSV,3,3,09,10,11,080,36*4C
$GPRMC,050947.432,A,3036.5159,N,10403.8875,E,37.61,178.3,010605,,*0F
$GPVTG,178.3,T,,M,37.61,N,69.7,K*56
$GPGGA,050948.432,3036.5053,N,10403.8878,E,1,09,0.9,464.0,M,,,,0000*00
$GPRMC,050948.432,A,3036.5053,N,10403.8878,E,37.98,178.6,010605,,*05
$GPVTG,178.6,T,,M,37.98,N,70.3,K*59
$GPGGA,050949.432,3036.4947,N,10403.8881,E,1,09,0.9,463.6,M,,,,0000*0B
$GPRMC,050949.432,A,3036.4947,N,10403.8881,E,38.32,178.6,010605,,*00
$GPVTG,178.6,T,,M,38.32,N,71.0,K*54
$GPGGA,050950.432,3036.4839,N,10403.8884,E,1,09,0.9,463.3,M,,,,0000*0B
$GPRMC,050950.432,A,3036.4839,N,10403.8884,E,39.01,178.7,010605,,*05
$GPVTG,178.7,T,,M,39.01,N,72.2,K*55
$GPGGA,050951.432,3036.4729,N,10403.8887,E,1,09,0.9,462.8,M,,,,0000*0D
$GPRMC,050951.432,A,3036.4729,N,10403.8887,E,39.47,178.7,010605,,*0B
$GPVTG,178.7,T,,M,39.47,N,73.1,K*55
$GPGGA,050952.432,3036.4620,N,10403.8888,E,1,09,0.9,462.4,M,,,,0000*05
$GPGSA,A,3,21,22,26,29,18,09,06,15,10,,,,1.7,0.9,1.5*36
$GPGSV,3,1,09,21,64,321,46,26,53,033,47,18,38,303,45,29,36,038,45*77
$GPGSV,3,2,09,09,36,152,46,06,27,213,43,15,22,317,44,22,12,283,41*73
$GPGSV,3,3,09,10,11,080,40*4D
$GPRMC,050952.432,A,3036.4620,N,10403.8888,E,39.36,179.0,010605,,*0F
$GPVTG,179.0,T,,M,39.36,N,72.9,K*5C
$GPGGA,050953.432,3036.4511,N,10403.8890,E,1,09,0.9,461.9,M,,,,0000*02
$GPRMC,050953.432,A,3036.4511,N,10403.8890,E,39.22,179.2,010605,,*01
$GPVTG,179.2,T,,M,39.22,N,72.6,K*54
$GPGGA,050954.432,3036.4402,N,10403.8892,E,1,09,0.9,461.4,M,,,,0000*09
$GPRMC,050954.432,A,3036.4402,N,10403.8892,E,38.93,179.3,010605,,*0D
$GPVTG,179.3,T,,M,38.93,N,72.1,K*59
$GPGGA,050955.432,3036.4295,N,10403.8893,E,1,09,0.9,460.8,M,,,,0000*0C
$GPRMC,050955.432,A,3036.4295,N,10403.8893,E,38.71,179.1,010605,,*0B
$GPVTG,179.1,T,,M,38.71,N,71.7,K*52
$GPGGA,050956.431,3036.4187,N,10403.8895,E,1,09,0.9,460.1,M,,,,0000*03
$GPRMC,050956.431,A,3036.4187,N,10403.8895,E,38.71,179.0,010605,,*0C
$GPVTG,179.0,T,,M,38.71,N,71.7,K*53
$GPGGA,050957.431,3036.4079,N,10403.8897,E,1,09,0.9,459.5,M,,,,0000*0E
$GPGSA,A,3,21,22,26,29,18,09,06,15,10,,,,1.7,0.9,1.5*36
$GPGSV,3,1,09,21,64,321,46,26,53,033,46,18,38,303,45,29,36,038,46*75
$GPGSV,3,2,09,09,36,152,47,06,27,213,43,15,22,317,43,22,12,283,41*75
$GPGSV,3,3,09,10,11,080,40*4D
$GPRMC,050957.431,A,3036.4079,N,10403.8897,E,38.89,178.9,010605,,*00
$GPVTG,178.9,T,,M,38.89,N,72.0,K*58
$GPGGA,050958.431,3036.3970,N,10403.8900,E,1,09,0.9,458.8,M,,,,0000*05
$GPRMC,050958.431,A,3036.3970,N,10403.8900,E,39.08,178.9,010605,,*0F
$GPVTG,178.9,T,,M,39.08,N,72.4,K*54
$GPGGA,050959.431,3036.3861,N,10403.8901,E,1,09,0.9,458.1,M,,,,0000*0D
$GPRMC,050959.431,A,3036.3861,N,10403.8901,E,39.03,179.2,010605,,*0F
$GPVTG,179.2,T,,M,39.03,N,72.3,K*52
$GPGGA,051000.431,3036.3753,N,10403.8903,E,1,09,0.9,457.4,M,,,,0000*0F
$GPRMC,051000.431,A,3036.3753,N,10403.8903,E,38.96,179.3,010605,,*0B
$GPVTG,179.3,T,,M,38.96,N,72.2,K*5F
$GPGGA,051001.431,3036.3645,N,10403.8904,E,1,09,0.9,456.7,M,,,,0000*0D
$GPRMC,051001.431,A,3036.3645,N,10403.8904,E,38.88,179.3,010605,,*04
$GPVTG,179.3,T,,M,38.88,N,72.0,K*52
$GPGGA,051002.431,3036.3536,N,10403.8905,E,1,09,0.9,456.0,M,,,,0000*0F
$GPGSA,A,3,21,22,26,29,18,09,06,15,10,,,,1.7,0.9,1.5*36
$GPGSV,3,1,09,21,64,321,47,26,52,033,48,18,38,303,45,09,36,152,46*74
$GPGSV,3,2,09,29,36,038,46,06,27,213,44,15,22,317,43,22,12,283,42*7F
$GPGSV,3,3,09,10,11,080,39*43
$GPRMC,051002.431,A,3036.3536,N,10403.8905,E,38.87,179.3,010605,,*0E
$GPVTG,179.3,T,,M,38.87,N,72.0,K*5D
$GPGGA,051003.431,3036.3428,N,10403.8907,E,1,09,0.9,455.3,M,,,,0000*02
$GPRMC,051003.431,A,3036.3428,N,10403.8907,E,38.89,179.1,010605,,*0F
$GPVTG,179.1,T,,M,38.89,N,72.0,K*51
$GPGGA,051004.431,3036.3319,N,10403.8909,E,1,09,0.9,454.7,M,,,,0000*0B
$GPRMC,051004.431,A,3036.3319,N,10403.8909,E,38.96,178.9,010605,,*04
$GPVTG,178.9,T,,M,38.96,N,72.2,K*54
$GPGGA,051005.431,3036.3211,N,10403.8912,E,1,09,0.9,454.2,M,,,,0000*0C
$GPRMC,051005.431,A,3036.3211,N,10403.8912,E,38.85,178.7,010605,,*0A
$GPVTG,178.7,T,,M,38.85,N,72.0,K*5A
$GPGGA,051006.431,3036.3103,N,10403.8915,E,1,09,0.9,453.7,M,,,,0000*0A
$GPRMC,051006.431,A,3036.3103,N,10403.8915,E,38.67,178.5,010605,,*00
$GPVTG,178.5,T,,M,38.67,N,71.6,K*51
$GPGGA,051007.431,3036.2997,N,10403.8918,E,1,09,0.9,453.3,M,,,,0000*06
$GPGSA,A,3,21,22,26,29,18,09,06,15,10,,,,1.7,0.9,1.5*36
$GPGSV,3,1,09,21,64,321,46,26,52,033,48,18,38,303,44,09,36,152,46*74
$GPGSV,3,2,09,29,36,038,45,06,27,213,44,15,22,317,40,22,12,283,42*7F
$GPGSV,3,3,09,10,11,080,40*4D
$GPRMC,051007.431,A,3036.2997,N,10403.8918,E,38.34,178.5,010605,,*0E
$GPVTG,178.5,T,,M,38.34,N,71.0,K*51
$GPGGA,051008.431,3036.2892,N,10403.8921,E,1,09,0.9,452.9,M,,,,0000*0C
$GPRMC,051008.431,A,3036.2892,N,10403.8921,E,37.62,178.5,010605,,*03
$GPVTG,178.5,T,,M,37.62,N,69.7,K*53
$GPGGA,051009.431,3036.2789,N,10403.8923,E,1,09,0.9,452.6,M,,,,0000*05
$GPRMC,051009.431,A,3036.2789,N,10403.8923,E,36.92,178.6,010605,,*08
$GPVTG,178.6,T,,M,36.92,N,68.4,K*5C
$GPGGA,051010.431,3036.2688,N,10403.8926,E,1,09,0.9,452.4,M,,,,0000*0A
$GPRMC,051010.431,A,3036.2688,N,10403.8926,E,36.18,178.6,010605,,*07
$GPVTG,178.6,T,,M,36.18,N,67.0,K*55
$GPGGA,051011.431,3036.2589,N,10403.8928,E,1,09,0.9,452.2,M,,,,0000*01
$GPRMC,051011.431,A,3036.2589,N,10403.8928,E,35.35,178.7,010605,,*07
$GPVTG,178.7,T,,M,35.35,N,65.5,K*5F
$GPGGA,051012.431,3036.2492,N,10403.8931,E,1,09,0.9,452.0,M,,,,0000*03
$GPGSA,A,3,21,22,26,29,18,09,06,15,10,,,,1.7,0.9,1.5*36
$GPGSV,3,1,09,21,64,321,47,26,52,033,47,18,38,303,43,09,36,152,46*7D
$GPGSV,3,2,09,29,36,038,47,06,27,213,42,15,22,317,39,22,12,283,42*75
$GPGSV,3,3,09,10,11,080,40*4D
$GPRMC,051012.431,A,3036.2492,N,10403.8931,E,34.82,178.7,010605,,*0A
$GPVTG,178.7,T,,M,34.82,N,64.5,K*53
$GPGGA,051013.430,3036.2397,N,10403.8933,E,1,09,0.9,451.9,M,,,,0000*09
$GPRMC,051013.430,A,3036.2397,N,10403.8933,E,34.17,178.8,010605,,*09
$GPVTG,178.8,T,,M,34.17,N,63.3,K*51
$GPGGA,051014.430,3036.2303,N,10403.8934,E,1,09,0.9,451.9,M,,,,0000*04
$GPRMC,051014.430,A,3036.2303,N,10403.8934,E,33.68,179.0,010605,,*02
$GPVTG,179.0,T,,M,33.68,N,62.4,K*51
$GPGGA,051015.430,3036.2209,N,10403.8936,E,1,09,0.9,451.9,M,,,,0000*0C
$GPRMC,051015.430,A,3036.2209,N,10403.8936,E,33.58,178.9,010605,,*01
$GPVTG,178.9,T,,M,33.58,N,62.2,K*5C
$GPGGA,051016.430,3036.2117,N,10403.8938,E,1,09,0.9,452.0,M,,,,0000*07
$GPRMC,051016.430,A,3036.2117,N,10403.8938,E,32.92,179.0,010605,,*0F
$GPVTG,179.0,T,,M,32.92,N,61.0,K*52
$GPGGA,051017.430,3036.2027,N,10403.8939,E,1,09,0.9,452.0,M,,,,0000*05
$GPGSA,A,3,21,22,26,29,18,09,06,15,10,,,,1.7,0.9,1.5*36
$GPGSV,3,1,09,21,64,321,47,26,52,033,48,18,38,303,45,09,36,152,47*75
$GPGSV,3,2,09,29,36,038,46,06,27,213,43,15,22,317,41,22,12,283,43*7B
$GPGSV,3,3,09,10,11,080,39*43
$GPRMC,051017.430,A,3036.2027,N,10403.8939,E,32.43,179.0,010605,,*01
$GPVTG,179.0,T,,M,32.43,N,60.1,K*5E
$GPGGA,051018.430,3036.1938,N,10403.8941,E,1,09,0.9,452.1,M,,,,0000*00
$GPRMC,051018.430,A,3036.1938,N,10403.8941,E,31.85,179.2,010605,,*0E
$GPVTG,179.2,T,,M,31.85,N,59.0,K*5E
$GPGGA,051019.430,3036.1851,N,10403.8941,E,1,09,0.9,452.2,M,,,,0000*0C
$GPRMC,051019.430,A,3036.1851,N,10403.8941,E,31.27,179.5,010605,,*0E
$GPVTG,179.5,T,,M,31.27,N,57.9,K*56
$GPGGA,051020.430,3036.1765,N,10403.8940,E,1,09,0.9,452.4,M,,,,0000*09
$GPRMC,051020.430,A,3036.1765,N,10403.8940,E,30.57,180.7,010605,,*0F
$GPVTG,180.7,T,,M,30.57,N,56.6,K*5A
$GPGGA,051021.430,3036.1684,N,10403.8935,E,1,09,0.9,452.6,M,,,,0000*06
$GPRMC,051021.430,A,3036.1684,N,10403.8935,E,29.23,183.0,010605,,*0D
$GPVTG,183.0,T,,M,29.23,N,54.1,K*50
$GPGGA,051022.430,3036.1607,N,10403.8924,E,1,09,0.9,452.8,M,,,,0000*00
$GPGSA,A,3,21,22,26,29,18,09,06,15,10,,,,1.7,0.9,1.5*36
$GPGSV,3,1,09,21,64,321,46,26,52,033,48,18,38,303,45,09,37,151,47*76
$GPGSV,3,2,09,29,36,038,46,06,27,213,42,15,22,317,42,22,12,283,41*7B
$GPGSV,3,3,09,10,10,080,39*42
$GPRMC,051022.430,A,3036.1607,N,10403.8924,E,27.71,187.0,010605,,*08
$GPVTG,187.0,T,,M,27.71,N,51.3,K*5A
$GPGGA,051023.430,3036.1534,N,10403.8907,E,1,09,0.9,453.0,M,,,,0000*0A
$GPRMC,051023.430,A,3036.1534,N,10403.8907,E,26.85,192.0,010605,,*05
$GPVTG,192.0,T,,M,26.85,N,49.7,K*59
$GPGGA,051024.430,3036.1463,N,10403.8880,E,1,09,0.9,453.1,M,,,,0000*01
$GPRMC,051024.430,A,3036.1463,N,10403.8880,E,26.69,198.3,010605,,*04
$GPVTG,198.3,T,,M,26.69,N,49.4,K*51
$GPGGA,051025.430,3036.1396,N,10403.8843,E,1,09,0.9,453.3,M,,,,0000*00
$GPRMC,051025.430,A,3036.1396,N,10403.8843,E,26.68,206.2,010605,,*03
$GPVTG,206.2,T,,M,26.68,N,49.4,K*55
$GPGGA,051026.430,3036.1334,N,10403.8795,E,1,09,0.9,453.5,M,,,,0000*09
$GPRMC,051026.430,A,3036.1334,N,10403.8795,E,26.93,214.1,010605,,*08
$GPVTG,214.1,T,,M,26.93,N,49.9,K*5C
$GPGGA,051027.430,3036.1275,N,10403.8739,E,1,09,0.9,453.6,M,,,,0000*09
$GPGSA,A,3,21,22,26,29,18,09,06,15,10,,,,1.7,0.9,1.5*36
$GPGSV,3,1,09,21,64,321,46,26,52,033,48,18,38,303,45,09,37,151,47*76
$GPGSV,3,2,09,29,36,038,45,06,27,213,42,15,22,317,45,22,12,283,44*7A
$GPGSV,3,3,09,10,10,080,41*4D
$GPRMC,051027.430,A,3036.1275,N,10403.8739,E,27.34,220.1,010605,,*00
$GPVTG,220.1,T,,M,27.34,N,50.6,K*50
$GPGGA,051028.430,3036.1219,N,10403.8677,E,1,09,0.9,453.6,M,,,,0000*07
$GPRMC,051028.430,A,3036.1219,N,10403.8677,E,28.10,224.0,010605,,*02
$GPVTG,224.0,T,,M,28.10,N,52.0,K*58
$GPGGA,051029.430,3036.1163,N,10403.8610,E,1,09,0.9,453.6,M,,,,0000*09
$GPRMC,051029.430,A,3036.1163,N,10403.8610,E,29.03,226.0,010605,,*0D
$GPVTG,226.0,T,,M,29.03,N,53.8,K*50
$GPGGA,051030.430,3036.1106,N,10403.8539,E,1,09,0.9,453.5,M,,,,0000*09
$GPRMC,051030.430,A,3036.1106,N,10403.8539,E,30.13,227.1,010605,,*07
$GPVTG,227.1,T,,M,30.13,N,55.8,K*5F
$GPGGA,051031.429,3036.1048,N,10403.8465,E,1,09,0.9,453.3,M,,,,0000*05
$GPRMC,051031.429,A,3036.1048,N,10403.8465,E,31.18,227.4,010605,,*02
$GPVTG,227.4,T,,M,31.18,N,57.7,K*5D
$GPGGA,051032.429,3036.0988,N,10403.8388,E,1,09,0.9,453.1,M,,,,0000*04
$GPGSA,A,3,21,22,26,29,18,09,06,15,10,,,,1.7,0.9,1.5*36
$GPGSV,3,1,09,21,64,321,46,26,52,033,48,18,38,303,46,09,37,151,46*74
$GPGSV,3,2,09,29,36,038,45,06,27,213,43,15,22,317,44,22,12,283,45*7B
$GPGSV,3,3,09,10,10,080,40*4C
$GPRMC,051032.429,A,3036.0988,N,10403.8388,E,32.27,227.8,010605,,*02
$GPVTG,227.8,T,,M,32.27,N,59.8,K*5F
$GPGGA,051033.429,3036.0927,N,10403.8309,E,1,09,0.9,452.8,M,,,,0000*01
$GPRMC,051033.429,A,3036.0927,N,10403.8309,E,33.10,227.7,010605,,*05
$GPVTG,227.7,T,,M,33.10,N,61.3,K*55
$GPGGA,051034.429,3036.0864,N,10403.8229,E,1,09,0.9,452.4,M,,,,0000*0F
$GPRMC,051034.429,A,3036.0864,N,10403.8229,E,33.59,227.8,010605,,*05
$GPVTG,227.8,T,,M,33.59,N,62.2,K*55
$GPGGA,051035.429,3036.0802,N,10403.8148,E,1,09,0.9,452.1,M,,,,0000*0F
$GPRMC,051035.429,A,3036.0802,N,10403.8148,E,33.74,227.8,010605,,*0F
$GPVTG,227.8,T,,M,33.74,N,62.5,K*5D
$GPGGA,051036.429,3036.0740,N,10403.8066,E,1,09,0.9,451.6,M,,,,0000*0C
$GPRMC,051036.429,A,3036.0740,N,10403.8066,E,33.73,228.1,010605,,*09
$GPVTG,228.1,T,,M,33.73,N,62.5,K*5C
$GPGGA,051037.429,3036.0679,N,10403.7985,E,1,09,0.9,451.2,M,,,,0000*09
$GPGSA,A,3,21,22,26,29,18,09,06,15,10,,,,1.7,0.9,1.5*36
$GPGSV,3,1,09,21,64,321,46,26,52,033,48,18,38,303,46,09,37,151,46*74
$GPGSV,3,2,09,29,36,038,45,06,27,213,43,15,22,317,43,22,12,283,44*7D
$GPGSV,3,3,09,10,10,080,40*4C
$GPRMC,051037.429,A,3036.0679,N,10403.7985,E,33.45,228.6,010605,,*0A
$GPVTG,228.6,T,,M,33.45,N,61.9,K*51
$GPGGA,051038.429,3036.0621,N,10403.7904,E,1,09,0.9,450.7,M,,,,0000*06
$GPRMC,051038.429,A,3036.0621,N,10403.7904,E,32.61,230.1,010605,,*08
$GPVTG,230.1,T,,M,32.61,N,60.4,K*54
$GPGGA,051039.429,3036.0567,N,10403.7822,E,1,09,0.9,450.3,M,,,,0000*07
$GPRMC,051039.429,A,3036.0567,N,10403.7822,E,31.81,232.6,010605,,*05
$GPVTG,232.6,T,,M,31.81,N,58.9,K*5A
$GPGGA,051040.429,3036.0520,N,10403.7738,E,1,09,0.9,449.8,M,,,,0000*0D
$GPRMC,051040.429,A,3036.0520,N,10403.7738,E,31.06,236.4,010605,,*05
$GPVTG,236.4,T,,M,31.06,N,57.5,K*50
$GPGGA,051041.429,3036.0480,N,10403.7651,E,1,09,0.9,449.4,M,,,,0000*05
$GPRMC,051041.429,A,3036.0480,N,10403.7651,E,30.16,242.3,010605,,*05
$GPVTG,242.3,T,,M,30.16,N,55.9,K*5A
$GPGGA,051042.429,3036.0451,N,10403.7561,E,1,09,0.9,449.0,M,,,,0000*0E
$GPGSA,A,3,21,22,26,29,18,09,06,15,10,,,,1.7,0.9,1.5*36
$GPGSV,3,1,09,21,64,321,46,26,52,033,46,18,38,303,46,09,37,151,46*7A
$GPGSV,3,2,09,29,36,038,44,06,27,213,43,15,22,317,45,22,12,283,42*7C
$GPGSV,3,3,09,10,10,080,41*4D
$GPRMC,051042.429,A,3036.0451,N,10403.7561,E,29.76,249.2,010605,,*0E
$GPVTG,249.2,T,,M,29.76,N,55.1,K*56
$GPGGA,051043.429,3036.0431,N,10403.7467,E,1,09,0.9,448.5,M,,,,0000*0A
$GPRMC,051043.429,A,3036.0431,N,10403.7467,E,29.94,256.3,010605,,*0D
$GPVTG,256.3,T,,M,29.94,N,55.4,K*50
$GPGGA,051044.429,3036.0420,N,10403.7369,E,1,09,0.9,448.1,M,,,,0000*00
$GPRMC,051044.429,A,3036.0420,N,10403.7369,E,30.46,263.2,010605,,*03
$GPVTG,263.2,T,,M,30.46,N,56.4,K*53
$GPGGA,051045.429,3036.0416,N,10403.7268,E,1,09,0.9,447.7,M,,,,0000*0D
$GPRMC,051045.429,A,3036.0416,N,10403.7268,E,31.16,267.3,010605,,*06
$GPVTG,267.3,T,,M,31.16,N,57.7,K*50
$GPGGA,051046.429,3036.0415,N,10403.7164,E,1,09,0.9,447.3,M,,,,0000*06
$GPRMC,051046.429,A,3036.0415,N,10403.7164,E,31.95,269.1,010605,,*0E
$GPVTG,269.1,T,,M,31.95,N,59.2,K*5C
$GPGGA,051047.429,3036.0415,N,10403.7058,E,1,09,0.9,446.9,M,,,,0000*02
$GPGSA,A,3,21,22,26,29,18,09,06,15,10,,,,1.7,0.9,1.5*36
$GPGSV,3,1,09,21,64,321,46,26,52,033,46,18,38,303,45,09,37,151,47*78
$GPGSV,3,2,09,29,36,038,45,06,27,213,43,15,22,317,46,22,12,283,40*7C
$GPGSV,3,3,09,10,10,080,40*4C
$GPRMC,051047.429,A,3036.0415,N,10403.7058,E,32.69,270.0,010605,,*08
$GPVTG,270.0,T,,M,32.69,N,60.5,K*58
$GPGGA,051048.428,3036.0416,N,10403.6950,E,1,09,0.9,446.6,M,,,,0000*00
$GPRMC,051048.428,A,3036.0416,N,10403.6950,E,33.44,270.2,010605,,*09
$GPVTG,270.2,T,,M,33.44,N,61.9,K*59
$GPGGA,051049.428,3036.0418,N,10403.6839,E,1,09,0.9,446.3,M,,,,0000*04
$GPRMC,051049.428,A,3036.0418,N,10403.6839,E,34.21,270.6,010605,,*08
$GPVTG,270.6,T,,M,34.21,N,63.4,K*56
$GPGGA,051050.428,3036.0420,N,10403.6726,E,1,09,0.9,445.9,M,,,,0000*0F
$GPRMC,051050.428,A,3036.0420,N,10403.6726,E,34.97,270.9,010605,,*08
$GPVTG,270.9,T,,M,34.97,N,64.8,K*5F
$GPGGA,051051.428,3036.0422,N,10403.6610,E,1,09,0.9,445.6,M,,,,0000*07
$GPRMC,051051.428,A,3036.0422,N,10403.6610,E,35.69,271.2,010605,,*05
$GPVTG,271.2,T,,M,35.69,N,66.1,K*5E
$GPGGA,051052.428,3036.0426,N,10403.6492,E,1,09,0.9,445.3,M,,,,0000*0D
$GPGSA,A,3,21,22,26,29,18,09,06,15,10,,,,1.7,0.9,1.5*36
$GPGSV,3,1,09,21,64,321,47,26,52,033,47,18,38,303,46,09,37,151,47*7B
$GPGSV,3,2,09,29,36,038,45,06,27,213,43,15,22,317,45,22,12,283,40*7F
$GPGSV,3,3,09,10,10,080,40*4C
$GPRMC,051052.428,A,3036.0426,N,10403.6492,E,36.49,271.6,010605,,*0F
$GPVTG,271.6,T,,M,36.49,N,67.6,K*5D
$GPGGA,051053.428,3036.0429,N,10403.6372,E,1,09,0.9,444.9,M,,,,0000*01
$GPRMC,051053.428,A,3036.0429,N,10403.6372,E,37.14,271.6,010605,,*01
$GPVTG,271.6,T,,M,37.14,N,68.8,K*55
$GPGGA,051054.428,3036.0433,N,10403.6250,E,1,09,0.9,444.6,M,,,,0000*03
$GPRMC,051054.428,A,3036.0433,N,10403.6250,E,37.75,271.5,010605,,*08
$GPVTG,271.5,T,,M,37.75,N,69.9,K*51
$GPGGA,051055.428,3036.0436,N,10403.6126,E,1,09,0.9,444.3,M,,,,0000*00
$GPRMC,051055.428,A,3036.0436,N,10403.6126,E,38.31,271.3,010605,,*07
$GPVTG,271.3,T,,M,38.31,N,70.9,K*50
$GPGGA,051056.428,3036.0439,N,10403.6001,E,1,09,0.9,444.0,M,,,,0000*0B
$GPRMC,051056.428,A,3036.0439,N,10403.6001,E,38.80,271.5,010605,,*03
$GPVTG,271.5,T,,M,38.80,N,71.9,K*5D
$GPGGA,051057.428,3036.0443,N,10403.5875,E,1,09,0.9,443.7,M,,,,0000*0F
$GPGSA,A,3,21,22,26,29,18,09,06,15,10,,,,1.7,0.9,1.5*36
$GPGSV,3,1,09,21,64,321,47,26,52,033,47,18,38,303,46,09,37,151,47*7B
$GPGSV,3,2,09,29,36,038,44,06,27,213,43,15,22,317,45,22,12,283,39*70
$GPGSV,3,3,09,10,10,080,38*43
$GPRMC,051057.428,A,3036.0443,N,10403.5875,E,39.02,271.5,010605,,*0C
$GPVTG,271.5,T,,M,39.02,N,72.3,K*5F
$GPGGA,051058.428,3036.0446,N,10403.5748,E,1,09,0.9,443.4,M,,,,0000*07
$GPRMC,051058.428,A,3036.0446,N,10403.5748,E,39.21,271.5,010605,,*06
$GPVTG,271.5,T,,M,39.21,N,72.6,K*5B
$GPGGA,051059.428,3036.0450,N,10403.5621,E,1,09,0.9,443.2,M,,,,0000*09
$GPRMC,051059.428,A,3036.0450,N,10403.5621,E,39.38,271.6,010605,,*05
$GPVTG,271.6,T,,M,39.38,N,72.9,K*5F
$GPGGA,051100.428,3036.0453,N,10403.5493,E,1,09,0.9,443.0,M,,,,0000*0E
$GPRMC,051100.428,A,3036.0453,N,10403.5493,E,39.58,271.3,010605,,*03
$GPVTG,271.3,T,,M,39.58,N,73.3,K*57
$GPGGA,051101.428,3036.0456,N,10403.5364,E,1,09,0.9,442.9,M,,,,0000*0D
$GPRMC,051101.428,A,3036.0456,N,10403.5364,E,39.88,271.5,010605,,*03
$GPVTG,271.5,T,,M,39.88,N,73.9,K*56
$GPGGA,051102.428,3036.0459,N,10403.5234,E,1,09,0.9,442.7,M,,,,0000*0B
$GPGSA,A,3,21,22,26,29,18,09,06,15,10,,,,1.7,0.9,1.5*36
$GPGSV,3,1,09,21,64,321,47,26,52,033,47,18,38,303,45,09,37,151,47*78
$GPGSV,3,2,09,29,36,038,44,06,27,213,43,15,22,317,45,22,12,283,41*7F
$GPGSV,3,3,09,10,10,080,39*42
$GPRMC,051102.428,A,3036.0459,N,10403.5234,E,40.11,271.3,010605,,*03
$GPVTG,271.3,T,,M,40.11,N,74.3,K*53
$GPGGA,051103.428,3036.0462,N,10403.5104,E,1,09,0.9,442.6,M,,,,0000*03
$GPRMC,051103.428,A,3036.0462,N,10403.5104,E,40.28,271.1,010605,,*02
$GPVTG,271.1,T,,M,40.28,N,74.6,K*5E
$GPGGA,051104.428,3036.0464,N,10403.4974,E,1,09,0.9,442.6,M,,,,0000*0C
$GPRMC,051104.428,A,3036.0464,N,10403.4974,E,40.42,270.7,010605,,*06
$GPVTG,270.7,T,,M,40.42,N,74.8,K*5B
$GPGGA,051105.428,3036.0466,N,10403.4843,E,1,09,0.9,442.5,M,,,,0000*09
$GPRMC,051105.428,A,3036.0466,N,10403.4843,E,40.51,270.5,010605,,*00
$GPVTG,270.5,T,,M,40.51,N,75.0,K*52
$GPGGA,051106.427,3036.0469,N,10403.4711,E,1,07,1.1,442.5,M,,,,0000*05
$GPRMC,051106.427,A,3036.0469,N,10403.4711,E,40.81,271.5,010605,,*07
$GPVTG,271.5,T,,M,40.81,N,75.6,K*58
$GPGGA,051107.427,3036.0470,N,10403.4579,E,1,08,0.9,442.5,M,,,,0000*06
$GPGSA,A,3,22,26,29,18,09,06,15,10,,,,,2.0,0.9,1.8*3C
$GPGSV,3,1,09,21,64,321,,26,52,033,48,18,38,303,46,09,37,151,47*77
$GPGSV,3,2,09,29,36,038,46,06,27,213,43,15,22,317,44,22,12,283,38*72
$GPGSV,3,3,09,10,10,080,30*4B
$GPRMC,051107.427,A,3036.0470,N,10403.4579,E,40.92,270.3,010605,,*07
$GPVTG,270.3,T,,M,40.92,N,75.8,K*53
$GPGGA,051108.427,3036.0471,N,10403.4446,E,1,09,0.9,442.5,M,,,,0000*04
$GPRMC,051108.427,A,3036.0471,N,10403.4446,E,40.96,270.0,010605,,*03
$GPVTG,270.0,T,,M,40.96,N,75.8,K*54
$GPGGA,051109.427,3036.0470,N,10403.4313,E,1,09,0.9,442.6,M,,,,0000*00
$GPRMC,051109.427,A,3036.0470,N,10403.4313,E,41.11,269.7,010605,,*05
$GPVTG,269.7,T,,M,41.11,N,76.1,K*5F
$GPGGA,051110.427,3036.0470,N,10403.4180,E,1,09,0.9,442.7,M,,,,0000*01
$GPRMC,051110.427,A,3036.0470,N,10403.4180,E,41.20,269.5,010605,,*05
$GPVTG,269.5,T,,M,41.20,N,76.3,K*5D
$GPGGA,051111.427,3036.0470,N,10403.4046,E,1,09,0.9,442.8,M,,,,0000*04
$GPRMC,051111.427,A,3036.0470,N,10403.4046,E,41.34,269.8,010605,,*07
$GPVTG,269.8,T,,M,41.34,N,76.6,K*50
$GPGGA,051112.427,3036.0470,N,10403.3912,E,1,09,0.9,442.9,M,,,,0000*09
$GPGSA,A,3,21,22,26,29,18,09,06,15,10,,,,1.7,0.9,1.5*36
$GPGSV,3,1,09,21,64,321,47,26,52,033,47,18,38,303,46,09,37,151,46*7A
$GPGSV,3,2,09,29,36,038,45,06,27,213,42,15,22,317,45,22,12,283,38*71
$GPGSV,3,3,09,10,10,080,40*4C
$GPRMC,051112.427,A,3036.0470,N,10403.3912,E,41.47,269.9,010605,,*0E
$GPVTG,269.9,T,,M,41.47,N,76.8,K*5B
$GPGGA,051113.427,3036.0470,N,10403.3778,E,1,09,0.9,443.1,M,,,,0000*03
$GPRMC,051113.427,A,3036.0470,N,10403.3778,E,41.52,270.2,010605,,*0A
$GPVTG,270.2,T,,M,41.52,N,76.9,K*5D
$GPGGA,051114.427,3036.0472,N,10403.3643,E,1,09,0.9,443.2,M,,,,0000*0C
$GPRMC,051114.427,A,3036.0472,N,10403.3643,E,41.62,270.5,010605,,*02
$GPVTG,270.5,T,,M,41.62,N,77.1,K*50
$GPGGA,051115.427,3036.0473,N,10403.3508,E,1,09,0.9,443.4,M,,,,0000*06
$GPRMC,051115.427,A,3036.0473,N,10403.3508,E,41.74,270.6,010605,,*0A
$GPVTG,270.6,T,,M,41.74,N,77.3,K*56
$GPGGA,051116.427,3036.0475,N,10403.3373,E,1,09,0.9,443.6,M,,,,0000*0B
$GPRMC,051116.427,A,3036.0475,N,10403.3373,E,41.86,270.8,010605,,*06
$GPVTG,270.8,T,,M,41.86,N,77.5,K*53
$GPGGA,051117.427,3036.0477,N,10403.3237,E,1,09,0.9,443.8,M,,,,0000*07
$GPGSA,A,3,21,22,26,29,18,09,06,15,10,,,,1.7,0.9,1.5*36
$GPGSV,3,1,09,21,64,321,47,26,52,033,46,18,38,303,46,09,37,151,47*7A
$GPGSV,3,2,09,29,36,038,45,06,27,213,43,15,22,317,45,22,12,283,38*70
$GPGSV,3,3,09,10,10,080,39*42
$GPRMC,051117.427,A,3036.0477,N,10403.3237,E,41.99,270.9,010605,,*0B
$GPVTG,270.9,T,,M,41.99,N,77.8,K*51
$GPGGA,051118.427,3036.0479,N,10403.3101,E,1,09,0.9,443.9,M,,,,0000*01
$GPRMC,051118.427,A,3036.0479,N,10403.3101,E,42.10,271.0,010605,,*06
$GPVTG,271.0,T,,M,42.10,N,78.0,K*5C
$GPGGA,051119.427,3036.0481,N,10403.2965,E,1,09,0.9,444.2,M,,,,0000*00
$GPRMC,051119.427,A,3036.0481,N,10403.2965,E,42.01,270.8,010605,,*02
$GPVTG,270.8,T,,M,42.01,N,77.8,K*52
$GPGGA,051120.427,3036.0483,N,10403.2830,E,1,09,0.9,444.4,M,,,,0000*0F
$GPRMC,051120.427,A,3036.0483,N,10403.2830,E,42.00,270.8,010605,,*0A
$GPVTG,270.8,T,,M,42.00,N,77.8,K*53
$GPGGA,051121.427,3036.0485,N,10403.2694,E,1,09,0.9,444.5,M,,,,0000*09
$GPRMC,051121.427,A,3036.0485,N,10403.2694,E,42.05,270.9,010605,,*09
$GPVTG,270.9,T,,M,42.05,N,77.9,K*56
$GPGGA,051122.427,3036.0487,N,10403.2558,E,1,09,0.9,444.7,M,,,,0000*09
$GPGSA,A,3,21,22,26,29,18,09,06,15,10,,,,1.7,0.9,1.5*36
$GPGSV,3,1,09,21,64,321,47,26,52,033,47,18,38,303,46,09,37,151,47*7B
$GPGSV,3,2,09,29,36,038,45,06,26,213,43,15,23,318,42,22,12,284,40*70
$GPGSV,3,3,09,10,10,080,39*42
$GPRMC,051122.427,A,3036.0487,N,10403.2558,E,42.15,271.2,010605,,*00
$GPVTG,271.2,T,,M,42.15,N,78.1,K*5A
$GPGGA,051123.427,3036.0490,N,10403.2421,E,1,09,0.9,444.8,M,,,,0000*0E
$GPRMC,051123.427,A,3036.0490,N,10403.2421,E,42.25,271.2,010605,,*0B
$GPVTG,271.2,T,,M,42.25,N,78.2,K*5A
$GPGGA,051124.426,3036.0492,N,10403.2285,E,1,09,0.9,444.9,M,,,,0000*03
$GPRMC,051124.426,A,3036.0492,N,10403.2285,E,42.38,271.3,010605,,*0A
$GPVTG,271.3,T,,M,42.38,N,78.5,K*50
$GPGGA,051125.426,3036.0495,N,10403.2148,E,1,09,0.9,445.0,M,,,,0000*0F
$GPRMC,051125.426,A,3036.0495,N,10403.2148,E,42.46,271.3,010605,,*07
$GPVTG,271.3,T,,M,42.46,N,78.6,K*5A
$GPGGA,051126.426,3036.0498,N,10403.2010,E,1,09,0.9,445.0,M,,,,0000*0D
$GPRMC,051126.426,A,3036.0498,N,10403.2010,E,42.55,271.1,010605,,*05
$GPVTG,271.1,T,,M,42.55,N,78.8,K*54
$GPGGA,051127.426,3036.0501,N,10403.1873,E,1,09,0.9,445.1,M,,,,0000*02
$GPGSA,A,3,21,22,26,29,18,09,06,15,10,,,,1.7,0.9,1.5*36
$GPGSV,3,1,09,21,64,321,47,26,52,033,46,18,38,303,47,09,37,151,48*74
$GPGSV,3,2,09,29,36,038,45,06,26,212,42,15,23,318,46,22,12,284,38*7B
$GPGSV,3,3,09,10,10,080,40*4C
$GPRMC,051127.426,A,3036.0501,N,10403.1873,E,42.61,271.1,010605,,*0C
$GPVTG,271.1,T,,M,42.61,N,78.9,K*52
$GPGGA,051128.426,3036.0503,N,10403.1735,E,1,09,0.9,445.1,M,,,,0000*02
$GPRMC,051128.426,A,3036.0503,N,10403.1735,E,42.68,271.1,010605,,*05
$GPVTG,271.1,T,,M,42.68,N,79.0,K*53
$GPGGA,051129.426,3036.0505,N,10403.1598,E,1,09,0.9,445.1,M,,,,0000*00
$GPRMC,051129.426,A,3036.0505,N,10403.1598,E,42.69,271.1,010605,,*06
$GPVTG,271.1,T,,M,42.69,N,79.1,K*53
$GPGGA,051130.426,3036.0508,N,10403.1460,E,1,09,0.9,445.1,M,,,,0000*03
$GPRMC,051130.426,A,3036.0508,N,10403.1460,E,42.63,271.1,010605,,*0F
$GPVTG,271.1,T,,M,42.63,N,78.9,K*50
$GPGGA,051131.426,3036.0510,N,10403.1323,E,1,09,0.9,445.1,M,,,,0000*0B
$GPRMC,051131.426,A,3036.0510,N,10403.1323,E,42.49,270.9,010605,,*06
$GPVTG,270.9,T,,M,42.49,N,78.7,K*5F
$GPGGA,051132.426,3036.0511,N,10403.1186,E,1,09,0.9,445.1,M,,,,0000*04
$GPGSA,A,3,21,22,26,29,18,09,06,15,10,,,,1.7,0.9,1.5*36
$GPGSV,3,1,09,21,64,321,47,26,52,033,47,18,38,303,46,09,37,151,46*7A
$GPGSV,3,2,09,29,36,038,46,06,26,212,43,15,23,318,45,22,12,284,40*75
$GPGSV,3,3,09,10,10,080,39*42
$GPRMC,051132.426,A,3036.0511,N,10403.1186,E,42.38,270.5,010605,,*03
$GPVTG,270.5,T,,M,42.38,N,78.5,K*57
$GPGGA,051133.426,3036.0511,N,10403.1050,E,1,09,0.9,445.0,M,,,,0000*0E
$GPRMC,051133.426,A,3036.0511,N,10403.1050,E,42.33,270.1,010605,,*07
$GPVTG,270.1,T,,M,42.33,N,78.4,K*59
$GPGGA,051134.426,3036.0511,N,10403.0914,E,1,09,0.9,445.0,M,,,,0000*01
$GPRMC,051134.426,A,3036.0511,N,10403.0914,E,42.25,269.6,010605,,*00
$GPVTG,269.6,T,,M,42.25,N,78.2,K*57
$GPGGA,051135.426,3036.0510,N,10403.0777,E,1,09,0.9,445.0,M,,,,0000*0A
$GPRMC,051135.426,A,3036.0510,N,10403.0777,E,42.23,269.6,010605,,*0D
$GPVTG,269.6,T,,M,42.23,N,78.2,K*51
$GPGGA,051136.426,3036.0510,N,10403.0641,E,1,09,0.9,445.0,M,,,,0000*0D
