$GPZDA,021143,12,05,2007,00,00*4E
$GPGGA,021144.057,3037.9391,N,10404.9204,E,1,03,7.2,448.1,M,-31.9,M,0.0,0000*50
$GPGSA,A,2,02,10,29,,,,,,,,,,21.3,7.2,20.0*3C
$GPGSV,3,1,09,29,62,151,34,10,54,023,28,06,45,300,00,02,43,086,37*7F
$GPGSV,3,2,09,26,42,180,00,24,16,098,00,30,12,249,00,04,11,103,00*73
$GPGSV,3,3,09,05,08,224,00*49
$GPRMC,021144.057,A,3037.9391,N,10404.9204,E,0.06,87.54,120507,,*31
$GPMSS,0,0,0.000000,200,*5A
$GPZDA,021144,12,05,2007,00,00*49
$GPGGA,021145.057,3037.9391,N,10404.9207,E,1,03,7.2,448.0,M,-31.9,M,0.0,0000*53
$GPGSA,A,2,02,10,29,,,,,,,,,,21.3,7.2,20.0*3C
$GPRMC,021145.057,A,3037.9391,N,10404.9207,E,0.07,93.92,120507,,*3D
$GPZDA,021145,12,05,2007,00,00*48
$GPGGA,021146.057,3037.9391,N,10404.9210,E,1,03,7.2,447.9,M,-31.9,M,0.0,0000*50
$GPGSA,A,2,02,10,29,,,,,,,,,,21.3,7.2,20.0*3C
$GPRMC,021146.057,A,3037.9391,N,10404.9210,E,0.11,82.81,120507,,*3D
$GPZDA,021146,12,05,2007,00,00*4B
$GPGGA,021147.057,3037.9391,N,10404.9212,E,1,03,7.2,447.8,M,-31.9,M,0.0,0000*52
$GPGSA,A,2,02,10,29,,,,,,,,,,21.3,7.2,20.0*3C
$GPRMC,021147.057,A,3037.9391,N,10404.9212,E,0.09,90.25,120507,,*3A
$GPZDA,021147,12,05,2007,00,00*4A
$GPGGA,021148.056,3037.9392,N,10404.9214,E,1,03,7.2,447.7,M,-31.9,M,0.0,0000*56
$GPGSA,A,2,02,10,29,,,,,,,,,,21.3,7.2,20.0*3C
$GPRMC,021148.056,A,3037.9392,N,10404.9214,E,0.11,70.59,120507,,*3D
$GPZDA,021148,12,05,2007,00,00*45
$GPGGA,021149.056,3037.9392,N,10404.9216,E,1,03,7.2,447.7,M,-31.9,M,0.0,0000*55
$GPGSA,A,2,02,10,29,,,,,,,,,,21.3,7.2,20.0*3C
$GPGSV,3,1,09,29,62,151,34,10,54,023,29,06,45,300,00,02,43,086,38*71
$GPGSV,3,2,09,26,42,180,00,24,16,099,00,30,12,249,00,04,11,103,00*72
$GPGSV,3,3,09,05,08,224,00*49
$GPRMC,021149.056,A,3037.9392,N,10404.9216,E,0.08,87.15,120507,,*36
$GPMSS,0,0,0.000000,200,*5A
$GPZDA,021149,12,05,2007,00,00*44
$GPGGA,021150.056,3037.9392,N,10404.9217,E,1,03,7.2,447.6,M,-31.9,M,0.0,0000*5D
$GPGSA,A,2,02,10,29,,,,,,,,,,21.3,7.2,20.0*3C
$GPRMC,021150.056,A,3037.9392,N,10404.9217,E,0.02,161.01,120507,,*09
$GPZDA,021150,12,05,2007,00,00*4C
$GPGGA,021151.056,3037.9392,N,10404.9218,E,1,03,7.2,447.6,M,-31.9,M,0.0,0000*53
$GPGSA,A,2,02,10,29,,,,,,,,,,21.3,7.2,20.0*3C
$GPRMC,021151.056,A,3037.9392,N,10404.9218,E,0.06,185.86,120507,,*06
$GPZDA,021151,12,05,2007,00,00*4D
$GPGGA,021152.056,3037.9391,N,10404.9219,E,1,03,7.2,447.6,M,-31.9,M,0.0,0000*52
$GPGSA,A,2,02,10,29,,,,,,,,,,21.3,7.2,20.0*3C
$GPRMC,021152.056,A,3037.9391,N,10404.9219,E,0.06,158.18,120507,,*00
$GPZDA,021152,12,05,2007,00,00*4E
$GPGGA,021153.056,3037.9387,N,10404.9219,E,1,04,2.0,447.8,M,-31.9,M,0.0,0000*5A
$GPGSA,A,3,06,02,10,29,,,,,,,,,7.2,2.0,7.0*3C
$GPRMC,021153.056,A,3037.9387,N,10404.9219,E,0.14,173.59,120507,,*09
$GPZDA,021153,12,05,2007,00,00*4F
$GPGGA,021154.056,3037.9384,N,10404.9214,E,1,04,2.0,447.0,M,-31.9,M,0.0,0000*5B
$GPGSA,A,3,06,02,10,29,,,,,,,,,7.2,2.0,7.0*3C
$GPGSV,3,1,09,29,62,151,36,10,54,023,34,06,45,300,31,02,43,086,40*72
$GPGSV,3,2,09,26,42,180,00,24,16,099,00,30,12,249,00,04,11,103,00*72
$GPGSV,3,3,09,05,08,224,00*49
$GPRMC,021154.056,A,3037.9384,N,10404.9214,E,0.18,232.13,120507,,*04
$GPMSS,0,0,0.000000,200,*5A
$GPZDA,021154,12,05,2007,00,00*48
$GPGGA,021155.056,3037.9382,N,10404.9213,E,1,03,7.2,446.9,M,-31.9,M,0.0,0000*53
$GPGSA,A,2,02,10,29,,,,,,,,,,21.3,7.2,20.0*3C
$GPRMC,021155.056,A,3037.9382,N,10404.9213,E,0.04,157.30,120507,,*08
$GPZDA,021155,12,05,2007,00,00*49
$GPGGA,021156.056,3037.9374,N,10404.9203,E,1,05,1.8,445.4,M,-31.9,M,0.0,0000*5C
$GPGSA,A,3,06,02,04,10,29,,,,,,,,2.9,1.8,2.3*3B
$GPRMC,021156.056,A,3037.9374,N,10404.9203,E,0.06,140.03,120507,,*07
$GPZDA,021156,12,05,2007,00,00*4A
$GPGGA,021157.056,3037.9371,N,10404.9199,E,1,05,1.8,444.7,M,-31.9,M,0.0,0000*5A
$GPGSA,A,3,06,02,04,10,29,,,,,,,,2.9,1.8,2.3*3B
$GPRMC,021157.056,A,3037.9371,N,10404.9199,E,0.03,216.05,120507,,*00
$GPZDA,021157,12,05,2007,00,00*4B
$GPGGA,021158.056,3037.9369,N,10404.9195,E,1,05,1.8,443.6,M,-31.9,M,0.0,0000*56
$GPGSA,A,3,06,02,04,10,29,,,,,,,,2.9,1.8,2.3*3B
$GPRMC,021158.056,A,3037.9369,N,10404.9195,E,0.09,264.33,120507,,*00
$GPZDA,021158,12,05,2007,00,00*44
$GPGGA,021159.056,3037.9367,N,10404.9194,E,1,04,3.8,443.3,M,-31.9,M,0.0,0000*5E
$GPGSA,A,3,02,04,10,29,,,,,,,,,5.8,3.8,4.3*3F
$GPGSV,3,1,09,29,62,151,40,10,54,023,35,06,45,300,24,02,43,086,43*75
$GPGSV,3,2,09,26,42,180,30,24,16,099,00,30,12,249,00,04,11,103,34*76
$GPGSV,3,3,09,05,08,224,00*49
$GPRMC,021159.056,A,3037.9367,N,10404.9194,E,0.13,242.04,120507,,*05
$GPMSS,0,0,0.000000,200,*5A
$GPZDA,021159,12,05,2007,00,00*45
$GPGGA,021200.056,3037.9366,N,10404.9192,E,1,04,3.8,443.0,M,-31.9,M,0.0,0000*55
$GPGSA,A,3,02,04,10,29,,,,,,,,,5.8,3.8,4.3*3F
$GPRMC,021200.056,A,3037.9366,N,10404.9192,E,0.08,276.22,120507,,*04
$GPZDA,021200,12,05,2007,00,00*4A
$GPGGA,021201.056,3037.9365,N,10404.9191,E,1,04,3.8,442.7,M,-31.9,M,0.0,0000*52
$GPGSA,A,3,02,04,10,29,,,,,,,,,5.8,3.8,4.3*3F
$GPRMC,021201.056,A,3037.9365,N,10404.9191,E,0.14,267.56,120507,,*0B
$GPZDA,021201,12,05,2007,00,00*4B
$GPGGA,021202.056,3037.9363,N,10404.9190,E,1,05,1.8,442.3,M,-31.9,M,0.0,0000*51
$GPGSA,A,3,06,02,04,10,29,,,,,,,,2.9,1.8,2.3*3B
$GPRMC,021202.056,A,3037.9363,N,10404.9190,E,0.06,158.81,120507,,*09
$GPZDA,021202,12,05,2007,00,00*48
$GPGGA,021203.056,3037.9362,N,10404.9188,E,1,05,1.8,441.7,M,-31.9,M,0.0,0000*5F
$GPGSA,A,3,06,02,04,10,29,,,,,,,,2.9,1.8,2.3*3B
$GPRMC,021203.056,A,3037.9362,N,10404.9188,E,0.05,215.98,120507,,*01
$GPZDA,021203,12,05,2007,00,00*49
$GPGGA,021204.056,3037.9362,N,10404.9187,E,1,05,1.8,441.3,M,-31.9,M,0.0,0000*53
$GPGSA,A,3,06,02,04,10,29,,,,,,,,2.9,1.8,2.3*3B
$GPGSV-3,1,09,29,62,151,40,10,54,023,32,06,45,300,32,02,43,086,43*75
$GPGSV,3,2,09,26,42,180,37,24,16,099,00,30,12,249,00,04,11,103,33*76
$GPGSV,3,3,09,05,08,224,00*49
$GPRMC,021204.056,A,3037.9362,N,10404.9187,E,0.04,288.31,120507,,*0F
$GPMSS,0,0,0.000000,200,*5A
$GPZDQ<02!"04,12,05,2007,00,00*4E
$GPGGA,021205.056,3037.9361,N,10404.9186,E,1,05,1.8,440.7,M,-31.9,M,0.0,0000*55
$GPGSA,A,3,06,02,04,10,29,,,,,,,,2.9,1.8,2.3*3B
$GPRMC,021205.056,A,3037.9361,N,10404.9186,E,0.02,127.63,120507,,*0B
$GPZDA,021205,12,05,2007,00,00*4F
$GPGGA,021206.055,3037.9360,N,10404.9184,E,1,05,1.8,439.8,M,-31.9,M,0.0,0000*57
$GPGSA,A,3,06,02,04,10,29,,,,,,,,2.9,1.8,2.3*3B
$GPRMC,021206.055,A,3037.9360,N,10404.9184,E,0.11,251.90,120507,,*04
$GPZDA,021206,12,05,2007,00,00*4C
$GPGGA,021207.055,3037.9359,N,10404.9181,E,1,04,2.0,438.7,M,-31.9,M,0.0,0000*5D
$GPGSA,A,3,06,02,10,29,,,,,,,,,7.2,2.0,6.9*34
$GPRMC,021207.055,A,3037.9359,N,10404.9181,E,0.12,201.68,120507,,*0B
$GPZDA,021207,12,05,2007,00,00*4D
$GPGGA,021208.055,3037.9358,N,10404.9178,E,1,05,1.8,437.3,M,-31.9,M,0.0,0000*54
$GPGSA,A,3,06,02,04,10,29,,,,,,,,2.9,1.8,2.3*3B
$GPRMC,021208.055,A,3037.9358,N,10404.9178,E,0.08,229.78,120507,,*03
$GPZDA,021208,12,05,2007,00,00*42
$GPGGA,021209.055,3037.9357,N,10404.9176,E,1,05,1.8,436.5,M,-31.9,M,0.0,0000*53
$GPGSA,A,3,06,02,04,10,29,,,,,,,,2.9,1.8,2.3*3B
$GPGSV,3,1,09,29,62,151,38,10,54,023,33,06,45,300,31,02,43,086,41*7A
$GPGSV,3,2,09,26,42,180,35,24,16,099,00,30,12,249,00,04,11,103,35*72
$GPGSV,3,3,09,05,08,224,00*49
$GPRMC,021209.055,A,3037.9357,N,10404.9176,E,0.06,113.61,120507,,*0F
$GPMSS,0,0,0.000000,200,*5A
$GPZDA,021209,12,05,2007,00,00*43
$GPGGA,021210.055,3037.9356,N,10404.9174,E,1,05,1.8,435.7,M,-31.9,M,0.0,0000*59
$GPGSA,A,3,06,02,04,10,29,,,,,,,,2.9,1.8,2.3*3B
$GPRMC,021210.055,A,3037.9356,N,10404.9174,E,0.24,275.17,120507,,*06
$GPZDA,021210,12,05,2007,00,00*4B
$GPGGA,021211.055,3037.9355,N,10404.9172,E,1,05,1.8,435.1,M,-31.9,M,0.0,0000*5B
$GPGSA,A,3,06,02,04,10,29,,,,,,,,2.9,1.8,2.3*3B
$GPRMC,021211.055,A,3037.9355,N,10404.9172,E,0.11,271.78,120507,,*09
$GPZDA,021211,12,05,2007,00,00*4A
$GPGGA,021212.055,3037.9355,N,10404.9170,E,1,05,1.8,434.7,M,-31.9,M,0.0,0000*5D
$GPGSA,A,3,06,02,04,10,29,,,,,,,,2.9,1.8,2.3*3B
$GPRMC,021212.055,A,3037.9355,N,10404.9170,E,0.09,1.91,120507,,*03
$GPZDA,021212,12,05,2007,00,00*49
$GPGGA,021213.055,3037.9355,N,10404.9169,E,1,05,1.8,434.4,M,-31.9,M,0.0,0000*57
$GPGSA,A,3,06,02,04,10,29,,,,,,,,2.9,1.8,2.3*3B
$GPRMC,021213.055,A,3037.9355,N,10404.9169,E,0.09,280.88,120507,,*09
$GPZDA,021213,12,05,2007,00,00*48
$GPGGA,021214.055,3037.9354,N,10404.9167,E,1,04,3.8,434.3,M,-31.9,M,0.0,0000*5B
$GPGSA,A,3,02,04,10,29,,,,,,,,,5.8,3.8,4.3*3F
$GPGSV,3,1,09,29,62,151,38,10,54,023,32,06,45,300,27,02,43,086,43*7E
$GPGSV,3,2,09,26,42,180,37,24,16,099,00,30,12,249,00,04,11,103,36*73
$GPGSV,3,3,09,05,08,224,00*49
$GPRMC,021214.055,A,3037.9354,N,10404.9167,E,0.07,282.53,120507,,*0B
$GPMSS,0,0,0.000000,200,*5A
$GPZDA,021214,12,05,2007,00,00*4F
$GPGGA,021215.055,3037.9354,N,10404.9167,E,1,05,1.8,434.5,M,-31.9,M,0.0,0000*5F
$GPGSA,A,3,06,02,04,10,29,,,,,,,,2.9,1.8,2.3*3B
$GPRMC,021215.055,A,3037.9354,N,10404.9167,E,0.05,301.19,120507,,*0C
$GPZDA,021215,12,05,2007,00,00*4E
$GPGGA,021216.055,3037.9353,N,10404.9167,E,1,04,3.8,434.9,M,-31.9,M,0.0,0000*54
$GPGSA,A,3,02,04,10,29,,,,,,,,,5.8,3.8,4.3*3F
$GPRMC,021216.055,A,3037.9353,N,10404.9167,E,0.04,285.95,120507,,*00
$GPZDA,021216,12,05,2007,00,00*4D
$GPGGA,021217.055,3037.9353,N,10404.9167,E,1,04,3.8,435.5,M,-31.9,M,0.0,0000*58
$GPGSA,A,3,02,04,10,29,,,,,,,,,5.8,3.8,4.3*3F
$GPRMC,021217.055,A,3037.9353,N,10404.9167,E,0.03,94.03,120507,,*3B
$GPZDA,021217,12,05,2007,00,00*4C
$GPGGA,021218.055,3037.9353,N,10404.9167,E,1,04,3.8,436.2,M,-31.9,M,0.0,0000*53
$GPGSA,A,3,02,04,10,29,,,,,,,,,5.8,3.8,4.3*3F
$GPRMC,021218.055,A,3037.9353,N,10404.9167,E,0.06,126.26,120507,,*0E
$GPZDA,021218,12,05,2007,00,00*43
$GPGGA,021219.055,3037.9351,N,10404.9167,E,1,04,3.8,437.0,M,-31.9,M,0.0,0000*53
$GPGSA,A,3,02,04,10,29,,,,,,,,,5.8,3.8,4.3*3F
$GPGSV,3,1,10,29,62,150,42,10,54,023,32,06,45,300,27,02,43,087,43*7B
$GPGSV,3,2,10,26,42,180,37,24,16,099,00,30,12,249,00,04,11,103,32*7F
$GPGSV,3,3,10,05,07,224,00,21,05,298,00*7B
$GPRMC,021219.055,A,3037.9351,N,10404.9167,E,0.10,123.09,120507,,*02
$GPMSS,0,0,0.000000,200,*5A
$GPZDA,021219,12,05,2007,00,00*42
$GPGGA,021220.055,3037.9349,N,10404.9166,E,1,05,1.8,437.6,M,-31.9,M,0.0,0000*54
$GPGSA,A,3,06,02,04,10,29,,,,,,,,2.9,1.8,2.3*3B
$GPRMC,021220.055,A,3037.9349,N,10404.9166,E,0.03,91.45,120507,,*32
$GPZDA,021220,12,05,2007,00,00*48
$GPGGA,021221.055,3037.9347,N,10404.9166,E,1,04,3.8,438.0,M,-31.9,M,0.0,0000*51
$GPGSA,A,3,02,04,10,29,,,,,,,,,5.8,3.8,4.3*3F
$GPRMC,021221.055,A,3037.9347,N,10404.9166,E,0.10,147.18,120507,,*0D
$GPZDA,021221,12,05,2007,00,00*49
$GPGGA,021222.055,3037.9343,N,10404.9165,E,1,05,1.8,438.3,M,-31.9,M,0.0,0000*55
$GPGSA,A,3,06,02,04,10,29,,,,,,,,2.9,1.8,2.3*3B
$GPRMC,021222.055,A,3037.9343,N,10404.9165,E,0.15,102.86,120507,,*0A
$GPZDA,021222,12,05,2007,00,00*4A
$GPGGA,021223.054,3037.9340,N,10404.9165,E,1,05,1.8,438.6,M,-31.9,M,0.0,0000*53
$GPGSA,A,3,06,02,04,10,29,,,,,,,,2.9,1.8,2.3*3B
$GPRMC,021223.054,A,3037.9340,N,10404.9165,E,0.08,124.19,120507,,*07
$GPZDA,021223,12,05,2007,00,00*4B
$GPGGA,021224.054,3037.9337,N,10404.9166,E,1,05,1.8,439.0,M,-31.9,M,0.0,0000*50
$GPGSA,A,3,06,02,04,10,29,,,,,,,,2.9,1.8,2.3*3B
$GPGSV,3,1,10,29,63,150,38,10,54,023,30,26,50,171,27,06,45,300,29*75
$GPGSV,3,2,10,02,43,087,44,24,16,099,00,30,12,249,00,04,11,103,36*7E
$GPGSV,3,3,10,05,07,224,00,21,05,298,35*7D
$GPRMC,021224.054,A,3037.9337,N,10404.9166,E,0.08,120.11,120507,,*0F
$GPMSS,0,0,0.000000,200,*5A
$GPZDA,021224,12,05,2007,00,00*4C
$GPGGA,021225.054,3037.9335,N,10404.9167,E,1,05,3.0,439.4,M,-31.9,M,0.0,0000*5C
$GPGSA,A,3,26,02,04,10,29,,,,,,,,4.9,3.0,3.8*3F
$GPRMC,021225.054,A,3037.9335,N,10404.9167,E,0.15,94.56,120507,,*3C
$GPZDA,021225,12,05,2007,00,00*4D
$GPGGA,021226.054,3037.9334,N,10404.9168,E,1,06,1.4,439.8,M,-31.9,M,0.0,0000*58
$GPGSA,A,3,06,26,02,04,10,29,,,,,,,2.7,1.4,2.2*3C
$GPRMC,021226.054,A,3037.9334,N,10404.9168,E,0.64,219.84,120507,,*0F
$GPZDA,021226,12,05,2007,00,00*4E
$GPGGA,021227.054,3037.9334,N,10404.9167,E,1,06,1.4,440.1,M,-31.9,M,0.0,0000*51
$GPGSA,A,3,06,26,02,04,10,29,,,,,,,2.7,1.4,2.2*3C
$GPRMC,021227.054,A,3037.9334,N,10404.9167,E,0.04,12.38,120507,,*39
$GPZDA,021227,12,05,2007,00,00*4F
$GPGGA,021228.054,3037.9337,N,10404.9166,E,1,06,1.4,440.5,M,-31.9,M,0.0,0000*58
$GPGSA,A,3,06,26,02,04,10,29,,,,,,,2.7,1.4,2.2*3C
$GPRMC,021228.054,A,3037.9337,N,10404.9166,E,0.09,32.94,120507,,*3D
$GPZDA,021228,12,05,2007,00,00*40
$GPGGA,021229.054,3037.9341,N,10404.9166,E,1,06,1.4,440.9,M,-31.9,M,0.0,0000*54
$GPGSA,A,3,06,26,02,04,10,29,,,,,,,2.7,1.4,2.2*3C
$GPGSV,3,1,10,29,63,150,39,10,54,023,33,26,50,171,35,06,45,300,33*7F
$GPGSV,3,2,10,02,43,087,39,24,16,099,00,30,12,249,00,04,11,103,32*70
$GPGSV,3,3,10,05,07,224,00,21,05,298,35*7D
$GPRMC,021229.054,A,3037.9341,N,10404.9166,E,0.06,351.52,120507,,*0E
$GPMSS,0,0,0.000000,200,*5A
$GPZDA,021229,12,05,2007,00,00*41
$GPGGA,021230.054,3037.9344,N,10404.9167,E,1,05,3.0,441.6,M,-31.9,M,0.0,0000*53
$GPGSA,A,3,26,02,04,10,29,,,,,,,,4.9,3.0,3.8*3F
$GPRMC,021230.054,A,3037.9344,N,10404.9167,E,0.14,78.20,120507,,*3C
$GPZDA,021230,12,05,2007,00,00*49
$GPGGA,021231.054,3037.9349,N,10404.9169,E,1,05,3.0,442.6,M,-31.9,M,0.0,0000*52
$GPGSA,A,3,26,02,04,10,29,,,,,,,,4.9,3.0,3.8*3F
$GPRMC,021231.054,A,3037.9349,N,10404.9169,E,0.16,74.16,120507,,*35
$GPZDA,021231,12,05,2007,00,00*48
$GPGGA,021232.054,3037.9353,N,10404.9171,E,1,05,3.0,443.5,M,-31.9,M,0.0,0000*51
$GPGSA,A,3,26,02,04,10,29,,,,,,,,4.9,3.0,3.8*3F
$GPRMC,021232.054,A,3037.9353,N,10404.9171,E,0.34,81.63,120507,,*3C
$GPZDA,021232,12,05,2007,00,00*4B
$GPGGA,021233.054,3037.9357,N,10404.9174,E,1,05,1.8,444.5,M,-31.9,M,0.0,0000*5C
$GPGSA,A,3,06,26,02,04,29,,,,,,,,3.2,1.8,2.6*31
$GPRMC,021233.054,A,3037.9357,N,10404.9174,E,0.27,66.33,120507,,*32
$GPZDA,021233,12,05,2007,00,00*4A
$GPGGA,021234.054,3037.9362,N,10404.9176,E,1,04,2.0,445.0,M,-31.9,M,0.0,0000*51
$GPGSA,A,3,06,26,02,29,,,,,,,,,8.7,2.0,8.5*39
$GPGSV,3,1,10,29,63,150,41,10,54,023,27,26,50,171,33,06,45,300,33*73
$GPGSV,3,2,10,02,43,087,34,24,16,099,00,30,12,249,00,04,11,103,27*79
$GPGSV,3,3,10,05,07,224,00,21,05,298,34*7C
$GPRMC,021234.054,A,3037.9362,N,10404.9176,E,0.25,22.34,120507,,*34
$GPMSS,0,0,0.000000,200,*5A
$GPZDA,021234,12,05,2007,00,00*4D
$GPGGA,021235.054,3037.9371,N,10404.9176,E,1,06,1.4,446.1,M,-31.9,M,0.0,0000*55
$GPGSA,A,3,06,26,02,04,10,29,,,,,,,2.7,1.4,2.2*3C
$GPRMC,021235.054,A,3037.9371,N,10404.9176,E,0.12,41.09,120507,,*38
$GPZDA,021235,12,05,2007,00,00*4C
$GPGGA,021236.054,3037.9375,N,10404.9176,E,1,06,1.4,446.5,M,-31.9,M,0.0,0000*56
$GPGSA,A,3,06,26,02,04,10,29,,,,,,,2.7,1.4,2.2*3C
$GPRMC,021236.054,A,3037.9375,N,10404.9176,E,0.07,51.69,120507,,*3C
$GPZDA,021236,12,05,2007,00,00*4F
$GPGGA,021237.054,3037.9378,N,10404.9177,E,1,05,1.4,446.8,M,-31.9,M,0.0,0000*55
$GPGSA,A,3,06,26,02,10,29,,,,,,,,6.6,1.4,6.4*3F
$GPRMC,021237.054,A,3037.9378,N,10404.9177,E,0.08,67.86,120507,,*3A
$GPZDA,021237,12,05,2007,00,00*4E
$GPGGA,021238.054,3037.9382,N,10404.9176,E,1,06,1.4,447.2,M,-31.9,M,0.0,0000*56
$GPGSA,A,3,06,26,02,04,10,29,,,,,,,2.7,1.4,2.2*3C
$GPRMC,021238.054,A,3037.9382,N,10404.9176,E,0.06,19.66,120507,,*38
$GPZDA,021238,12,05,2007,00,00*41
$GPGGA,021239.054,3037.9384,N,10404.9176,E,1,04,2.6,447.3,M,-31.9,M,0.0,0000*53
$GPGSA,A,3,06,26,10,29,,,,,,,,,13.5,2.6,13.2*39
$GPGSV,3,1,10,29,63,150,41,10,54,023,30,26,50,171,29,06,45,300,34*79
$GPGSV,3,2,10,02,43,087,27,24,16,099,00,30,12,249,00,04,11,103,25*79
$GPGSV,3,3,10,05,07,224,00,21,05,298,33*7B
$GPRMC,021239.054,A,3037.9384,N,10404.9176,E,0.02,359.10,120507,,*0D
$GPMSS,0,0,0.000000,200,*5A
$GPZDA,021239,12,05,2007,00,00*40
$GPGGA,021240.053,3037.9393,N,10404.9171,E,1,06,1.4,447.2,M,-31.9,M,0.0,0000*59
$GPGSA,A,3,06-26,02,04,10,29,,,,,,,2.7,1.4,2.2*3C
$GPRMC,021240.053,A,3037.9393,N,10404.9171,E,0.09,0.02,120507,,*02
$GPZDA,021240,12,05,2007,00,00*4E
$GPGGA,021241.053,3037.9394,N,10404.9169,E,1,05,1.8,447.2,M,-31.9,M,0.0,0000*59
$GPGSA,A,3,06,02,04,10,29,,,,,,,,2.9,1.8,2.2*3A$G@BMC,021241.053,A,3037.9394,N,10404.9169,E,0.19,224.54,120507,,*0B
$GPZDA,021241,12,05,2007,00,00*4F
$GPGGA,021242.053,3037.9393,N,10404.9167,E,1,04,2.6,447.5,M,-31.9,M,0.0,0000*58
$GPGSA,A,3,06,02,04,29,,,,,,,,,3.8,2.6,2.6*32
$GPRMC,021242.053,A,3037.9393,N,10404.9167,E,0.65,232.67,120507,,*0D
$GPZDA,021242,12,05,2007,00,00*4C
$GPGGA,021243.053,3037.9393,N,10404.9165,E,1,04,2.0,447.8,M,-31.9,M,0.0,0000*50
$GPGSA,A,3,06,26,02,29,,,,,,,,,8.7,2.0,8.4*38
$GPRMC,021243.053,A,3037.9393,N,10404.9165,E,0.07,267.83,120507,,*00
$GPZDA,021243,12,05,2007,00,00*4D
$GPGGA,021244.053,3037.9393,N,10404.9162,E,1,04,2.0,448.3,M,-31.9,M,0.0,0000*54
$GPGSA,A,3,06,26,02,29,,,,,,,,,8.7,2.0,8.4*38
$GPGSV,3,1,10,29,63,150,43,10,54,023,26,26,50,171,28,06,45,300,43*7D
$GPGSV,3,2,10,02,43,087,37,24,16,099,00,30,12,249,00,04,11,103,28*75
$GPGSV,3,3,10,05,07,224,00,21,05,298,40*7F
$GPRMC,021244.053,A,3037.9393,N,10404.9162,E,0.09,29.31,120507,,*3F
$GPMSS,0,0,0.000000,200,*5A
$GPZDA,021244,12,05,2007,00,00*4A
$GPGGA,021245.053,3037.9394,N,10404.9161,E,1,04,2.0,448.8,M,-31.9,M,0.0,0000*5A
$GPGSA,A,3,06,26,02,29,,,,,,,,,8.7,2.0,8.4*38
$GPRMC,021245.053,A,3037.9394,N,10404.9161,E,0.14,17.56,120507,,*3A
$GPZDA,021245,12,05,2007,00,00*4B
$GPGGA,021246.053,3037.9396,N,10404.9159,E,1,04,2.0,449.3,M,-31.9,M,0.0,0000*5A
$GPGSA,A,3,06,26,02,29,,,,,,,,,8.7,2.0,8.4*38
$GPRMC,021246.053,A,3037.9396,N,10404.9159,E,0.14,353.92,120507,,*0B
$GPZDA,021246,12,05,2007,00,00*48
$GPGGA,021247.053,3037.9396,N,10404.9159,E,1,04,2.0,449.7,M,-31.9,M,0.0,0000*5F
$GPGSA,A,3,06,26,02,29,,,,,,,,,8.7,2.0,8.4*38
$GPRMC,021247.053,A,3037.9396,N,10404.9159,E,1.23,120.40,120507,,*06
$GPZDA,021247,12,05,2007,00,00*49
$GPGGA,021248.053,3037.9396,N,10404.9160,E,1,04,2.6,450.2,M,-31.9,M,0.0,0000*51
$GPGSA,A,3,06,02,04,29,,,,,,,,,3.8,2.6,2.6*32
$GPRMC,021248.053,A,3037.9396,N,10404.9160,E,0.25,41.65,120507,,*35
$GPZDA,021248,12,05,2007,00,00*46
$GPGGA,021249.053,3037.9396,N,10404.9158,E,1,05,1.6,450.7,M,-31.9,M,0.0,0000*5C
$GPGSA,A,3,06,26,04,10,29,,,,,,,,2.9,1.6,2.4*34
$GPGSV,3,1,10,29,63,150,40,10,54,024,30,26,50,171,28,06,45,300,44*79
$GPGSV,3,2,10,02,43,087,32,24,16,099,00,30,12,249,00,04,11,104,33*7D
$GPGSV,3,3,10,05,07,224,00,21,05,298,37*7F
$GPRMC,021249.053,A,3037.9396,N,10404.9158,E,0.08,333.05,120507,,*00
$GPMSS,0,0,0.000000,200,*5A
$GPZDA,021249,12,05,2007,00,00*47
$GPGGA,021250.053,3037.9398,N,10404.9156,E,1,05,1.4,451.5,M,-31.9,M,0.0,0000*55
$GPGSA,A,3,06,26,02,10,29,,,,,,,,6.6,1.4,6.4*3F
$GPRMC,021250.053,A,3037.9398,N,10404.9156,E,0.14,301.10,120507,,*00
$GPZDA,021250,12,05,2007,00,00*4F
$GPGGA,021251.053,3037.9399,N,10404.9155,E,1,05,1.4,452.3,M,-31.9,M,0.0,0000*53
$GPGSA,A,3,06,26,02,10,29,,,,,,,,6.6,1.4,6.4*3F
$GPRMC,021251.053,A,3037.9399,N,10404.9155,E,0.11,245.75,120507,,*04
$GPZDA,021251,12,05,2007,00,00*4E
$GPGGA,021252.053,3037.9400,N,10404.9154,E,1,05,1.4,453.1,M,-31.9,M,0.0,0000*55
$GPGSA,A,3,06,26,02,10,29,,,,,,,,6.6,1.4,6.4*3F
$GPRMC,021252.053,A,3037.9400,N,10404.9154,E,0.09,304.56,120507,,*0D
$GPZDA,021252,12,05,2007,00,00*4D
$GPGGA,021253.053,3037.9402,N,10404.9153,E,1,05,1.4,453.8,M,-31.9,M,0.0,0000*58
$GPGSA,A,3,06,26,02,10,29,,,,,,,,6.6,1.4,6.4*3F
$GPRMC,021253.053,A,3037.9402,N,10404.9153,E,0.05,58.49,120507,,*31
$GPZDA,021253,12,05,2007,00,00*4C
$GPGGA,021254.053,3037.9404,N,10404.9154,E,1,05,1.4,454.4,M,-31.9,M,0.0,0000*55
$GPGSA,A,3,06,26,02,10,29,,,,,,,,6.6,1.4,6.4*3F
$GPGSV,3,1,10,29,63,150,41,10,54,024,32,26,50,171,30,06,45,300,45*72
$GPGSV,3,2,10,02,43,087,28,24,16,099,00,30,12,249,00,04,11,104,00*76
$GPGSV,3,3,10,05,07,224,00,21,07,299,38*73
$GPRMC,021254.053,A,3037.9404,N,10404.9154,E,0.15,342.55,120507,,*03
$GPMSS,0,0,0.000000,200,*5A
$GPZDA,021254,12,05,2007,00,00*4B
$GPGGA,021255.053,3037.9404,N,10404.9153,E,1,03,3.8,454.6,M,-31.9,M,0.0,0000*59
$GPGSA,A,2,06,10,29,,,,,,,,,,20.4,3.8,20.0*30
$GPRMC,021255.053,A,3037.9404,N,10404.9153,E,0.06,208.24,120507,,*0E
$GPZDA,021255,12,05,2007,00,00*4A
$GPGGA,021256.053,3037.9404,N,10404.9148,E,1,05,1.4,455.4,M,-31.9,M,0.0,0000*5B
$GPGSA,A,3,06,26,02,10,29,,,,,,,,6.6,1.4,6.4*3F
$GPRMC,021256.053,A,3037.9404,N,10404.9148,E,0.14,268.87,120507,,*0B
$GPZDA,021256,12,05,2007,00,00*49
$GPGGA,021257.052,3037.9404,N,10404.9146,E,1,04,2.6,455.9,M,-31.9,M,0.0,0000*58
$GPGSA,A,3,06,26,10,29,,,,,,,,,13.5,2.6,13.2*39
$GPRMC,021257.052,A,3037.9404,N,10404.9146,E,0.10,258.56,120507,,*0E
$GPZDA,021257,12,05,2007,00,00*48
$GPGGA,021258.052,3037.9403,N,10404.9143,E,1,04,2.6,456.4,M,-31.9,M,0.0,0000*5B
$GPGSA,A,3,06,26,10,29,,,,,,,,,13.5,2.6,13.2*39
$GPRMC,021258.052,A,3037.9403,N,10404.9143,E,0.17,277.76,120507,,*0B
$GPZDA,021258,12,05,2007,00,00*47
$GPGGA,021259.052,3037.9402,N,10404.9140,E,1,05,1.4,456.6,M,-31.9,M,0.0,0000*5A
$GPGSA,A,3,06,26,02,10,29,,,,,,,,6.6,1.4,6.4*3F
$GPGSV,3,1,10,29,63,150,43,10,54,024,30,26,50,171,28,06,45,300,43*7D
$GPGSV,3,2,10,02,43,087,32,24,16,099,00,30,12,249,00,04,11,104,00*7D
$GPGSV,3,3,10,05,07,224,00,21,07,299,40*7C
$GPRMC,021259.052,A,3037.9402,N,10404.9140,E,0.19,1.23,120507,,*05
$GPMSS,0,0,0.000000,200,*5A
$GPZDA,021259,12,05,2007,00,00*46
$GPGGA,021300.052,3037.9403,N,10404.9141,E,1,05,1.4,456.2,M,-31.9,M,0.0,0000*53
$GPGSA,A,3,06,26,02,10,29,,,,,,,,6.6,1.4,6.4*3F
$GPRMC,021300.052,A,3037.9403,N,10404.9141,E,0.07,39.15,120507,,*39
$GPZDA,021300,12,05,2007,00,00*4B
$GPGGA,021301.052,3037.9401,N,10404.9142,E,1,04,2.0,455.2,M,-31.9,M,0.0,0000*56
$GPGSA,A,3,06,02,10,29,,,,,,,,,7.2,2.0,6.9*34
$GPRMC,021301.052,A,3037.9401,N,10404.9142,E,0.02,35.45,120507,,*35
$GPZDA,021301,12,05,2007,00,00*4A
$GPGGA,021302.052,3037.9401,N,10404.9143,E,1,05,1.4,453.8,M,-31.9,M,0.0,0000*5E
$GPGSA,A,3,06,26,02,10,29,,,,,,,,6.6,1.4,6.4*3F
$GPRMC,121302.052,A,3037.9401,N,10404.9143,E,0.11,47.80,120507,,*39
$GPZDA,021302,12,05,2007,00,00*49
$GPGGA,021303.052,3037.9400,N,10404.9143,E,1,04,2.6,453.1,M,-31.9,M,0.0,0000*57
$GPGSA,A,3,06,26,10,29,,,,,,,,,13.5,2.6,13.2*39
$GPRMC,021303.052,A,3037.9400,N,10404.9143,U<0. #,76.47,120507,,*33
$GPZDA,021303,12,05,2007,00,00*48
$GPGGA,021304.052,3037.9400,N,10404.9143,E,1,05,1.4,451.9,M,-31.9,M,0.0,0000*5A
$GPGSA,A,3,06,26,02,10,29,,,,,,,,6.6,1.4,6.4*3F
$GPGSV,3,1,10,29,63,150,40,10,54,024,32,26,50,171,28,06,45,300,43*7C
$GPGSV,3,2,10,02,43,087,35,24,16,099,00,30,12,249,00,04,11,104,00*7A
$GPGSV,3,3,10,05,07,224,00,21,07,299,39*72
$GPRMC,021304.052,A,3037.9400,N,10404.9143,E,0.10,85.52,120507,,*3E
$GPMSS,0,0,0.000000,200,*5A
$GPZDA,021304,12,05,2007,00,00*4F
$GPGGA,021305.052,3037.9399,N,10404.9140,E,1,04,2.0,452.1,M,-31.9,M,0.0,0000*52
$GPGSA,A,3,06,02,10,29,,,,,,,,,7.2,2.0,6.9*34
$GPRMC,021305.052,A,3037.9399,N,10404.9140,E,0.01,172.66,120507,,*05
$GPZDA,021305,12,05,2007,00,00*4E
$GPGGA,021306.052,3037.9399,N,10404.9134,E,1,04,2.0,453.5,M,-31.9,M,0.0,0000*57
$GPGSA,A,3,06,02,10,29,,,,,,,,,7.2,2.0,6.9*34
$GPRMC,021306.052,A,3037.9399,N,10404.9134,E,0.15,257.14,120507,,*01
$GPZDA,021306,12,05,2007,00,00*4D
$GPGGA,021307.052,3037.9400,N,10404.9131,E,1,04,2.0,454.7,M,-31.9,M,0.0,0000*51
$GPGSA,A,3,06,02,10,29,,,,,,,,,7.2,2.0,6.9*34
$GPRMC,021307.052,A,3037.9400,N,10404.9131,E,0.11,300.63,120507,,*05
$GPZDA,021307,12,05,2007,00,00*4C
$GPGGA,021308.052,3037.9400,N,10404.9128,E,1,04,2.0,455.9,M,-31.9,M,0.0,0000*59
$GPGSA,A,3,06,02,10,29,,,,,,,,,7.2,2.0,6.9*34
$GPRMC,021308.052,A,3037.9400,N,10404.9128,E,0.20,333.80,120507,,*0D
$GPZDA,021308,12,05,2007,00,00*43
$GPGGA,021309.052,3037.9400,N,10404.9125,E,1,03,7.6,457.1,M,-31.9,M,0.0,0000*5B
$GPGSA,A,2,06,02,29,,,,,,,,,,21.4,7.6,20.0*38
$GPGSV,3,1,10,29,63,150,39,10,54,024,20,26,50,171,24,06,45,300,42*7C
$GPGSV,3,2,10,02,43,087,30,24,16,099,00,30,12,249,00,04,11,104,00*7F
$GPGSV,3,3,10,05,07,224,00,21,07,299,40*7C
$GPRMC,021309.052,A,3037.9400,N,10404.9125,E,0.09,9.49,120507,,*05
$GPMSS,0,0,0.000000,200,*5A
$GPZDA,021309,12,05,2007,00,00*42
$GPGGA,021310.052,3037.9400,N,10404.9120,E,1,04,2.0,458.4,M,-31.9,M,0.0,0000*58
$GPGSA,A,3,06,02,10,29,,,,,,,,,7.2,2.0,6.9*34
$GPRMC,021310.052,A,3037.9400,N,10404.9120,E,0.32,347.59,120507,,*08
$GPZDA,021310,12,05,2007,00,00*4A
$GPGGA,021311.052,3037.9400,N,10404.9118,E,1,04,2.0,458.7,M,-31.9,M,0.0,0000*51
$GPGSA,A,3,06,02,10,29,,,,,,,,,7.2,2.0,6.9*34
$GPRMC,021311.052,A,3037.9400,N,10404.9118,E,0.31,334.99,120507,,*09
$GPZDA,021311,12,05,2007,00,00*4B
$GPGGA,021312.052,3037.9399,N,10404.9115,E,1,04,2.0,458.7,M,-31.9,M,0.0,0000*58
$GPGSA,A,3,06,02,10,29,,,,,,,,,7.2,2.0,6.9*34
$GPRMC,021312.052,A,3037.9399,N,10404.9115,E,0.26,340.30,120507,,*06
$GPZDA,021312,12,05,2007,00,00*48
$GPGGA,021313.052,3037.9401,N,10404.9113,E,1,03,7.6,458.9,M,-31.9,M,0.0,0000*53
$GPGSA,A,2,06,02,29,,,,,,,,,,21.5,7.6,20.0*39
$GPRMC,021313.052,A,3037.9401,N,10404.9113,E,1.39,338.51,120507,,*00
$GPZDA,021313,12,05,2007,00,00*49
$GPGGA,021314.052,3037.9404,N,10404.9111,E,1,03,7.6,458.9,M,-31.9,M,0.0,0000*53
$GPGSA,A,2,06,02,29,,,,,,,,,,21.5,7.6,20.0*39
$GPGSV,3,1,10,29,63,150,37,10,54,024,27,26,50,171,00,06,45,300,43*72
$GPGSV,3,2,10,02,43,087,35,24,16,099,00,30,12,249,00,04,11,104,00*7A
$GPGSV,3,3,10,05,07,224,00,21,07,299,39*72
$GPRMC,021314.052,A,3037.9404,N,10404.9111,E,1.61,340.98,120507,,*07
$GPMSS,0,0,0.000000,200,*5A
$GPZDA,021314,12,05,2007,00,00*4E
$GPGGA,021315.051,3037.9408,N,10404.9109,E,1,02,0.0,459.0,M,-31.9,M,0.0,0000*5C
$GPGSA,A,2,06,29,,,,,,,,,,,0.0,0.0,0.0*3E
$GPRMC,021315.051,A,3037.9408,N,10404.9109,E,1.54,341.89,120507,,*07
$GPZDA,021315,12,05,2007,00,00*4F
$GPGGA,021316.051,3037.9410,N,10404.9105,E,1,04,2.8,458.4,M,-31.9,M,0.0,0000*53
$GPGSA,A,3,06,02,04,29,,,,,,,,,3.8,2.8,2.6*3C
$GPRMC,021316.051,A,3037.9410,N,10404.9105,E,1.41,339.77,120507,,*0B
$GPZDA,021316,12,05,2007,00,00*4C
$GPGGA,021317.051,3037.9412,N,10404.9104,E,1,04,2.8,457.7,M,-31.9,M,0.0,0000*5D
$GPGSA,A,3,06,02,04,29,,,,,,,,,3.8,2.8,2.6*3C
$GPRMC,021317.051,A,3037.9412,N,10404.9104,E,0.91,307.70,120507,,*0F
$GPZDA,021317,12,05,2007,00,00*4D
$GPGGA,021318.051,3037.9413,N,10404.9103,E,1,05,1.8,456.9,M,-31.9,M,0.0,0000*59
$GPZDA,021318,12,05,2007,00,00*42
$GPGSA,A,3,06,02,04,10,29,,,,,,,,2.9,1.8,2.2*3A
$GPRMC,021318.051,A,3037.9413,N,10404.9103,E,0.50,323.09,120507,,*03
$GPGGA,021319.051,3037.9413,N,10404.9102,E,1,04,2.8,456.8,M,-31.9,M,0.0,0000*5A
$GPGSA,A,3,06,02,04,29,,,,,,,,,3.8,2.8,2.6*3C
$GPGSV,3,1,10,29,63,150,41,10,53,024,31,26,50,171,00,06,45,299,42*73
$GPGSV,3,2,10,02,42,087,33,24,16,099,00,30,12,249,00,04,11,104,29*76
$GPGSV,3,3,10,05,07,224,00,21,07,299,37*7C
$GPRMC,021319.051,A,3037.9413,N,10404.9102,E,0.04,166.09,120507,,*01
$GPMSS,0,0,0.000000,200,*5A
$GPZDA,021319,12,05,2007,00,00*43
$GPGGA,021320.051,3037.9413,N,10404.9102,E,1,04,2.0,457.0,M,-31.9,M,0.0,0000*51
$GPGSA,A,3,06,02,10,29,,,,,,,,,7.2,2.0,6.9*34
$GPRMC,021320.051,A,3037.9413,N,10404.9102,E,0.02,107.06,120507,,*05
$GPZDA,021320,12,05,2007,00,00*49
$GPGGA,021321.051,3037.9413,N,10404.9103,E,1,04,2.0,457.2,M,-31.9,M,0.0,0000*53
$GPGSA,A,3,06,02,10,29,,,,,,,,,7.2,2.0,6.9*34
$GPRMC,021321.051,A,3037.9413,N,10404.9103,E,0.07,106.15,120507,,*03
$GPZDA,021321,12,05,2007,00,00*48
$GPGGA,021322.051,3037.9412,N,10404.9102,E,1,04,2.0,457.1,M,-31.9,M,0.0,0000*53
$GPGSA,A,3,06,02,10,29,,,,,,,,,7.2,2.0,6.9*34
$GPRMC,021322.051,A,3037.9412,N,10404.9102,E,0.18,147.03,120507,,*0C
$GPZDA,021322,12,05,2007,00,00*4B
$GPGGA,021323.051,3037.9411,N,10404.9103,E,1,03,7.8,457.1,M,-31.9,M,0.0,0000*5A
$GPGSA,A,2,06,02,29,,,,,,,,,,21.5,7.8,20.0*37
$GPRMC,021323.051,A,3037.9411,N,10404.9103,E,0.04,10.17,120507,,*34
$GPZDA,021323,12,05,2007,00,00*4A
$GPGGA,021324.051,3037.9407,N,10404.9102,E,1,04,2.0,456.4,M,-31.9,M,0.0,0000*55
$GPGSA,A,3,06,02,10,29,,,,,,,,,7.2,2.0,6.9*34
$GPGSV,3,1,10,29,63,150,37,10,53,024,36,26,50,171,00,06,45,299,43*74
$GPGSV,3,2,10,02,42,087,39,24,16,099,00,30,12,249,00,04,11,104,21*74
$GPGSV,3,3,10,05,07,224,00,21,07,299,39*72
$GPRMC,021324.051,A,3037.9407,N,10404.9102,E,0.06,166.49,120507,,*0C
$GPMSS,0,0,0.000000,200,*5A
$GPZDA,021324,12,05,2007,00,00*4D
$GPGGA,021325.051,3037.9403,N,10404.9100,E,1,04,2.0,455.7,M,-31.9,M,0.0,0000*52
$GPGSA,A,3,06,02,10,29,,,,,,,,,7.2,2.0,6.9*34
$GPRMC,021325.051,A,3037.9403,N,10404.9100,E,0.07,215.40,120507,,*04
$GPZDA,021325,12,05,2007,00,00*4C
$GPGGA,021326.051,3037.9402,N,10404.9099,E,1,04,2.0,455.0,M,-31.9,M,0.0,0000*56
$GPGSA,A,3,06,02,10,29,,,,,,,,,7.2,2.0,6.9*34
$GPRMC,021326.051,A,3037.9402,N,10404.9099,E,0.05,236.21,120507,,*03
$GPZDA,021326,12,05,2007,00,00*4F
$GPGGA,021327.051,3037.9401,N,10404.9098,E,1,03,3.8,454.7,M,-31.9,M,0.0,0000*5D
$GPGSA,A,2,06,10,29,,,,,,,,,,20.4,3.8,20.0*30
$GPRMC,021327.051,A,3037.9401,N,10404.9098,E,0.05,110.10,120507,,*05
$GPZDA,021327,12,05,2007,00,00*4E
$GPGGA,021328.051,3037.9401,N,10404.9098,E,1,03,3.8,454.5,M,-31.9,M,0.0,0000*50
$GPGSA,A,2,06,10,29,,,,,,,,,,20.4,3.8,20.0*30
$GPRMC,021328.051,A,3037.9401,N,10404.9098,E,0.04,159.02,120507,,*05
$GPZDA,021328,12,05,2007,00,00*41
$GPGGA,021329.051,3037.9401,N,10404.9097,E,1,04,2.0,451.9,M,-31.9,M,0.0,0000*59
$GPGSA,A,3,06,04,10,29,,,,,,,,,3.1,2.0,2.4*3C
$GPGSV,3,1,10,29,63,150,39,10,53,024,36,26,50,171,00,06,45,299,44*7D
$GPGSV,3,2,10,02,42,087,19,24,16,099,00,30,12,249,00,04,11,104,30*76
$GPGSV,3,3,10,05,07,224,00,21,07,299,43*7F
$GPRMC,021329.051,A,3037.9401,N,10404.9097,E,0.05,343.77,120507,,*01
$GPMSS,0,0,0.000000,200,*5A
$GPZDA,021329,12,05,2007,00,00*40
$GPGGA,021330.051,3037.9401,N,10404.9097,E,1,04,2.0,450.6,M,-31.9,M,0.0,0000*5F
$GPGSA,A,3,06,04,10,29,,,,,,,,,3.1,2.0,2.4*3C
$GPRMC,021330.051,A,3037.9401,N,10404.9097,E,0.09,185.81,120507,,*04
$GPZDA,021330,12,05,2007,00,00*48
$GPGGA,021331.051,3037.9400,N,10404.9099,E,1,05,1.8,448.8,M,-31.9,M,0.0,0000*5C
$GPGSA,A,3,06,02,04,10,29,,,,,,,,2.9,1.8,2.2*3A
$GPRMC,021331.051,A,3037.9400,N,10404.9099,E,0.04,314.53,120507,,*02
$GPZDA,021331,12,05,2007,00,00*49
$GPGGA,021332.050,3037.9399,N,10404.9100,E,1,04,2.0,448.1,M,-31.9,M,0.0,0000*5B
$GPGSA,A,3,06,02,10,29,,,,,,,,,7.1,2.0,6.9*37
$GPRMC,021332.050,A,3037.9399,N,10404.9100,E,0.07,169.97,120507,,*05
$GPZDA,021332,12,05,2007,00,00*4A
$GPGGA,021333.050,3037.9399,N,10404.9100,E,1,01,0.0,447.6,M,-31.9,M,0.0,0000*55
$GPGSA,A,2,06,,,,,,,,,,,,0.0,0.0,0.0*35
$GPRMC,021333.050,A,3037.9399,N,10404.9100,E,0.07,169.97,120507,,*04
$GPZDA,021333,12,05,2007,00,00*4B
$GPGGA,021334.050,3037.9399,N,10404.9101,E,1,01,0.0,447.3,M,-31.9,M,0.0,0000*56
$GPGSA,A,2,06,,,,,,,,,,,,0.0,0.0,0.0*35
$GPGSV,3,1,10,29,63,150,23,10,53,024,26,26,50,171,00,06,45,299,35*71
$GPGSV,3,2,10,02,42,087,31,24,16,099,00,30,12,249,00,04,11,104,24*79
$GPGSV,3,3,10,05,07,224,00,21,07,299,35*7E
$GPRMC,021334.050,A,3037.9399,N,10404.9101,E,0.07,169.97,120507,,*02
$GPMSS,0,0,0.000000,200,*5A
$GPZDA,021334,12,05,2007,00,00*4C
$GPGGA,021335.050,3037.9398,N,10404.9100,E,1,02,0.0,446.9,M,-31.9,M,0.0,0000*5F
$GPGSA,A,2,06,10,,,,,,,,,,,0.0,0.0,0.0*34
$GPRMC,021335.050,A,3037.9398,N,10404.9100,E,0.12,207.80,120507,,*0A
$GPZDA,021335,12,05,2007,00,00*4D
$GPGGA,021336.050,3037.9397,N,10404.9097,E,1,04,2.0,445.7,M,-31.9,M,0.0,0000*55
$GPGSA,A,3,06,02,10,29,,,,,,,,,7.1,2.0,6.8*36
$GPRMC,021336.050,A,3037.9397,N,10404.9097,E,0.42,52.35,120507,,*30
$GPZDA,021336,12,05,2007,00,00*4E
$GPGGA,021337.050,3037.9391,N,10404.9098,E,1,04,2.0,445.4,M,-31.9,M,0.0,0000*5E
$GPGSA,A,3,06,02,10,29,,,,,,,,,7.1,2.0,6.8*36
$GPRMC,021337.050,A,3037.9391,N,10404.9098,E,0.04,130.78,120507,,*06
$GPZDA,021337,12,05,2007,00,00*4F
$GPGGA,021338.050,3037.9385,N,10404.9097,E,1,04,2.0,444.9,M,-31.9,M,0.0,0000*57
$GPGSA,A,3,06,02,10,29,,,,,,,,,7.1,2.0,6.8*36
$GPRMC,021338.050,A,3037.9385,N,10404.9097,E,0.12,206.00,120507,,*0D
$GPZDA,021338,12,05,2007,00,00*40
$GPGGA,021339.050,3037.9383,N,10404.9097,E,1,04,2.0,444.9,M,-31.9,M,0.0,0000*50
$GPGSA,A,3,06,02,10,29,,,,,,,,,7.1,2.0,6.8*36
$GPGSV,3,1,10,29,63,150,37,10,53,024,34,26,50,171,00,06,45,299,42*77
$GPGSV,3,2,10,02,42,087,37,24,16,099,00,30,12,249,00,04,11,104,00*79
$GPGSV,3,3,10,05,07,224,00,21,07,299,43*7F
$GPRMC,021339.050,A,3037.9383,N,10404.9097,E,0.10,191.54,120507,,*04
$GPMSS,0,0,0.000000,200,*5A
$GPZDA,021339,12,05,2007,00,00*41
$GPGGA,021340.050,3037.9381,N,10404.9095,E,1,04,2.0,444.9,M,-31.9,M,0.0,0000*5E
$GPGSA,A,3,06,02,10,29,,,,,,,,,7.1,2.0,6.8*36
$GPRMC,021340.050,A,3037.9381,N,10404.9095,E,0.10,175.83,120507,,*0A
$GPZDA,021340,12,05,2007,00,00*4F
$GPGGA,021341.050,3037.9380,N,10404.9092,E,1,04,2.0,445.0,M,-31.9,M,0.0,0000*51
$GPGSA,A,3,06,02,10,29,,,,,,,,,7.1,2.0,6.8*36
$GPRMC,021341.050,A,3037.9380,N,10404.9092,E,0.09,168.39,120507,,*08
$GPZDA,021341,12,05,2007,00,00*4E
$GPGGA,021342.050,3037.9379,N,10404.9091,E,1,04,2.0,444.8,M,-31.9,M,0.0,0000*5E
$GPGSA,A,3,06,02,10,29,,,,,,,,,7.1,2.0,6.8*36
$GPRMC,021342.050,A,3037.9379,N,10404.9091,E,0.04,170.18,120507,,*09
$GPZDA,021342,12,05,2007,00,00*4D
$GPGGA,021343.050,3037.9378,N,10404.9091,E,1,04,2.0,444.8,M,-31.9,M,0.0,0000*5E
$GPGSA,A,3,06,02,10,29,,,,,,,,,7.1,2.0,6.8*36
$GPRMC,021343.050,A,3037.9378,N,10404.9091,E,0.02,149.27,120507,,*09
$GPZDA,021343,12,05,2007,00,00*4C
$GPGGA,021344.050,3037.9378,N,10404.9090,E,1,04,2.0,444.7,M,-31.9,M,0.0,0000*57
$GPGSA,A,3,06,02,10,29,,,,,,,,,7.1,2.0,6.8*36
$GPGSV,3,1,10,29,63,150,40,10,53,024,35,26,50,171,00,06,45,299,43*77
$GPGSV,3,2,10,02,42,087,40,24,16,099,00,30,12,249,00,04,11,104,00*79
$GPGSV,3,3,10,05,07,224,00,21,07,299,43*7F
$GPRMC,021344.050,A,3037.9378,N,10404.9090,E,0.05,150.65,120507,,*06
$GPMSS,0,0,0.000000,200,*5A
$GPZDA,021344,12,05,2007,00,00*4B
$GPGGA,021345.050,3037.9379,N,10404.9090,E,1,04,2.0,444.7,M,-31.9,M,0.0,0000*57
$GPGSA,A,3,06,02,10,29,,,,,,,,,7.1,2.0,6.8*36
$GPRMC,021345.050,A,3037.9379,N,10404.9090,E,0.06,138.61,120507,,*0F
$GPZDA,021345,12,05,2007,00,00*4A
$GPGGA,021346.050,3037.9380,N,10404.9089,E,1,04,2.0,444.7,M,-31.9,M,0.0,0000*5A
$GPGSA,A,3,06,02,10,29,,,,,,,,,7.1,2.0,6.8*36
$GPRMC,021346.050,A,3037.9380,N,10404.9089,E,0.06,208.60,120507,,*03
$GPZDA,021346,12,05,2007,00,00*49
$GPGGA,021347.050,3037.9380,N,10404.9089,E,1,04,2.0,444.6,M,-31.9,M,0.0,0000*5A
$GPGSA,A,3,06,02,10,29,,,,,,,,,7.1,2.0,6.8*36
$GPRMC,021347.050,A,3037.9380,N,10404.9089,E,0.07,177.18,120507,,*07
$GPZDA,021347,12,05,2007,00,00*48
$GPGGA,021348.050,3037.9380,N,10404.9089,E,1,04,2.0,444.5,M,-31.9,M,0.0,0000*56
$GPGSA,A,3,06,02,10,29,,,,,,,,,7.1,2.0,6.8*36
$GPRMC,021348.050,A,3037.9380,N,10404.9089,E,0.05,147.90,120507,,*09
$GPZDA,021348,12,05,2007,00,00*47
$GPGGA,021349.049,3037.9380,N,10404.9089,E,1,04,2.0,444.3,M,-31.9,M,0.0,0000*59
$GPGSA,A,3,06,02,10,29,,,,,,,,,7.1,2.0,6.8*36
$GPGSV,3,1,10,29,63,149,42,10,53,024,35,26,51,171,00,06,45,299,43*7C
$GPGSV,3,2,10,02,42,087,40,24,16,099,00,30,11,248,00,04,11,104,00*7B
$GPGSV,3,3,10,21,07,300,44,05,07,223,00*7E
$GPRMC,021349.049,A,3037.9380,N,10404.9089,E,0.01,199.69,120507,,*01
$GPMSS,0,0,0.000000,200,*5A
$GPZDA,021349,12,05,2007,00,00*46
$GPGGA,021350.049,3037.9381,N,10404.9089,E,1,04,2.0,444.1,M,-31.9,M,0.0,0000*52
$GPGSA,A,3,06,02,10,29,,,,,,,,,7.1,2.0,6.8*36
$GPRMC,021350.049,A,3037.9381,N,10404.9089,E,0.06,183.11,120507,,*0B
$GPZDA,021350,12,05,2007,00,00*4E
$GPGGA,021351.049,3037.9381,N,10404.9089,E,1,04,2.0,444.0,M,-31.9,M,0.0,0000*52
$GPGSA,A,3,06,02,10,29,,,,,,,,,7.1,2.0,6.8*36
$GPRMC,021351.049,A,3037.9381,N,10404.9089,E,0.07,205.24,120507,,*00
$GPZDA,021351,12,05,2007,00,00*4F
$GPGGA,021352.049,3037.9381,N,10404.9090,E,1,04,2.0,443.8,M,-31.9,M,0.0,0000*56
$GPGSA,A,3,06,02,10,29,,,,,,,,,7.1,2.0,6.8*36
$GPRMC,021352.049,A,3037.9381,N,10404.9090,E,0.04,193.92,120507,,*09
$GPZDA,021352,12,05,2007,00,00*4C
$GPGGA,021353.049,3037.9381,N,10404.9091,E,1,04,2.0,443.6,M,-31.9,M,0.0,0000*58
$GPGSA,A,3,06,02,10,29,,,,,,,,,7.1,2.0,6.8*36
$GPRMC,021353.049,A,3037.9381,N,10404.9091,E,0.04,179.92,120507,,*0D
$GPZDA,021353,12,05,2007,00,00*4D
$GPGGA,021354.049,3037.9382,N,10404.9092,E,1,04,2.0,443.5,M,-31.9,M,0.0,0000*5C
$GPGSA,A,3,06,02,10,29,,,,,,,,,7.1,2.0,6.8*36
$GPGSV,3,1,10,29,63,149,41,10,53,024,32,26,51,171,00,06,45,299,43*78
$GPGSV,3,2,10,02,42,087,42,24,16,099,00,30,11,248,00,04,11,104,00*79
$GPGSV,3,3,10,21,07,300,43,05,07,223,00*79
$GPRMC,021354.049,A,3037.9382,N,10404.9092,E,0.06,186.83,120507,,*08
$GPMSS,0,0,0.000000,200,*5A
$GPZDA,021354,12,05,2007,00,00*4A
$GPGGA,021355.049,3037.9382,N,10404.9092,E,1,04,2.0,443.6,M,-31.9,M,0.0,0000*5E
$GPGSA,A,3,06,02,10,29,,,,,,,,,7.1,2.0,6.8*36
$GPRMC,021355.049,A,3037.9382,N,10404.9092,E,0.03,160.15,120507,,*0B
$GPZDA,021355,12,05,2007,00,00*4B
$GPGGA,021356.049,3037.9383,N,10404.9091,E,1,04,2.0,443.8,M,-31.9,M,0.0,0000*51
$GPGSA,A,3,06,02,10,29,,,,,,,,,7.1,2.0,6.8*36
$GPRMC,021356.049,A,3037.9383,N,10404.9091,E,0.03,173.90,120507,,*05
$GPZDA,021356,12,05,2007,00,00*48
$GPGGA,021357.049,3037.9384,N,10404.9090,E,1,04,2.0,444.3,M,-31.9,M,0.0,0000*5A
$GPGSA,A,3,06,02,10,29,,,,,,,,,7.1,2.0,6.8*36
$GPRMC,021357.049,A,3037.9384,N,10404.9090,E,0.02,132.95,120507,,*03
$GPZDA,021357,12,05,2007,00,00*49
$GPGGA,021358.049,3037.9384,N,10404.9089,E,1,04,2.0,444.8,M,-31.9,M,0.0,0000*56
$GPGSA,A,3,06,02,10,29,,,,,,,,,7.1,2.0,6.8*36
$GPRMC,021358.049,A,3037.9384,N,10404.9089,E,0.04,221.35,120507,,*09
$GPZDA,021358,12,05,2007,00,00*46
$GPGGA,021359.049,3037.9385,N,10404.9088,E,1,04,2.0,445.4,M,-31.9,M,0.0,0000*5A
$GPGSA,A,3,06,02,10,29,,,,,,,,,7.1,2.0,6.8*36
$GPGSV,3,1,10,29,63,149,40,10,53,024,33,26,51,171,00,06,45,299,42*79
$GPGSV,3,2,10,02,42,087,35,24,16,099,00,30,11,248,00,04,11,104,00*79
$GPGSV,3,3,10,21,07,300,43,05,07,223,00*79
$GPRMC,021359.049,A,3037.9385,N,10404.9088,E,0.05,158.76,120507,,*03
$GPMSS,0,0,0.000000,200,*5A
$GPZDA,021359,12,05,2007,00,00*47
$GPGGA,021400.049,3037.9386,N,10404.9087,E,1,04,2.0,446.0,M,-31.9,M,0.0,0000*5A
$GPGSA,A,3,06,02,10,29,,,,,,,,,7.1,2.0,6.8*36
$GPRMC,021400.049,A,3037.9386,N,10404.9087,E,0.02,81.84,120507,,*3B
$GPZDA,021400,12,05,2007,00,00*4C
$GPGGA,021401.049,3037.9387,N,10404.9087,E,1,04,2.0,446.6,M,-31.9,M,0.0,0000*5C
$GPGSA,A,3,06,02,10,29,,,,,,,,,7.1,2.0,6.8*36
$GPRMC,021401.049,A,3037.9387,N,10404.9087,E,0.03,62.74,120507,,*38
$GPZDA,021401,12,05,2007,00,00*4D
$GPGGA,021402.049,3037.9388,N,10404.9086,E,1,05,1.8,447.9,M,-31.9,M,0.0,0000*55
$GPGSA,A,3,21,06,02,10,29,,,,,,,,3.0,1.8,2.3*34
$GPRMC,021402.049,A,3037.9388,N,10404.9086,E,0.02,256.15,120507,,*06
$GPZDA,021402,12,05,2007,00,00*4E
$GPGGA,021403.049,3037.9389,N,10404.9086,E,1,05,1.8,448.6,M,-31.9,M,0.0,0000*55
$GPGSA,A,3,21,06,02,10,29,,,,,,,,3.0,1.8,2.3*34
$GPRMC,021403.049,A,3037.9389,N,10404.9086,E,0.05,25.92,120507,,*38
$GPZDA,021403,12,05,2007,00,00*4F
$GPGGA,021404.049,3037.9389,N,10404.9086,E,1,05,1.8,449.2,M,-31.9,M,0.0,0000*57
$GPGSA,A,3,21,06,02,10,29,,,,,,,,3.0,1.8,2.3*34
$GPGSV,3,1,10,29,63,149,41,10,53,024,36,26,51,171,00,06,45,299,44*7B
$GPGSV,3,2,10,02,42,087,38,24,16,099,00,30,11,248,00,04,11,104,00*74
$GPGSV,3,3,10,21,07,300,45,05,07,223,00*7F
$GPRMC,021404.049,A,3037.9389,N,10404.9086,E,0.02,164.37,120507,,*03
$GPMSS,0,0,0.000000,200,*5A
$GPZDA,021404,12,05,2007,00,00*48
$GPGGA,021405.049,3037.9389,N,10404.9087,E,1,05,1.8,449.8,M,-31.9,M,0.0,0000*5D
$GPGSA,A,3,21,06,02,10,29,,,,,,,,3.0,1.8,2.3*34
$GPRMC,021405.049,A,3037.9389,N,10404.9087,E,0.04,26.92,120507,,*3D
$GPZDA,021405,12,05,2007,00,00*49
$GPGGA,021406.048,3037.9389,N,10404.9088,E,1,05,1.8,450.1,M,-31.9,M,0.0,0000*51
$GPGSA,A,3,21,06,02,10,29,,,,,,,,3.0,1.8,2.3*34
$GPRMC,021406.048,A,3037.9389,N,10404.9088,E,0.04,158.58,120507,,*0E
$GPZDA,021406,12,05,2007,00,00*4A
$GPGGA,021407.048,3037.9388,N,10404.9090,E,1,05,1.8,450.4,M,-31.9,M,0.0,0000*5D
$GPGSA,A,3,21,06,02,10,29,,,,,,,,3.0,1.8,2.3*34
$GPRMC,021407.048,A,3037.9388,N,10404.9090,E,0.05,45.78,120507,,*39
$GPZDA,021407,12,05,2007,00,00*4B
$GPGGA,021408.048,3037.9387,N,10404.9090,E,1,05,1.8,450.6,M,-31.9,M,0.0,0000*5F
$GPGSA,A,3,21,06,02,10,29,,,,,,,,3.0,1.8,2.3*34
$GPRMC,021408.048,A,3037.9387,N,10404.9090,E,0.03,31.39,120507,,*39
$GPZDA,021408,12,05,2007,00,00*44
$GPGGA,021409.048,3037.9387,N,10404.9091,E,1,05,1.8,450.6,M,-31.9,M,0.0,0000*5F
$GPGSA,A,3,21,06,02,10,29,,,,,,,,3.0,1.8,2.3*34
$GPGSV,3,1,10,29,63,149,39,10,53,024,36,26,51,171,00,06,45,299,39*7E
$GPGSV,3,2,10,02,42,087,30,24,16,099,00,30,11,248,00,04,11,104,00*7C
$GPGSV,3,3,10,21,07,300,43,05,07,223,00*79
$GPRMC,021409.048,A,3037.9387,N,10404.9091,E,0.10,94.29,120507,,*35
$GPMSS,0,0,0.000000,200,*5A
$GPZDA,021409,12,05,2007,00,00*45
$GPGGA,021410.048,3037.9386,N,10404.9091,E,1,04,2.4,450.6,M,-31.9,M,0.0,0000*58
$GPGSA,A,3,21,06,10,29,,,,,,,,,3.9,2.4,3.1*33
$GPRMC,021410.048,A,3037.9386,N,10404.9091,E,0.12,283.57,120507,,*03
$GPZDA,021410,12,05,2007,00,00*4D
$GPGGA,021411.048,3037.9385,N,10404.9091,E,1,05,1.8,450.6,M,-31.9,M,0.0,0000*54
$GPGSA,A,3,21,06,02,10,29,,,,,,,,3.0,1.8,2.3*34
$GPRMC,021411.048,A,3037.9385,N,10404.9091,E,0.13,48.67,120507,,*36
$GPZDA,021411,12,05,2007,00,00*4C
$GPGGA,021412.048,3037.9385,N,10404.9090,E,1,05,1.8,450.6,M,-31.9,M,0.0,0000*56
$GPGSA,A,3,21,06,02,10,29,,,,,,,,3.0,1.8,2.3*34
$GPRMC,021412.048,A,3037.9385,N,10404.9090,E,0.05,125.35,120507,,*0E
$GPZDA,021412,12,05,2007,00,00*4F
$GPGGA,021413.048,3037.9384,N,10404.9089,E,1,05,1.8,450.5,M,-31.9,M,0.0,0000*5D
$GPGSA,A,3,21,06,02,10,29,,,,,,,,3.0,1.8,2.3*34
$GPRMC,021413.048,A,3037.9384,N,10404.9089,E,0.02,174.46,120507,,*01
$GPZDA,021413,12,05,2007,00,00*4E
$GPGGA,021414.048,3037.9383,N,10404.9088,E,1,05,1.8,450.3,M,-31.9,M,0.0,0000*5A
$GPGSA,A,3,21,06,02,10,29,,,,,,,,3.0,1.8,2.3*34
$GPGSV,3,1,10,29,63,149,39,10,53,024,34,26,51,171,00,06,45,299,43*71
$GPGSV,3,2,10,02,42,087,35,24,16,099,00,30,11,248,00,04,11,104,00*79
$GPGSV,3,3,10,21,07,300,42,05,07,223,00*78
$GPRMC,021414.048,A,3037.9383,N,10404.9088,E,0.04,265.52,120507,,*00
$GPMSS,0,0,0.000000,200,*5A
$GPZDA,021414,12,05,2007,00,00*49
$GPGGA,021415.048,3037.9382,N,10404.9088,E,1,04,3.0,450.1,M,-31.9,M,0.0,0000*53
$GPGSA,A,3,21,06,02,29,,,,,,,,,4.2,3.0,2.9*30
$GPRMC,021415.048,A,3037.9382,N,10404.9088,E,0.49,306.33,120507,,*0A
$GPZDA,021415,12,05,2007,00,00*48
$GPGGA,021416.048,3037.9383,N,10404.9086,E,1,04,3.0,449.8,M,-31.9,M,0.0,0000*5E
$GPGSA,A,3,21,06,02,29,,,,,,,,,4.2,3.0,2.9*30
$GPRMC,021416.048,A,3037.9383,N,10404.9086,E,1.20,305.29,120507,,*00
$GPZDA,021416,12,05,2007,00,00*4B
$GPGGA,021417.048,3037.9385,N,10404.9083,E,1,04,2.4,449.6,M,-31.9,M,0.0,0000*57
$GPGSA,A,3,21,06,10,29,,,,,,,,,3.9,2.4,3.1*33
$GPRMC,021417.048,A,3037.9385,N,10404.9083,E,1.48,309.27,120507,,*0E
$GPZDA,021417,12,05,2007,00,00*4A
$GPGGA,021418.048,3037.9390,N,10404.9081,E,1,04,3.0,449.2,M,-31.9,M,0.0,0000*5F
$GPGSA,A,3,21,06,02,29,,,,,,,,,4.2,3.0,2.9*30
$GPRMC,021418.048,A,3037.9390,N,10404.9081,E,2.24,2.81,120507,,*0A
$GPZDA,021418,12,05,2007,00,00*45
$GPGGA,021419.048,3037.9395,N,10404.9080,E,1,06,1.6,448.8,M,-31.9,M,0.0,0000*57
$GPGSA,A,3,21,06,02,04,10,29,,,,,,,2.2,1.6,1.4*39
$GPGSV,3,1,10,29,63,149,37,10,53,024,29,26,51,171,00,06,45,299,44*74
$GPGSV,3,2,10,02,42,088,34,24,15,100,00,30,11,248,00,04,10,104,28*7E
$GPGSV,3,3,10,21,07,300,40,05,07,223,00*7A
$GPRMC,021419.048,A,3037.9395,N,10404.9080,E,1.71,312.85,120507,,*0A
$GPMSS,0,0,0.000000,200,*5A
$GPZDA,021419,12,05,2007,00,00*44
$GPGGA,021420.048,3037.9397,N,10404.9075,E,1,05,1.8,448.3,M,-31.9,M,0.0,0000*53
$GPGSA,A,3,21,06,02,10,29,,,,,,,,3.0,1.8,2.3*34
$GPRMC,021420.048,A,3037.9397,N,10404.9075,E,2.09,297.71,120507,,*03
$GPZDA,021420,12,05,2007,00,00*4E
$GPGGA,021421.048,3037.9402,N,10404.9070,E,1,04,3.0,447.9,M,-31.9,M,0.0,0000*52
$GPGSA,A,3,21,06,02,29,,,,,,,,,4.2,3.0,2.9*30
$GPRMC,021421.048,A,3037.9402,N,10404.9070,E,2.21,337.14,120507,,*0E
$GPZDA,021421,12,05,2007,00,00*4F
$GPGGA,021422.048,3037.9410,N,10404.9070,E,1,05,2.6,447.4,M,-31.9,M,0.0,0000*59
$GPGSA,A,3,21,06,02,04,29,,,,,,,,3.2,2.6,1.7*39
$GPRMC,021422.048,A,3037.9410,N,10404.9070,E,3.32,1.36,120507,,*0B
$GPZDA,021422,12,05,2007,00,00*4C
$GPGGA,021423.048,3037.9417,N,10404.9069,E,1,06,1.6,447.0,M,-31.9,M,0.0,0000*53
$GPGSA,A,3,21,06,02,04,10,29,,,,,,,2.2,1.6,1.4*39
$GPRMC,021423.048,A,3037.9417,N,10404.9069,E,2.11,348.60,120507,,*08
$GPZDA,021423,12,05,2007,00,00*4D
$GPGGA,021424.047,3037.9422,N,10404.9065,E,1,06,1.6,446.7,M,-31.9,M,0.0,0000*57
$GPGSA,A,3,21,06,02,04,10,29,,,,,,,2.2,1.6,1.4*39
$GPGSV,3,1,10,29,63,149,37,10,53,024,30,26,51,171,00,06,45,299,46*7E
$GPGSV,3,2,10,02,42,088,33,24,15,100,00,30,11,248,00,04,10,104,28*79
$GPGSV,3,3,10,21,07,300,42,05,07,223,00*78
$GPRMC,021424.047,A,3037.9422,N,10404.9065,E,1.68,316.32,120507,,*0B
$GPMSS,0,0,0.000000,200,*5A
$GPZDA,021424,12,05,2007,00,00*4A
$GPGGA,021425.047,3037.9424,N,10404.9059,E,1,04,3.0,446.8,M,-31.9,M,0.0,0000*56
$GPGSA,A,3,21,06,02,29,,,,,,,,,4.2,3.0,2.9*30
$GPRMC,021425.047,A,3037.9424,N,10404.9059,E,1.70,294.34,120507,,*07
$GPZDA,021425,12,05,2007,00,00*4B
$GPGGA,021426.047,3037.9425,N,10404.9052,E,1,04,2.4,447.0,M,-31.9,M,0.0,0000*53
$GPGSA,A,3,21,06,10,29,,,,,,,,,3.9,2.4,3.1*33
$GPRMC,021426.047,A,3037.9425,N,10404.9052,E,1.79,287.27,120507,,*07
$GPZDA,021426,12,05,2007,00,00*48
$GPGGA,021427.047,3037.9426,N,10404.9045,E,1,05,1.8,447.3,M,-31.9,M,0.0,0000*5A
$GPGSA,A,3,21,06,02,10,29,,,,,,,,3.0,1.8,2.3*34
$GPRMC,021427.047,A,3037.9426,N,10404.9045,E,1.48,313.76,120507,,*09
$GPZDA,021427,12,05,2007,00,00*49
$GPGGA,021428.047,3037.9431,N,10404.9039,E,1,05,2.6,447.9,M,-31.9,M,0.0,0000*5F
$GPGSA,A,3,21,06,02,04,29,,,,,,,,3.2,2.6,1.7*39
$GPRMC,021428.047,A,3037.9431,N,10404.9039,E,2.45,346.76,120507,,*05
$GPZDA,021428,12,05,2007,00,00*46
$GPGGA,021429.047,3037.9434,N,10404.9032,E,1,05,1.8,448.2,M,-31.9,M,0.0,0000*59
$GPGSA,A,3,21,06,02,10,29,,,,,,,,3.0,1.8,2.3*34
$GPGSV,3,1,10,29,63,149,37,10,53,024,34,26,51,171,25,06,45,299,43*78
$GPGSV,3,2,10,02,42,088,30,24,15,100,00,30,11,248,00,04,10,104,26*74
$GPGSV,3,3,10,21,07,300,39,05,07,223,00*74
$GPRMC,021429.047,A,3037.9434,N,10404.9032,E,2.08,302.38,120507,,*09
$GPMSS,0,0,0.000000,200,*5A
$GPZDA,021429,12,05,2007,00,00*47
$GPGGA,021430.047,3037.9435,N,10404.9024,E,1,06,1.4,448.4,M,-31.9,M,0.0,0000*5E
$GPGSA,A,3,21,06,26,02,10,29,,,,,,,2.7,1.4,2.3*3A
$GPRMC,021430.047,A,3037.9435,N,10404.9024,E,1.66,327.70,120507,,*07
$GPZDA,021430,12,05,2007,00,00*4F
$GPGGA,021431.047,3037.9439,N,10404.9018,E,1,07,1.2,448.7,M,-31.9,M,0.0,0000*58
$GPGSA,A,3,21,06,26,02,04,10,29,,,,,,1.9,1.2,1.4*31
$GPRMC,021431.047,A,3037.9439,N,10404.9018,E,1.92,331.72,120507,,*0B
$GPZDA,021431,12,05,2007,00,00*4E
$GPGGA,021432.047,3037.9442,N,10404.9009,E,1,05,1.8,448.7,M,-31.9,M,0.0,0000*5F
$GPGSA,A,3,21,06,02,10,29,,,,,,,,3.0,1.8,2.3*34
$GPRMC,021432.047,A,3037.9442,N,10404.9009,E,2.27,303.43,120507,,*0A
$GPZDA,021432,12,05,2007,00,00*4D
$GPGGA,021433.047,3037.9446,N,10404.9000,E,1,04,6.4,448.6,M,-31.9,M,0.0,0000*58
$GPGSA,A,3,21,06,26,29,,,,,,,,,7.3,6.4,3.3*3E
$GPRMC,021433.047,A,3037.9446,N,10404.9000,E,2.49,301.42,120507,,*0D
$GPZDA,021433,12,05,2007,00,00*4C
$GPGGA,021434.047,3037.9452,N,10404.8991,E,1,07,1.2,448.6,M,-31.9,M,0.0,0000*58
$GPGSA,A,3,21,06,26,02,04,10,29,,,,,,1.9,1.2,1.4*31
$GPGSV,3,1,10,29,63,149,37,10,53,024,30,26,51,171,28,06,45,299,44*76
$GPGSV,3,2,10,02,42,088,32,24,15,100,00,30,11,248,00,04,10,104,29*79
$GPGSV,3,3,10,21,07,300,34,05,07,223,00*79
$GPZDA,021434,12,05,2007,00,00*4B
$GPRMC,021434.047,A,3037.9452,N,10404.8991,E,2.35,333.46,120507,,*01
$GPMSS,0,0,0.000000,200,*5A
$GPGGA,021435.047,3037.9458,N,10404.8984,E,1,07,1.2,448.6,M,-31.9,M,0.0,0000*57
$GPGSA,A,3,21,06,26,02,04,10,29,,,,,,1.9,1.2,1.4*31
$GPRMC,021435.047,A,3037.9458,N,10404.8984,E,2.61,299.42,120507,,*0A
$GPZDA,021435,12,05,2007,00,00*4A
$GPGGA,021436.047,3037.9461,N,10404.8973,E,1,06,1.6,449.0,M,-31.9,M,0.0,0000*54
$GPGSA,A,3,21,06,02,04,10,29,,,,,,,2.2,1.6,1.4*39
$GPRMC,021436.047,A,3037.9461,N,10404.8973,E,2.82,289.47,120507,,*02
$GPZDA,021436,12,05,2007,00,00*49
$GPGGA,021437.047,3037.9466,N,10404.8963,E,1,06,1.6,449.5,M,-31.9,M,0.0,0000*56
$GPGSA,A,3,21,06,26,02,04,29,,,,,,,2.4,1.6,1.7*39
$GPRMC,021437.047,A,3037.9466,N,10404.8963,E,2.97,312.46,120507,,*03
$GPZDA,021437,12,05,2007,00,00*48
$GPGGA,021438.047,3037.9472,N,10404.8954,E,1,07,1.2,449.7,M,-31.9,M,0.0,0000*5F
$GPGSA,A,3,21,06,26,02,04,10,29,,,,,,1.9,1.2,1.4*31
$GPRMC,021438.047,A,3037.9472,N,10404.8954,E,2.89,312.25,120507,,*07
$GPZDA,021438,12,05,2007,00,00*47
$GPGGA,021439.047,3037.9479,N,10404.8947,E,1,07,1.2,450.0,M,-31.9,M,0.0,0000*58
$GPGSA,A,3,21,06,26,02,04,10,29,,,,,,1.9,1.2,1.4*31
$GPGSV,3,1,10,29,63,149,36,10,53,024,32,26,51,171,28,06,45,299,45*74
$GPGSV,3,2,10,02,42,088,30,24,15,100,00,30,11,248,00,04,10,104,28*7A
$GPGSV,3,3,10,21,07,300,30,05,07,223,00*7D
$GPZDA,021439,12,05,2007,00,00*46
$GPRMC,021439.047,A,3037.9479,N,10404.8947,E,3.10,332.95,120507,,*07
$GPMSS,0,0,0.000000,200,*5A
$GPGGA,021440.047,3037.9489,N,10404.8942,E,1,06,1.4,450.3,M,-31.9,M,0.0,0000*58
$GPGSA,A,3,06,26,02,04,10,29,,,,,,,2.7,1.4,2.2*3C
$GPRMC,021440.047,A,3037.9489,N,10404.8942,E,4.30,353.03,120507,,*0E
$GPZDA,021440,12,05,2007,00,00*48
$GPGGA,021441.046,3037.9502,N,10404.8939,E,1,05,1.8,450.4,M,-31.9,M,0.0,0000*5E
$GPGSA,A,3,21,06,26,02,29,,,,,,,,3.3,1.8,2.6*37
$GPRMC,021441.046,A,3037.9502,N,10404.8939,E,4.04,349.40,120507,,*0B
$GPZDA,021441,12,05,2007,00,00*49
$GPGGA,021442.046,3037.9512,N,10404.8933,E,1,07,1.2,450.6,M,-31.9,M,0.0,0000*5C
$GPGSA,A,3,21,06,26,02,04,10,29,,,,,,1.9,1.2,1.4*31
$GPRMC,021442.046,A,3037.9512,N,10404.8933,E,3.46,328.43,120507,,*06
$GPZDA,021442,12,05,2007,00,00*4A
$GPGGA,021443.046,3037.9519,N,10404.8924,E,1,06,1.2,450.9,M,-31.9,M,0.0,0000*5E
$GPGSA,A,3,21,06,26,04,10,29,,,,,,,1.9,1.2,1.4*33
$GPRMC,021443.046,A,3037.9519,N,10404.8924,E,2.78,330.78,120507,,*07
$GPZDA,021443,12,05,2007,00,00*4B
$GPGGA,021444.046,3037.9524,N,10404.8912,E,1,05,1.8,451.6,M,-31.9,M,0.0,0000*55
$GPGSA,A,3,06,02,04,10,29,,,,,,,,2.9,1.8,2.2*3A
$GPGSV,3,1,10,29,63,149,38,10,53,024,31,26,51,171,27,06,45,299,44*77
$GPGSV,3,2,10,02,42,088,30,24,15,100,00,30,11,248,41,04,10,104,29*7E
$GPGSV,3,3,10,21,07,300,27,05,07,223,00*7B
$GPRMC,021444.046,A,3037.9524,N,10404.8912,E,3.68,309.17,120507,,*08
$GPMSS,0,0,0.000000,200,*5A
$GPZDA,021444,12,05,2007,00,00*4C
$GPGGA,021445.046,3037.9532,N,10404.8899,E,1,06,1.2,453.2,M,-31.9,M,0.0,0000*5E
$GPGSA,A,3,21,06,26,04,10,29,,,,,,,1.9,1.2,1.4*33
$GPRMC,021445.046,A,3037.9532,N,10404.8899,E,3.78,313.90,120507,,*09
$GPZDA,021445,12,05,2007,00,00*4D
$GPGGA,021446.046,3037.9542,N,10404.8888,E,1,04,2.0,454.4,M,-31.9,M,0.0,0000*58
$GPGSA,A,3,06,04,10,29,,,,,,,,,3.1,2.0,2.4*3C
$GPRMC,021446.046,A,3037.9542,N,10404.8888,E,4.26,338.64,120507,,*03
$GPZDA,021446,12,05,2007,00,00*4E
$GPGGA,021447.046,3037.9554,N,10404.8883,E,1,04,2.4,455.3,M,-31.9,M,0.0,0000*57
$GPGSA,A,3,21,06,10,29,,,,,,,,,3.9,2.4,3.1*33
$GPRMC,021447.046,A,3037.9554,N,10404.8883,E,4.55,355.88,120507,,*03
$GPZDA,021447,12,05,2007,00,00*4F
$GPGGA,021448.046,3037.9567,N,10404.8880,E,1,05,2.0,455.8,M,-31.9,M,0.0,0000*55
$GPGSA,A,3,21,06,26,10,29,,,,,,,,3.7,2.0,3.0*3C
$GPRMC,021448.046,A,3037.9567,N,10404.8880,E,4.51,5.48,120507,,*01
$GPZDA,021448,12,05,2007,00,00*40
$GPGGA,021449.046,3037.9581,N,10404.8880,E,1,05,2.0,456.1,M,-31.9,M,0.0,0000*56
$GPGSA,A,3,21,06,26,10,29,,,,,,,,3.7,2.0,3.0*3C
$GPGSV,3,1,10,29,63,149,36,10,53,024,46,26,51,171,36,06,45,299,40*7D
$GPGSV,3,2,10,02,42,088,22,24,15,100,00,30,11,248,33,04,10,104,26*77
$GPGSV,3,3,10,21,07,300,32,05,07,223,00*7F
$GPRMC,021449.046,A,3037.9581,N,10404.8880,E,4.76,11.76,120507,,*35
$GPMSS,0,0,0.000000,200,*5A
$GPZDA,021449,12,05,2007,00,00*41
$GPGGA,021450.046,3037.9594,N,10404.8883,E,1,04,2.6,456.3,M,-31.9,M,0.0,0000*5C
$GPGSA,A,3,06,26,10,29,,,,,,,,,13.3,2.6,13.0*3D
$GPRMC,021450.046,A,3037.9594,N,10404.8883,E,4.83,21.76,120507,,*33
$GPZDA,021450,12,05,2007,00,00*49
$GPGGA,021451.046,3037.9608,N,10404.8887,E,1,05,2.0,456.7,M,-31.9,M,0.0,0000*5C
$GPGSA,A,3,21,06,26,10,29,,,,,,,,3.7,2.0,3.0*3C
$GPRMC,021451.046,A,3037.9608,N,10404.8887,E,4.99,24.18,120507,,*36
$GPZDA,021451,12,05,2007,00,00*48
$GPGGA,021452.046,3037.9621,N,10404.8893,E,1,05,2.0,456.7,M,-31.9,M,0.0,0000*51
$GPGSA,A,3,21,06,26,10,29,,,,,,,,3.7,2.0,3.0*3C
$GPRMC,021452.046,A,3037.9621,N,10404.8893,E,4.94,24.77,120507,,*3F
$GPZDA,021452,12,05,2007,00,00*4B
$GPGGA,021453.046,3037.9634,N,10404.8898,E,1,03,2.8,456.8,M,-31.9,M,0.0,0000*5E
$GPGSA,A,2,06,26,10,,,,,,,,,,20.2,2.8,20.0*38
$GPRMC,021453.046,A,3037.9634,N,10404.8898,E,5.16,21.39,120507,,*35
$GPZDA,021453,12,05,2007,00,00*4A
$GPGGA,021454.046,3037.9649,N,10404.8900,E,1,04,2.0,457.4,M,-31.9,M,0.0,0000*51
$GPGSA,A,3,21,06,26,10,,,,,,,,,3.7,2.0,3.0*37
$GPGSV,3,1,10,29,63,149,22,10,53,024,46,26,51,171,30,06,45,299,41*7F
$GPGSV,3,2,10,02,42,088,00,24,15,100,43,30,11,248,30,04,10,104,00*77
$GPGSV,3,3,10,21,07,300,38,05,07,223,32*74
$GPRMC,021454.046,A,3037.9649,N,10404.8900,E,4.89,15.23,120507,,*33
$GPMSS,0,0,0.000000,200,*5A
$GPZDA,021454,12,05,2007,00,00*4D
$GPGGA,021455.046,3037.9662,N,10404.8905,E,1,03,50.0,457.4,M,-31.9,M,0.0,0000*6C
$GPGSA,A,2,21,06,10,,,,,,,,,,50.0,50.0,20.0*05
$GPRMC,021455.046,A,3037.9662,N,10404.8905,E,4.75,18.31,120507,,*33
$GPZDA,021455,12,05,2007,00,00*4C
$GPGGA,021456.046,3037.9675,N,10404.8909,E,1,03,50.0,457.6,M,-31.9,M,0.0,0000*67
$GPGSA,A,2,21,06,10,,,,,,,,,,50.0,50.0,20.0*05
$GPRMC,021456.046,A,3037.9675,N,10404.8909,E,4.63,14.96,120507,,*3C
$GPZDA,021456,12,05,2007,00,00*4F
$GPGGA,021457.046,3037.9691,N,10404.8910,E,1,04,2.0,458.1,M,-31.9,M,0.0,0000*5C
$GPGSA,A,3,21,06,26,10,,,,,,,,,3.7,2.0,3.0*37
$GPRMC,021457.046,A,3037.9691,N,10404.8910,E,4.77,12.02,120507,,*31
$GPZDA,021457,12,05,2007,00,00*4E
$GPGGA,021458.045,3037.9705,N,10404.8914,E,1,05,2.0,458.4,M,-31.9,M,0.0,0000*5C
$GPGSA,A,3,21,06,26,10,29,,,,,,,,3.7,2.0,3.0*3C
$GPRMC,021458.045,A,3037.9705,N,10404.8914,E,5.12,15.82,120507,,*38
$GPZDA,021458,12,05,2007,00,00*41
$GPGGA,021459.045,3037.9720,N,10404.8919,E,1,05,2.0,458.7,M,-31.9,M,0.0,0000*54
$GPGSA,A,3,21,06,26,10,29,,,,,,,,3.7,2.0,3.0*3C
$GPGSV,3,1,10,29,63,149,36,10,53,024,46,26,51,171,29,06,45,299,42*71
$GPGSV,3,2,10,02,42,088,00,24,15,100,41,30,11,248,31,04,10,104,00*74
$GPGSV,3,3,10,21,07,300,37,05,07,223,32*7B
$GPRMC,021459.045,A,3037.9720,N,10404.8919,E,5.06,21.18,120507,,*32
$GPMSS,0,0,0.000000,200,*5A
$GPZDA,021459,12,05,2007,00,00*40
$GPGGA,021500.045,3037.9734,N,10404.8926,E,1,05,2.0,459.0,M,-31.9,M,0.0,0000*56
$GPGSA,A,3,21,06,26,10,29,,,,,,,,3.7,2.0,3.0*3C
$GPRMC,021500.045,A,3037.9734,N,10404.8926,E,5.15,22.33,120507,,*3E
$GPZDA,021500,12,05,2007,00,00*4D
$GPGGA,021501.045,3037.9747,N,10404.8932,E,1,04,2.2,459.2,M,-31.9,M,0.0,0000*57
$GPGSA,A,3,21,06,10,29,,,,,,,,,3.9,2.2,3.1*35
$GPRMC,021501.045,A,3037.9747,N,10404.8932,E,5.19,22.30,120507,,*31
$GPZDA,021501,12,05,2007,00,00*4C
$GPGGA,021502.045,3037.9761,N,10404.8938,E,1,03,3.8,459.3,M,-31.9,M,0.0,0000*57
$GPGSA,A,2,06,10,29,,,,,,,,,,20.4,3.8,20.0*30
$GPRMC,021502.045,A,3037.9761,N,10404.8938,E,5.16,21.97,120507,,*3D
$GPZDA,021502,12,05,2007,00,00*4F
$GPGGA,021503.045,3037.9774,N,10404.8944,E,1,03,3.8,459.5,M,-31.9,M,0.0,0000*5F
$GPGSA,A,2,06,10,29,,,,,,,,,,20.4,3.8,20.0*30
$GPRMC,021503.045,A,3037.9774,N,10404.8944,E,5.16,17.97,120507,,*36
$GPZDA,021503,12,05,2007,00,00*4E
$GPGGA,021504.045,3037.9788,N,10404.8948,E,1,04,2.4,459.6,M,-31.9,M,0.0,0000*5E
$GPGSA,A,3,06,26,10,29,,,,,,,,,13.3,2.4,13.0*3F
$GPGSV,3,1,10,29,63,149,37,10,53,024,46,26,51,171,35,06,45,299,42*7D
$GPGSV,3,2,10,02,42,088,00,24,15,100,42,30,11,248,31,04,10,104,00*77
$GPGSV,3,3,10,21,07,300,22,05,07,223,29*75
$GPRMC,021504.045,A,3037.9788,N,10404.8948,E,5.14,16.03,120507,,*30
$GPMSS,0,0,0.000000,200,*5A
$GPZDA,021504,12,05,2007,00,00*49
$GPGGA,021505.045,3037.9802,N,10404.8954,E,1,05,1.4,459.7,M,-31.9,M,0.0,0000*5C
$GPGSA,A,3,06,26,02,10,29,,,,,,,,6.5,1.4,6.3*3B
$GPRMC,021505.045,A,3037.9802,N,10404.8954,E,5.39,21.96,120507,,*36
$GPZDA,021505,12,05,2007,00,00*48
$GPGGA,021506.045,3037.9815,N,10404.8961,E,1,05,1.4,459.7,M,-31.9,M,0.0,0000*5F
$GPGSA,A,3,06,26,02,10,29,,,,,,,,6.5,1.4,6.3*3B
$GPRMC,021506.045,A,3037.9815,N,10404.8961,E,5.19,25.35,120507,,*3A
$GPZDA,021506,12,05,2007,00,00*4B
$GPGGA,021507.045,3037.9828,N,10404.8970,E,1,06,1.4,459.3,M,-31.9,M,0.0,0000*57
$GPGSA,A,3,06,26,02,04,10,29,,,,,,,2.7,1.4,2.2*3C
$GPRMC,021507.045,A,3037.9828,N,10404.8970,E,5.00,27.48,120507,,*35
$GPZDA,021507,12,05,2007,00,00*4A
$GPGGA,021508.045,3037.9840,N,10404.8979,E,1,06,1.4,459.0,M,-31.9,M,0.0,0000*5C
$GPGSA,A,3,06,26,02,04,10,29,,,,,,,2.7,1.4,2.2*3C
$GPRMC,021508.045,A,3037.9840,N,10404.8979,E,5.13,32.71,120507,,*31
$GPZDA,021508,12,05,2007,00,00*45
$GPGGA,021509.045,3037.9853,N,10404.8989,E,1,07,1.2,458.8,M,-31.9,M,0.0,0000*5E
$GPGSA,A,3,21,06,26,02,04,10,29,,,,,,1.9,1.2,1.4*31
$GPGSV,3,1,10,29,63,149,35,10,53,024,47,26,51,171,28,06,45,299,39*7E
$GPZDA,021509,12,05,2007,00,00*44
$GPGSV,3,2,10,02,42,088,45,24,15,100,44,30,11,248,32,04,10,104,29*78
$GPGSV,3,3,10,21,07,300,32,05,07,223,31*7D
$GPRMC,021509.045,A,3037.9853,N,10404.8989,E,5.30,28.70,120507,,*36
$GPMSS,0,0,0.000000,200,*5A
$GPGGA,021510.045,3037.9866,N,10404.8998,E,1,05,1.8,458.7,M,-31.9,M,0.0,0000*57
$GPGSA,A,3,21,06,02,10,29,,,,,,,,3.0,1.8,2.3*34
$GPRMC,021510.045,A,3037.9866,N,10404.8998,E,5.13,24.52,120507,,*35
$GPZDA,021510,12,05,2007,00,00*4C
$GPGGA,021511.045,3037.9879,N,10404.9004,E,1,05,1.8,458.6,M,-31.9,M,0.0,0000*54
$GPGSA,A,3,21,06,02,10,29,,,,,,,,3.0,1.8,2.3*34
$GPRMC,021511.045,A,3037.9879,N,10404.9004,E,4.78,19.10,120507,,*33
$GPZDA,021511,12,05,2007,00,00*4D
$GPGGA,021512.045,3037.9892,N,10404.9010,E,1,03,3.8,458.6,M,-31.9,M,0.0,0000*53
$GPGSA,A,2,06,10,29,,,,,,,,,,20.4,3.8,20.0*30
$GPRMC,021512.045,A,3037.9892,N,10404.9010,E,4.72,23.43,120507,,*35
$GPZDA,021512,12,05,2007,00,00*4E
$GPGGA,021513.045,3037.9905,N,10404.9016,E,1,03,3.8,458.5,M,-31.9,M,0.0,0000*58
$GPGSA,A,2,06,10,29,,,,,,,,,,20.4,3.8,20.0*30
$GPRMC,021513.045,A,3037.9905,N,10404.9016,E,4.94,21.14,120507,,*35
$GPZDA,021513,12,05,2007,00,00*4F
$GPGGA,021514.045,3037.9918,N,10404.9022,E,1,04,2.4,458.3,M,-31.9,M,0.0,0000*58
$GPGSA,A,3,06,26,10,29,,,,,,,,,13.2,2.4,13.0*3E
$GPGSV,3,1,10,29,63,149,37,10,53,024,46,26,51,171,35,06,45,299,40*7F
$GPGSV,3,2,10,02,42,088,19,24,15,100,46,30,11,248,36,04,10,104,00*7C
$GPGSV,3,3,10,21,07,300,33,05,07,223,30*7D
$GPRMC,021514.045,A,3037.9918,N,10404.9022,E,4.76,22.91,120507,,*3B
$GPMSS,0,0,0.000000,200,*5A
$GPZDA,021514,12,05,2007,00,00*48
$GPGGA,021515.045,3037.9929,N,10404.9027,E,1,05,2.0,458.1,M,-31.9,M,0.0,0000*59
$GPGSA,A,3,21,06,26,10,29,,,,,,,,3.7,2.0,3.0*3C
$GPRMC,021515.045,A,3037.9929,N,10404.9027,E,4.87,22.49,120507,,*36
$GPZDA,021515,12,05,2007,00,00*49
$GPGGA,021516.044,3037.9942,N,10404.9032,E,1,05,2.0,458.1,M,-31.9,M,0.0,0000*52
$GPGSA,A,3,21,06,26,10,29,,,,,,,,3.7,2.0,3.0*3C
$GPRMC,021516.044,A,3037.9942,N,10404.9032,E,4.81,19.75,120507,,*3C
$GPZDA,021516,12,05,2007,00,00*4A
