$GPGGA,075845.85,,,,,0,00,999.9,,M,,M,,*60
$GPGSV,3,1,11,10,77,005,,23,63,117,,20,60,133,,32,44,316,*7C
$GPGSV,3,2,11,25,38,126,,31,33,227,,12,30,081,,21,17,305,*7E
$GPGSV,3,3,11,24,17,043,,18,16,179,,15,01,086,*44
$GLGSV,2,1,06,69,44,056,,79,42,041,,85,16,275,,68,11,101,*65
$GLGSV,2,2,06,80,66,159,,70,32,336,*66
$QZGSV,1,1,03,01,54,089,,02,53,099,,03,06,150,*52
$BDGSV,3,1,12,237,73,082,,216,57,005,,220,57,347,,206,56,015,*62
$BDGSV,3,2,12,232,48,091,,223,24,042,,203,58,172,,209,57,322,*6C
$BDGSV,3,3,12,202,50,224,,213,47,206,,207,33,152,,205,30,249,*65
$GAGSV,1,1,04,131,53,129,,109,49,334,,104,44,058,,101,32,056,*68
$GPGSA,A,1,,,,,,,,,,,,,140.0,99.0,99.0*35
$GNGSA,A,1,,,,,,,,,,,,,140.0,99.0,99.0*2B
$GNGSA,A,1,,,,,,,,,,,,,140.0,99.0,99.0*2B
$QZGSA,A,1,,,,,,,,,,,,,140.0,99.0,99.0*29
$IMGSA,A,1,,,,,,,,,,,,,140.0,99.0,99.0*26
$BDGSA,A,1,,,,,,,,,,,,,140.0,99.0,99.0*24
$GAGSA,A,1,,,,,,,,,,,,,140.0,99.0,99.0*24
$GPRMC,075845.85,V,,,,,,,241020,,,N*7E
$GPGGA,075846.85,,,,,0,00,999.9,,M,,M,,*63
$GPGSV,3,1,11,10,77,005,,23,63,117,,20,60,133,,32,44,316,*7C
$GPGSV,3,2,11,25,38,126,,31,33,227,,12,30,081,,21,17,305,*7E
$GPGSV,3,3,11,24,17,043,,18,16,179,,15,01,086,*44
$GLGSV,2,1,06,69,44,056,,79,42,041,,85,16,275,,68,11,101,*65
$GLGSV,2,2,06,80,66,159,,70,32,336,*66
$QZGSV,1,1,03,01,54,089,,02,53,099,,03,06,150,*52
$BDGSV,3,1,12,237,73,082,,216,57,005,,220,57,347,,206,56,015,*62
$BDGSV,3,2,12,232,48,091,,223,24,042,,203,58,172,,209,57,322,*6C
$BDGSV,3,3,12,202,50,224,,213,47,206,,207,33,152,,205,30,249,*65
$GAGSV,1,1,04,131,53,129,,109,49,334,,104,44,058,,101,32,056,*68
$GPGSA,A,1,,,,,,,,,,,,,140.0,99.0,99.0*35
$GNGSA,A,1,,,,,,,,,,,,,140.0,99.0,99.0*2B
$GNGSA,A,1,,,,,,,,,,,,,140.0,99.0,99.0*2B
$QZGSA,A,1,,,,,,,,,,,,,140.0,99.0,99.0*29
$IMGSA,A,1,,,,,,,,,,,,,140.0,99.0,99.0*26
$BDGSA,A,1,,,,,,,,,,,,,140.0,99.0,99.0*24
$GAGSA,A,1,,,,,,,,,,,,,140.0,99.0,99.0*24
$GPRMC,075846.85,V,,,,,,,241020,,,N*7D
$GPGGA,075846.87,,,,,0,00,999.9,,M,,M,,*61
$GPGSV,3,1,11,25,38,126,34,10,77,005,,23,63,117,,20,60,133,*77
$GPGSV,3,2,11,32,44,316,,31,33,227,,12,30,081,,21,17,305,*72
$GPGSV,3,3,11,24,17,043,,18,16,179,,15,00,086,*45
$GLGSV,2,1,06,69,44,056,,79,42,041,,85,16,275,,68,11,101,*65
$GLGSV,2,2,06,80,66,159,,70,32,336,*66
$QZGSV,1,1,03,01,54,089,,02,53,099,,03,06,150,*52
$BDGSV,3,1,12,237,73,082,,216,57,005,,220,57,347,,206,56,015,*62
$BDGSV,3,2,12,232,48,091,,223,24,042,,203,58,172,,209,57,322,*6C
$BDGSV,3,3,12,202,50,224,,213,47,206,,207,33,152,,205,30,249,*65
$GAGSV,1,1,04,131,53,129,,109,49,334,,104,44,058,,101,32,056,*68
$GPGSA,A,1,,,,,,,,,,,,,140.0,99.0,99.0*35
$GNGSA,A,1,,,,,,,,,,,,,140.0,99.0,99.0*2B
$GNGSA,A,1,,,,,,,,,,,,,140.0,99.0,99.0*2B
$QZGSA,A,1,,,,,,,,,,,,,140.0,99.0,99.0*29
$IMGSA,A,1,,,,,,,,,,,,,140.0,99.0,99.0*26
$BDGSA,A,1,,,,,,,,,,,,,140.0,99.0,99.0*24
$GAGSA,A,1,,,,,,,,,,,,,140.0,99.0,99.0*24
$GPRMC,075846.87,V,,,,,,,241020,,,N*7F
$GPGGA,075847.86,2632.256522,N,10647.869650,E,1,06,1.6,1164.3,M,-26.1,M,,*72
$GPGSV,3,1,11,10,77,005,23,23,63,117,33,20,60,133,34,25,38,126,34*71
$GPGSV,3,2,11,31,33,227,32,32,44,316,,12,30,081,,21,17,305,*73
$GPGSV,3,3,11,24,17,043,,18,16,179,,15,00,086,*45
$GLGSV,2,1,06,85,16,275,27,69,44,056,,79,42,041,,68,11,101,*60
$GLGSV,2,2,06,80,66,159,,70,32,336,*66
$QZGSV,1,1,03,01,54,089,29,02,53,099,27,03,06,150,25*5B
$BDGSV,3,1,12,237,73,082,,216,57,005,,220,57,347,,206,56,015,*62
$BDGSV,3,2,12,232,48,091,,223,24,042,,203,58,172,,209,57,322,*6C
$BDGSV,3,3,12,202,50,224,,213,47,206,,207,33,152,,205,30,249,*65
$GAGSV,1,1,04,131,53,129,,109,49,334,,104,44,058,,101,32,056,*68
$GPGSA,A,3,20,23,25,31,,,,,,,,,17.4,4.9,16.7*3B
$GNGSA,A,3,20,23,25,31,,,,,,,,,17.4,4.9,16.7*25
$GNGSA,A,3,,,,,,,,,,,,,17.4,4.9,16.7*23
$QZGSA,A,3,01,02,,,,,,,,,,,17.4,4.9,16.7*22
$IMGSA,A,3,,,,,,,,,,,,,17.4,4.9,16.7*2E
$BDGSA,A,3,,,,,,,,,,,,,17.4,4.9,16.7*2C
$GAGSA,A,3,,,,,,,,,,,,,17.4,4.9,16.7*2C
$GPRMC,075847.86,A,2632.256522,N,10647.869650,E,000.6,,241020,,,A*75
$GPGGA,075848.85,2632.258481,N,10647.870166,E,1,09,1.6,1114.8,M,-26.1,M,,*71
$GPGSV,3,1,11,10,77,005,22,23,63,117,34,20,60,133,34,32,44,316,18*75
$GPGSV,3,2,11,25,38,126,37,31,33,227,32,12,30,081,,21,17,305,*7B
$GPGSV,3,3,11,24,17,043,,18,16,179,,15,00,086,*45
$GLGSV,2,1,06,85,16,274,28,68,11,101,25,69,44,056,,79,42,041,*69
$GLGSV,2,2,06,80,66,159,,70,32,336,*66
$QZGSV,1,1,03,01,54,089,28,02,53,099,27,03,06,150,25*5A
$BDGSV,3,1,12,237,73,082,,216,57,005,,220,57,347,,206,56,015,*62
$BDGSV,3,2,12,232,48,091,,223,24,042,,203,58,172,,209,57,322,*6C
$BDGSV,3,3,12,202,50,224,,213,47,206,,207,33,152,,205,30,249,*65
$GAGSV,1,1,04,131,53,129,,109,49,334,,104,44,058,,101,32,056,*68
$GPGSA,A,3,20,23,25,31,,,,,,,,,2.1,1.6,1.4*35
$GNGSA,A,3,20,23,25,31,,,,,,,,,2.1,1.6,1.4*2B
$GNGSA,A,3,68,85,,,,,,,,,,,2.1,1.6,1.4*2E
$QZGSA,A,3,01,02,03,,,,,,,,,,2.1,1.6,1.4*2F
$IMGSA,A,3,,,,,,,,,,,,,2.1,1.6,1.4*20
$BDGSA,A,3,,,,,,,,,,,,,2.1,1.6,1.4*22
$GAGSA,A,3,,,,,,,,,,,,,2.1,1.6,1.4*22
$GPRMC,075848.85,A,2632.258481,N,10647.870166,E,000.7,,241020,,,A*74
$GPGGA,075849.85,2632.259842,N,10647.869878,E,1,10,2.4,1140.5,M,-26.1,M,,*79
$GPGSV,3,1,11,10,77,005,22,23,63,117,34,20,60,133,35,32,44,316,20*7F
$GPGSV,3,2,11,25,38,126,37,31,33,227,32,21,17,305,20,18,16,179,26*75
$GPGSV,3,3,11,12,30,081,,24,17,043,,15,00,086,*4D
$GLGSV,2,1,06,69,44,056,29,85,16,274,28,68,11,101,25,80,66,159,29*61
$GLGSV,2,2,06,79,42,041,,70,32,336,*6E
$QZGSV,1,1,03,01,54,089,29,02,53,099,30,03,06,150,24*5C
$BDGSV,3,1,12,237,73,081,,216,57,005,,220,57,347,,206,56,015,*61
$BDGSV,3,2,12,232,48,091,,223,24,042,,203,58,172,,209,57,322,*6C
$BDGSV,3,3,12,202,50,224,,213,47,206,,207,33,152,,205,30,249,*65
$GAGSV,1,1,04,131,53,129,,109,49,334,,104,44,058,,101,32,056,*68
$GPGSA,A,3,10,20,23,25,31,32,,,,,,,2.6,1.2,2.2*33
$GNGSA,A,3,10,20,23,25,31,32,,,,,,,2.6,1.2,2.2*2D
$GNGSA,A,3,69,85,,,,,,,,,,,2.6,1.2,2.2*29
$QZGSA,A,3,01,02,,,,,,,,,,,2.6,1.2,2.2*2A
$IMGSA,A,3,,,,,,,,,,,,,2.6,1.2,2.2*26
$BDGSA,A,3,,,,,,,,,,,,,2.6,1.2,2.2*24
$GAGSA,A,3,,,,,,,,,,,,,2.6,1.2,2.2*24
$GPRMC,075849.85,A,2632.259842,N,10647.869878,E,000.6,,241020,,,A*78
$GPGGA,075850.86,2632.259106,N,10647.870522,E,1,10,2.4,1148.9,M,-26.1,M,,*75
$GPGSV,3,1,11,10,77,005,22,23,63,117,34,20,60,133,35,32,44,316,21*7E
$GPGSV,3,2,11,25,38,126,37,31,33,227,32,12,30,081,19,21,17,305,19*7B
$GPGSV,3,3,11,18,16,179,24,24,17,043,,15,00,086,*43
$GLGSV,2,1,06,69,44,056,30,85,16,274,28,68,11,101,25,80,66,159,29*69
$GLGSV,2,2,06,79,42,041,,70,32,336,*6E
$QZGSV,1,1,03,01,54,089,29,02,53,099,30,03,06,150,24*5C
$BDGSV,3,1,12,237,73,081,,216,57,005,,220,57,347,,206,56,015,*61
$BDGSV,3,2,12,232,48,091,,223,24,042,,203,58,172,,209,57,322,*6C
$BDGSV,3,3,12,202,50,224,,213,47,206,,207,33,152,,205,30,249,*65
$GAGSV,1,1,04,131,53,129,,109,49,334,,104,44,058,,101,32,056,*68
$GPGSA,A,3,10,20,23,25,31,32,,,,,,,2.6,1.2,2.2*33
$GNGSA,A,3,10,20,23,25,31,32,,,,,,,2.6,1.2,2.2*2D
$GNGSA,A,3,69,85,,,,,,,,,,,2.6,1.2,2.2*29
$QZGSA,A,3,01,02,,,,,,,,,,,2.6,1.2,2.2*2A
$IMGSA,A,3,,,,,,,,,,,,,2.6,1.2,2.2*26
$BDGSA,A,3,,,,,,,,,,,,,2.6,1.2,2.2*24
$GAGSA,A,3,,,,,,,,,,,,,2.6,1.2,2.2*24
$GPRMC,075850.86,A,2632.259106,N,10647.870522,E,000.1,,241020,,,A*77
$GPGGA,075851.87,2632.258917,N,10647.868945,E,1,12,1.2,1154.6,M,-26.1,M,,*7D
$GPGSV,3,1,11,10,77,005,22,23,63,117,34,20,60,133,35,32,44,316,21*7E
$GPGSV,3,2,11,25,38,126,37,31,33,227,32,12,30,081,20,21,17,305,19*71
$GPGSV,3,3,11,18,16,179,23,24,17,043,,15,00,086,*44
$GLGSV,2,1,06,69,44,056,30,79,42,041,22,85,16,274,28,68,11,101,25*6A
$GLGSV,2,2,06,80,66,159,29,70,32,336,*6D
$QZGSV,1,1,03,01,54,089,29,02,53,099,30,03,06,150,24*5C
$BDGSV,3,1,12,237,73,081,,216,57,005,,220,57,347,,206,56,015,*61
$BDGSV,3,2,12,232,48,091,,223,24,042,,203,58,172,,209,57,322,*6C
$BDGSV,3,3,12,202,50,224,,213,47,206,,207,33,152,,205,30,249,*65
$GAGSV,1,1,04,131,53,129,,109,49,334,,104,44,058,,101,32,056,*68
$GPGSA,A,3,10,20,23,25,31,32,,,,,,,1.6,1.1,1.3*31
$GNGSA,A,3,10,20,23,25,31,32,,,,,,,1.6,1.1,1.3*2F
$GNGSA,A,3,68,69,85,,,,,,,,,,1.6,1.1,1.3*25
$QZGSA,A,3,01,02,03,,,,,,,,,,1.6,1.1,1.3*2B
$IMGSA,A,3,,,,,,,,,,,,,1.6,1.1,1.3*24
$BDGSA,A,3,,,,,,,,,,,,,1.6,1.1,1.3*26
$GAGSA,A,3,,,,,,,,,,,,,1.6,1.1,1.3*26
$GPRMC,075851.87,A,2632.258917,N,10647.868945,E,000.1,,241020,,,A*7A
$GPGGA,075852.86,2632.259082,N,10647.869259,E,1,12,1.6,1159.6,M,-26.1,M,,*75
$GPGSV,3,1,11,10,77,005,22,23,63,117,34,20,60,133,36,32,44,316,21*7D
$GPGSV,3,2,11,25,38,126,37,31,33,227,32,12,30,081,21,21,17,305,19*70
$GPGSV,3,3,11,18,16,179,23,24,17,043,,15,00,086,*44
$GLGSV,2,1,06,69,44,056,30,79,42,041,22,85,16,274,28,68,11,101,25*6A
$GLGSV,2,2,06,80,66,159,29,70,32,336,*6D
$QZGSV,1,1,03,01,54,089,29,02,53,099,32,03,06,150,24*5E
$BDGSV,3,1,12,237,73,081,,216,57,005,,220,57,347,,206,56,015,*61
$BDGSV,3,2,12,232,48,091,,223,24,042,,203,58,172,,209,57,322,*6C
$BDGSV,3,3,12,202,50,224,,213,47,206,,207,33,152,,205,30,249,*65
$GAGSV,1,1,04,131,53,129,,109,49,334,,104,44,058,,101,32,056,*68
$GPGSA,A,3,10,12,18,20,21,23,25,31,32,,,,1.8,1.0,1.5*31
$GNGSA,A,3,10,12,18,20,21,23,25,31,32,,,,1.8,1.0,1.5*2F
$GNGSA,A,3,69,,,,,,,,,,,,1.8,1.0,1.5*2F
$QZGSA,A,3,01,02,,,,,,,,,,,1.8,1.0,1.5*21
$IMGSA,A,3,,,,,,,,,,,,,1.8,1.0,1.5*2D
$BDGSA,A,3,,,,,,,,,,,,,1.8,1.0,1.5*2F
$GAGSA,A,3,,,,,,,,,,,,,1.8,1.0,1.5*2F
$GPRMC,075852.86,A,2632.259082,N,10647.869259,E,000.1,,241020,,,A*7B
$GPGGA,075853.85,2632.259685,N,10647.869427,E,1,12,1.6,1159.0,M,-26.1,M,,*7F
$GPGSV,3,1,11,10,77,005,22,23,63,117,34,20,60,133,36,32,44,316,20*7C
$GPGSV,3,2,11,25,38,126,37,31,33,227,34,12,30,081,23,21,17,305,19*74
$GPGSV,3,3,11,18,16,179,23,24,17,043,,15,00,086,*44
$GLGSV,2,1,06,69,44,057,31,79,42,041,22,85,16,274,28,68,11,101,25*6A
$GLGSV,2,2,06,80,67,159,29,70,32,336,*6C
$QZGSV,1,1,03,01,54,089,29,02,53,099,33,03,06,150,24*5F
$BDGSV,3,1,12,237,73,081,,216,57,005,,220,57,347,,206,56,015,*61
$BDGSV,3,2,12,232,48,091,,223,24,042,,203,58,172,,209,57,322,*6C
$BDGSV,3,3,12,202,50,224,,213,47,206,,207,33,152,,205,30,249,*65
$GAGSV,1,1,04,131,53,129,,109,49,334,,104,44,058,,101,32,056,*68
$GPGSA,A,3,10,12,20,21,23,25,31,32,,,,,2.0,1.0,1.8*3E
$GNGSA,A,3,10,12,20,21,23,25,31,32,,,,,2.0,1.0,1.8*20
$GNGSA,A,3,69,79,,,,,,,,,,,2.0,1.0,1.8*27
$QZGSA,A,3,01,02,,,,,,,,,,,2.0,1.0,1.8*27
$IMGSA,A,3,,,,,,,,,,,,,2.0,1.0,1.8*2B
$BDGSA,A,3,,,,,,,,,,,,,2.0,1.0,1.8*29
$GAGSA,A,3,,,,,,,,,,,,,2.0,1.0,1.8*29
$GPRMC,075853.85,A,2632.259685,N,10647.869427,E,000.2,,241020,,,A*74
$GPGGA,075854.85,2632.266029,N,10647.870959,E,1,16,1.6,1139.5,M,-26.1,M,,*7F
$GPGSV,3,1,11,10,77,005,22,23,63,117,34,20,60,133,36,32,44,316,20*7C
$GPGSV,3,2,11,25,38,126,37,31,33,227,34,12,30,081,23,21,17,305,18*75
$GPGSV,3,3,11,18,16,179,23,24,17,043,,15,00,086,*44
$GLGSV,2,1,06,69,44,057,31,79,42,041,23,85,16,274,28,68,11,101,27*69
$GLGSV,2,2,06,80,67,159,29,70,32,336,*6C
$QZGSV,1,1,03,01,54,089,29,02,53,099,33,03,06,150,23*58
$BDGSV,3,1,12,237,73,081,,216,57,005,,220,57,347,,206,56,015,*61
$BDGSV,3,2,12,232,48,091,,223,24,042,,203,58,172,,209,57,322,*6C
$BDGSV,3,3,12,202,50,224,,213,47,206,,207,33,152,,205,30,249,*65
$GAGSV,1,1,04,131,53,129,,109,49,334,,104,44,058,,101,32,056,*68
$GPGSA,A,3,10,12,18,20,21,23,25,31,32,,,,1.7,0.9,1.4*37
$GNGSA,A,3,10,12,18,20,21,23,25,31,32,,,,1.7,0.9,1.4*29
$GNGSA,A,3,68,69,79,85,,,,,,,,,1.7,0.9,1.4*24
$QZGSA,A,3,01,02,03,,,,,,,,,,1.7,0.9,1.4*24
$IMGSA,A,3,,,,,,,,,,,,,1.7,0.9,1.4*2B
$BDGSA,A,3,,,,,,,,,,,,,1.7,0.9,1.4*29
$GAGSA,A,3,,,,,,,,,,,,,1.7,0.9,1.4*29
$GPRMC,075854.85,A,2632.266029,N,10647.870959,E,000.0,,241020,,,A*71
$GPGGA,075855.85,2632.266128,N,10647.871296,E,1,17,1.2,1138.5,M,-26.1,M,,*73
$GPGSV,3,1,11,10,77,005,22,23,63,117,34,20,60,133,36,32,44,316,21*7D
$GPGSV,3,2,11,25,38,126,37,31,33,227,34,12,30,081,22,24,17,043,14*7C
$GPGSV,3,3,11,21,17,305,18,18,16,179,24,15,00,086,*4E
$GLGSV,2,1,06,69,44,057,31,79,42,041,23,85,16,274,28,68,11,101,27*69
$GLGSV,2,2,06,80,67,159,28,70,32,336,*6D
$QZGSV,1,1,03,01,54,089,29,02,53,099,33,03,06,150,23*58
$BDGSV,3,1,12,237,73,081,,216,57,005,,220,57,347,,206,56,015,*61
$BDGSV,3,2,12,232,48,091,,223,24,042,,203,58,172,,209,57,322,*6C
$BDGSV,3,3,12,202,50,224,,213,47,206,,207,33,152,,205,30,249,*65
$GAGSV,1,1,04,131,53,129,,109,49,334,,104,44,058,,101,32,056,*68
$GPGSA,A,3,10,12,18,20,21,23,24,25,31,32,,,1.7,1.0,1.4*39
$GNGSA,A,3,10,12,18,20,21,23,24,25,31,32,,,1.7,1.0,1.4*27
$GNGSA,A,3,68,69,79,85,,,,,,,,,1.7,1.0,1.4*2C
$QZGSA,A,3,01,02,03,,,,,,,,,,1.7,1.0,1.4*2C
$IMGSA,A,3,,,,,,,,,,,,,1.7,1.0,1.4*23
$BDGSA,A,3,,,,,,,,,,,,,1.7,1.0,1.4*21
$GAGSA,A,3,,,,,,,,,,,,,1.7,1.0,1.4*21
$GPRMC,075855.85,A,2632.266128,N,10647.871296,E,000.0,,241020,,,A*79
$GPGGA,075857.00,2632.266209,N,10647.871191,E,1,17,1.2,1136.8,M,-26.1,M,,*7B
$GPGSV,3,1,11,10,77,005,25,23,63,117,34,20,60,133,36,32,44,316,24*7F
$GPGSV,3,2,11,25,38,126,37,31,33,227,34,12,30,081,24,24,17,043,14*7A
$GPGSV,3,3,11,21,17,305,17,18,16,179,24,15,00,086,*41
$GLGSV,2,1,06,69,44,057,30,79,42,041,24,85,16,274,27,68,11,101,27*60
$GLGSV,2,2,06,80,67,159,28,70,32,336,*6D
$QZGSV,1,1,03,01,54,089,29,02,53,099,34,03,06,150,23*5F
$BDGSV,3,1,12,237,73,081,,216,57,005,,220,57,347,,206,56,015,*61
$BDGSV,3,2,12,232,48,091,,223,24,042,,203,58,172,,209,57,322,*6C
$BDGSV,3,3,12,202,50,224,,213,47,206,,207,33,152,,205,30,249,*65
$GAGSV,1,1,04,131,53,129,,109,49,334,,104,44,058,,101,32,056,*68
$GPGSA,A,3,10,12,18,20,21,23,24,25,31,32,,,1.7,1.0,1.4*39
$GNGSA,A,3,10,12,18,20,21,23,24,25,31,32,,,1.7,1.0,1.4*27
$GNGSA,A,3,68,69,79,85,,,,,,,,,1.7,1.0,1.4*2C
$QZGSA,A,3,01,02,03,,,,,,,,,,1.7,1.0,1.4*2C
$IMGSA,A,3,,,,,,,,,,,,,1.7,1.0,1.4*23
$BDGSA,A,3,,,,,,,,,,,,,1.7,1.0,1.4*21
$GAGSA,A,3,,,,,,,,,,,,,1.7,1.0,1.4*21
$GPRMC,075857.00,A,2632.266209,N,10647.871191,E,000.0,,241020,,,A*72
$GPGGA,075858.00,2632.266161,N,10647.871376,E,1,17,0.8,1136.6,M,-26.1,M,,*77
$GPGSV,3,1,11,10,77,005,26,23,63,117,34,20,60,133,36,32,44,316,26*7E
$GPGSV,3,2,11,25,38,126,37,31,33,227,34,12,30,081,24,24,17,043,15*7B
$GPGSV,3,3,11,21,17,305,17,18,16,179,23,15,00,086,*46
$GLGSV,2,1,06,69,44,057,30,79,42,041,24,85,16,274,27,68,11,101,26*61
$GLGSV,2,2,06,80,67,159,29,70,32,336,*6C
$QZGSV,1,1,03,01,54,089,30,02,53,099,34,03,06,150,22*56
$BDGSV,3,1,12,237,73,081,,216,57,005,,220,57,347,,206,56,015,*61
$BDGSV,3,2,12,232,48,091,,223,24,042,,203,58,172,,209,57,322,*6C
$BDGSV,3,3,12,202,50,224,,213,47,206,,207,33,152,,205,30,249,*65
$GAGSV,1,1,04,131,53,129,,109,49,334,,104,44,058,,101,32,056,*68
$GPGSA,A,3,10,12,18,20,21,23,24,25,31,32,,,1.6,1.0,1.2*3E
$GNGSA,A,3,10,12,18,20,21,23,24,25,31,32,,,1.6,1.0,1.2*20
$GNGSA,A,3,68,69,79,85,,,,,,,,,1.6,1.0,1.2*2B
$QZGSA,A,3,01,02,03,,,,,,,,,,1.6,1.0,1.2*2B
$IMGSA,A,3,,,,,,,,,,,,,1.6,1.0,1.2*24
$BDGSA,A,3,,,,,,,,,,,,,1.6,1.0,1.2*26
$GAGSA,A,3,,,,,,,,,,,,,1.6,1.0,1.2*26
$GPRMC,075858.00,A,2632.266161,N,10647.871376,E,000.0,,241020,,,A*7B
$GPGGA,075859.00,2632.265882,N,10647.871554,E,1,17,0.6,1137.8,M,-26.1,M,,*76
$GPGSV,3,1,11,10,77,005,26,23,63,117,34,20,60,133,35,32,44,316,26*7D
$GPGSV,3,2,11,25,38,126,36,31,33,227,34,12,30,081,25,24,17,043,15*7B
$GPGSV,3,3,11,21,17,305,18,18,16,179,25,15,00,086,*4F
$GLGSV,2,1,06,69,44,057,30,79,42,041,24,85,16,274,26,68,11,101,26*60
$GLGSV,2,2,06,80,67,159,28,70,32,336,*6D
$QZGSV,1,1,03,01,54,089,30,02,53,099,34,03,06,150,25*51
$BDGSV,3,1,12,237,73,081,,216,57,005,,220,57,347,,206,56,015,*61
$BDGSV,3,2,12,232,48,091,,223,24,042,,203,58,172,,209,57,322,*6C
$BDGSV,3,3,12,202,50,224,,213,47,206,,207,33,152,,205,30,249,*65
$GAGSV,1,1,04,131,53,129,,109,49,334,,104,44,058,,101,32,056,*68
$GPGSA,A,3,10,12,18,20,21,23,24,25,31,32,,,1.5,0.8,1.2*34
$GNGSA,A,3,10,12,18,20,21,23,24,25,31,32,,,1.5,0.8,1.2*2A
$GNGSA,A,3,68,69,79,85,,,,,,,,,1.5,0.8,1.2*21
$QZGSA,A,3,01,02,03,,,,,,,,,,1.5,0.8,1.2*21
$IMGSA,A,3,,,,,,,,,,,,,1.5,0.8,1.2*2E
$BDGSA,A,3,,,,,,,,,,,,,1.5,0.8,1.2*2C
$GAGSA,A,3,,,,,,,,,,,,,1.5,0.8,1.2*2C
$GPRMC,075859.00,A,2632.265882,N,10647.871554,E,000.0,,241020,,,A*7B
$GPGGA,075900.00,2632.265872,N,10647.871704,E,1,17,0.6,1138.4,M,-26.1,M,,*70
$GPGSV,3,1,11,10,77,005,25,23,63,117,34,20,60,133,35,32,44,316,26*7E
$GPGSV,3,2,11,25,38,126,36,31,33,227,33,12,30,081,24,24,17,043,15*7D
$GPGSV,3,3,11,21,17,305,17,18,16,179,26,15,00,086,*43
$GLGSV,2,1,06,69,44,057,29,79,42,041,24,85,16,274,26,68,11,102,25*68
$GLGSV,2,2,06,80,67,159,28,70,32,336,*6D
$QZGSV,1,1,03,01,54,089,29,02,53,099,33,03,06,150,25*5E
$BDGSV,3,1,12,237,73,081,,216,57,005,,220,57,347,,206,56,015,*61
$BDGSV,3,2,12,232,48,091,,223,24,042,,203,58,172,,209,57,322,*6C
$BDGSV,3,3,12,202,50,224,,213,47,206,,207,33,152,,205,30,249,*65
$GAGSV,1,1,04,131,53,129,,109,49,334,,104,44,058,,101,32,056,*68
$GPGSA,A,3,10,12,18,20,21,23,24,25,31,32,,,1.4,0.8,1.1*36
$GNGSA,A,3,10,12,18,20,21,23,24,25,31,32,,,1.4,0.8,1.1*28
$GNGSA,A,3,68,69,79,85,,,,,,,,,1.4,0.8,1.1*23
$QZGSA,A,3,01,02,03,,,,,,,,,,1.4,0.8,1.1*23
$IMGSA,A,3,,,,,,,,,,,,,1.4,0.8,1.1*2C
$BDGSA,A,3,,,,,,,,,,,,,1.4,0.8,1.1*2E
$GAGSA,A,3,,,,,,,,,,,,,1.4,0.8,1.1*2E
$GPRMC,075900.00,A,2632.265872,N,10647.871704,E,000.0,,241020,,,A*7E
$GPGGA,075901.00,2632.265855,N,10647.871870,E,1,17,0.6,1138.9,M,-26.1,M,,*75
$GPGSV,3,1,11,10,77,005,25,23,63,117,33,20,60,133,35,32,44,316,26*79
$GPGSV,3,2,11,25,38,126,35,31,33,227,32,12,30,081,24,24,17,043,15*7F
$GPGSV,3,3,11,21,17,305,17,18,16,179,28,15,00,086,*4D
$GLGSV,2,1,06,69,44,057,29,79,42,041,23,85,16,274,26,68,11,102,25*6F
$GLGSV,2,2,06,80,67,159,28,70,32,336,*6D
$QZGSV,1,1,03,01,54,089,29,02,53,099,33,03,06,150,26*5D
$BDGSV,3,1,12,237,73,081,,216,57,005,,220,57,347,,206,56,015,*61
$BDGSV,3,2,12,232,48,091,,223,24,042,,203,58,172,,209,57,322,*6C
$BDGSV,3,3,12,202,50,224,,213,47,206,,207,33,152,,205,30,249,*65
$GAGSV,1,1,04,131,53,129,,109,49,334,,104,44,058,,101,32,056,*68
$GPGSA,A,3,10,12,18,20,21,23,24,25,31,32,,,1.5,0.9,1.2*35
$GNGSA,A,3,10,12,18,20,21,23,24,25,31,32,,,1.5,0.9,1.2*2B
$GNGSA,A,3,68,69,79,85,,,,,,,,,1.5,0.9,1.2*20
$QZGSA,A,3,01,02,03,,,,,,,,,,1.5,0.9,1.2*20
$IMGSA,A,3,,,,,,,,,,,,,1.5,0.9,1.2*2F
$BDGSA,A,3,,,,,,,,,,,,,1.5,0.9,1.2*2D
$GAGSA,A,3,,,,,,,,,,,,,1.5,0.9,1.2*2D
$GPRMC,075901.00,A,2632.265855,N,10647.871870,E,000.0,,241020,,,A*76
$GPGGA,075902.00,2632.265760,N,10647.872011,E,1,17,0.6,1139.7,M,-26.1,M,,*7C
$GPGSV,3,1,11,10,77,005,25,23,63,117,33,20,60,133,34,32,44,316,27*79
$GPGSV,3,2,11,25,38,126,35,31,33,227,31,12,30,081,24,24,17,043,15*7C
$GPGSV,3,3,11,21,17,305,18,18,16,179,30,15,00,086,*4B
$GLGSV,2,1,06,69,44,057,28,79,42,041,25,85,16,274,26,68,11,102,25*68
$GLGSV,2,2,06,80,67,159,28,70,32,336,*6D
$QZGSV,1,1,03,01,54,089,28,02,53,099,33,03,06,150,29*53
$BDGSV,3,1,12,237,73,081,,216,57,005,,220,57,347,,206,56,015,*61
$BDGSV,3,2,12,232,48,091,,223,24,042,,203,58,172,,209,57,322,*6C
$BDGSV,3,3,12,202,50,224,,213,46,206,,207,33,152,,205,30,249,*64
$GAGSV,1,1,04,131,53,129,,109,49,334,,104,44,058,,101,32,056,*68
$GPGSA,A,3,10,12,18,20,21,23,24,25,31,32,,,1.7,1.0,1.4*39
$GNGSA,A,3,10,12,18,20,21,23,24,25,31,32,,,1.7,1.0,1.4*27
$GNGSA,A,3,68,69,79,85,,,,,,,,,1.7,1.0,1.4*2C
$QZGSA,A,3,01,02,03,,,,,,,,,,1.7,1.0,1.4*2C
$IMGSA,A,3,,,,,,,,,,,,,1.7,1.0,1.4*23
$BDGSA,A,3,,,,,,,,,,,,,1.7,1.0,1.4*21
$GAGSA,A,3,,,,,,,,,,,,,1.7,1.0,1.4*21
$GPRMC,075902.00,A,2632.265760,N,10647.872011,E,000.0,,241020,,,A*70
$GPGGA,075903.00,2632.265630,N,10647.871881,E,1,17,0.4,1140.8,M,-26.1,M,,*78
$GPGSV,3,1,11,10,77,005,24,23,63,117,33,20,60,133,34,32,44,316,27*78
$GPGSV,3,2,11,25,38,126,35,31,33,227,30,12,30,081,24,24,17,043,15*7D
$GPGSV,3,3,11,21,17,305,18,18,16,179,31,15,00,087,*4B
$GLGSV,2,1,06,69,44,057,28,79,42,041,25,85,16,274,25,68,11,102,24*6A
$GLGSV,2,2,06,80,67,159,27,70,32,336,*62
$QZGSV,1,1,03,01,54,089,28,02,53,099,33,03,06,150,30*5B
$BDGSV,3,1,12,237,73,081,,216,57,005,,220,57,347,,206,56,015,*61
$BDGSV,3,2,12,232,48,091,,223,24,042,,203,58,172,,209,57,322,*6C
$BDGSV,3,3,12,202,50,224,,213,46,206,,207,33,152,,205,30,249,*64
$GAGSV,1,1,04,131,53,129,,109,49,334,,104,44,058,,101,32,056,*68
$GPGSA,A,3,10,12,18,20,21,23,24,25,31,32,,,1.8,1.0,1.5*37
$GNGSA,A,3,10,12,18,20,21,23,24,25,31,32,,,1.8,1.0,1.5*29
$GNGSA,A,3,68,69,79,85,,,,,,,,,1.8,1.0,1.5*22
$QZGSA,A,3,01,02,03,,,,,,,,,,1.8,1.0,1.5*22
$IMGSA,A,3,,,,,,,,,,,,,1.8,1.0,1.5*2D
$BDGSA,A,3,,,,,,,,,,,,,1.8,1.0,1.5*2F
$GAGSA,A,3,,,,,,,,,,,,,1.8,1.0,1.5*2F
$GPRMC,075903.00,A,2632.265630,N,10647.871881,E,000.0,,241020,,,A*77
$GPGGA,075904.00,2632.265557,N,10647.871460,E,1,17,0.4,1141.7,M,-26.1,M,,*70
$GPGSV,3,1,11,10,77,005,24,23,63,117,33,20,60,134,34,32,44,316,26*7E
$GPGSV,3,2,11,25,38,126,35,31,33,227,29,12,30,081,24,24,17,043,15*75
$GPGSV,3,3,11,21,17,305,18,18,16,179,31,15,00,087,*4B
$GLGSV,2,1,06,69,44,057,28,79,42,041,24,85,16,274,25,68,11,102,23*6C
$GLGSV,2,2,06,80,67,159,27,70,32,336,*62
$QZGSV,1,1,03,01,54,089,28,02,53,099,33,03,06,150,30*5B
$BDGSV,3,1,12,237,73,081,,216,57,005,,220,57,348,,206,56,015,*6E
$BDGSV,3,2,12,232,48,091,,223,24,042,,203,58,172,,209,57,322,*6C
$BDGSV,3,3,12,202,50,224,,213,46,206,,207,33,152,,205,30,249,*64
$GAGSV,1,1,04,131,53,129,,109,49,334,,104,44,058,,101,32,056,*68
$GPGSA,A,3,10,12,18,20,21,23,24,25,31,32,,,1.6,0.9,1.4*30
$GNGSA,A,3,10,12,18,20,21,23,24,25,31,32,,,1.6,0.9,1.4*2E
$GNGSA,A,3,68,69,79,85,,,,,,,,,1.6,0.9,1.4*25
$QZGSA,A,3,01,02,03,,,,,,,,,,1.6,0.9,1.4*25
$IMGSA,A,3,,,,,,,,,,,,,1.6,0.9,1.4*2A
$BDGSA,A,3,,,,,,,,,,,,,1.6,0.9,1.4*28
$GAGSA,A,3,,,,,,,,,,,,,1.6,0.9,1.4*28
$GPRMC,075904.00,A,2632.265557,N,10647.871460,E,000.0,,241020,,,A*71
$GPGGA,075905.00,2632.265547,N,10647.871391,E,1,17,0.4,1141.5,M,-26.1,M,,*7B
$GPGSV,3,1,11,10,77,005,23,23,63,117,33,20,60,134,34,32,44,316,26*79
$GPGSV,3,2,11,25,38,126,35,31,33,227,29,12,30,081,24,24,17,043,15*75
$GPGSV,3,3,11,21,17,305,18,18,16,179,31,15,00,087,*4B
$GLGSV,2,1,06,69,44,057,28,79,42,041,23,85,16,274,24,68,11,102,23*6A
$GLGSV,2,2,06,80,67,159,27,70,32,336,*62
$QZGSV,1,1,03,01,54,089,28,02,53,099,33,03,06,150,30*5B
$BDGSV,3,1,12,237,73,081,,216,57,005,,220,57,348,,206,56,015,*6E
$BDGSV,3,2,12,232,48,091,,223,24,042,,203,58,172,,209,57,322,*6C
$BDGSV,3,3,12,202,50,224,,213,46,206,,207,33,152,,205,30,249,*64
$GAGSV,1,1,04,131,53,129,,109,49,334,,104,44,058,,101,32,056,*68
$GPGSA,A,3,10,12,18,20,21,23,24,25,31,32,,,2.0,1.0,1.7*3E
$GNGSA,A,3,10,12,18,20,21,23,24,25,31,32,,,2.0,1.0,1.7*20
$GNGSA,A,3,68,69,79,85,,,,,,,,,2.0,1.0,1.7*2B
$QZGSA,A,3,01,02,03,,,,,,,,,,2.0,1.0,1.7*2B
$IMGSA,A,3,,,,,,,,,,,,,2.0,1.0,1.7*24
$BDGSA,A,3,,,,,,,,,,,,,2.0,1.0,1.7*26
$GAGSA,A,3,,,,,,,,,,,,,2.0,1.0,1.7*26
$GPRMC,075905.00,A,2632.265547,N,10647.871391,E,000.0,,241020,,,A*78
$GPGGA,075906.00,2632.265551,N,10647.871321,E,1,17,0.4,1141.3,M,-26.1,M,,*72
$GPGSV,3,1,11,10,77,005,23,23,63,117,32,20,60,134,34,32,44,316,26*78
$GPGSV,3,2,11,25,38,126,35,31,33,227,30,12,30,081,24,24,17,043,15*7D
$GPGSV,3,3,11,21,17,305,17,18,16,179,30,15,00,087,*45
$GLGSV,2,1,06,69,44,057,28,79,42,041,23,85,16,274,23,68,11,102,25*6B
$GLGSV,2,2,06,80,67,159,27,70,32,336,*62
$QZGSV,1,1,03,01,54,089,28,02,53,099,33,03,06,150,29*53
$BDGSV,3,1,12,237,73,081,,216,57,005,,220,57,348,,206,56,015,*6E
$BDGSV,3,2,12,232,48,091,,223,24,042,,203,58,172,,209,57,322,*6C
$BDGSV,3,3,12,202,50,224,,213,46,206,,207,33,152,,205,30,249,*64
$GAGSV,1,1,04,131,53,129,,109,49,334,,104,44,058,,101,32,056,*68
$GPGSA,A,3,10,12,18,20,21,23,24,25,31,32,,,2.0,1.0,1.7*3E
$GNGSA,A,3,10,12,18,20,21,23,24,25,31,32,,,2.0,1.0,1.7*20
$GNGSA,A,3,68,69,79,85,,,,,,,,,2.0,1.0,1.7*2B
$QZGSA,A,3,01,02,03,,,,,,,,,,2.0,1.0,1.7*2B
$IMGSA,A,3,,,,,,,,,,,,,2.0,1.0,1.7*24
$BDGSA,A,3,,,,,,,,,,,,,2.0,1.0,1.7*26
$GAGSA,A,3,,,,,,,,,,,,,2.0,1.0,1.7*26
$GPRMC,075906.00,A,2632.265551,N,10647.871321,E,000.0,,241020,,,A*77
$GPGGA,075907.00,2632.265320,N,10647.871211,E,1,17,0.4,1141.9,M,-26.1,M,,*7B
$GPGSV,3,1,11,10,77,005,22,23,63,117,32,20,60,134,34,32,44,316,25*7A
$GPGSV,3,2,11,25,38,126,35,31,33,227,32,12,30,081,24,24,17,043,15*7F
$GPGSV,3,3,11,21,17,305,20,18,16,179,30,15,00,087,*41
$GLGSV,2,1,06,69,44,057,28,79,42,041,23,85,16,274,23,68,11,102,25*6B
$GLGSV,2,2,06,80,67,159,27,70,32,336,*62
$QZGSV,1,1,03,01,54,089,28,02,53,099,33,03,06,150,29*53
$BDGSV,3,1,12,237,73,081,,216,57,005,,220,57,348,,206,56,015,*6E
$BDGSV,3,2,12,232,48,091,,223,24,042,,203,58,172,,209,57,322,*6C
$BDGSV,3,3,12,202,50,224,,213,46,206,,207,33,152,,205,30,249,*64
$GAGSV,1,1,04,131,53,129,,109,49,334,,104,44,058,,101,32,056,*68
$GPGSA,A,3,10,12,18,20,21,23,24,25,31,32,,,1.5,0.9,1.2*35
$GNGSA,A,3,10,12,18,20,21,23,24,25,31,32,,,1.5,0.9,1.2*2B
$GNGSA,A,3,68,69,79,85,,,,,,,,,1.5,0.9,1.2*20
$QZGSA,A,3,01,02,03,,,,,,,,,,1.5,0.9,1.2*20
$IMGSA,A,3,,,,,,,,,,,,,1.5,0.9,1.2*2F
$BDGSA,A,3,,,,,,,,,,,,,1.5,0.9,1.2*2D
$GAGSA,A,3,,,,,,,,,,,,,1.5,0.9,1.2*2D
$GPRMC,075907.00,A,2632.265320,N,10647.871211,E,000.0,,241020,,,A*74
$GPGGA,075908.00,2632.265151,N,10647.871382,E,1,17,0.4,1142.0,M,-26.1,M,,*71
$GPGSV,3,1,11,10,77,005,21,23,63,117,32,20,60,134,33,32,44,316,25*7E
$GPGSV,3,2,11,25,38,126,35,31,33,227,33,12,30,081,23,24,17,043,15*79
$GPGSV,3,3,11,21,17,305,22,18,16,179,30,15,00,087,*43
$GLGSV,2,1,06,69,44,057,27,79,42,041,23,85,16,274,24,68,11,102,25*63
$GLGSV,2,2,06,80,67,159,27,70,32,336,*62
$QZGSV,1,1,03,01,54,089,27,02,53,099,32,03,06,150,28*5C
$BDGSV,3,1,12,237,73,081,,216,57,005,,220,57,348,,206,56,015,*6E
$BDGSV,3,2,12,232,48,091,,223,24,042,,203,58,172,,209,57,322,*6C
$BDGSV,3,3,12,202,50,224,,213,46,206,,207,33,152,,205,30,249,*64
$GAGSV,1,1,04,131,53,129,,109,49,334,,104,44,058,,101,32,056,*68
$GPGSA,A,3,10,12,18,20,21,23,24,25,31,32,,,1.6,0.9,1.3*37
$GNGSA,A,3,10,12,18,20,21,23,24,25,31,32,,,1.6,0.9,1.3*29
$GNGSA,A,3,68,69,79,85,,,,,,,,,1.6,0.9,1.3*22
$QZGSA,A,3,01,02,03,,,,,,,,,,1.6,0.9,1.3*22
$IMGSA,A,3,,,,,,,,,,,,,1.6,0.9,1.3*2D
$BDGSA,A,3,,,,,,,,,,,,,1.6,0.9,1.3*2F
$GAGSA,A,3,,,,,,,,,,,,,1.6,0.9,1.3*2F
$GPRMC,075908.00,A,2632.265151,N,10647.871382,E,000.0,,241020,,,A*74
$GPGGA,075909.00,2632.265028,N,10647.871262,E,1,16,0.4,1142.1,M,-26.1,M,,*70
$GPGSV,3,1,11,10,77,005,21,23,63,117,32,20,60,134,33,32,44,316,25*7E
$GPGSV,3,2,11,25,38,126,34,31,33,227,33,12,30,081,22,24,17,043,15*79
$GPGSV,3,3,11,21,17,305,22,18,16,179,33,15,00,087,*40
$GLGSV,2,1,06,69,44,057,27,79,42,041,23,85,16,274,27,68,11,102,31*65
$GLGSV,2,2,06,80,67,158,26,70,32,336,*62
$QZGSV,1,1,03,01,54,089,27,02,53,099,31,03,06,150,27*50
$BDGSV,3,1,12,237,73,081,,216,57,005,,220,57,348,,206,56,015,*6E
$BDGSV,3,2,12,232,48,091,,223,24,042,,203,58,172,,209,57,322,*6C
$BDGSV,3,3,12,202,50,224,,213,46,206,,207,33,152,,205,30,249,*64
$GAGSV,1,1,04,131,53,129,,109,49,334,,104,44,058,,101,32,056,*68
$GPGSA,A,3,10,18,20,21,23,24,25,31,32,,,,1.6,0.9,1.3*34
$GNGSA,A,3,10,18,20,21,23,24,25,31,32,,,,1.6,0.9,1.3*2A
$GNGSA,A,3,68,69,79,85,,,,,,,,,1.6,0.9,1.3*22
$QZGSA,A,3,01,02,03,,,,,,,,,,1.6,0.9,1.3*22
$IMGSA,A,3,,,,,,,,,,,,,1.6,0.9,1.3*2D
$BDGSA,A,3,,,,,,,,,,,,,1.6,0.9,1.3*2F
$GAGSA,A,3,,,,,,,,,,,,,1.6,0.9,1.3*2F
$GPRMC,075909.00,A,2632.265028,N,10647.871262,E,000.0,,241020,,,A*75
$GPGGA,075910.00,2632.265199,N,10647.870994,E,1,17,0.4,1142.2,M,-26.1,M,,*72
$GPGSV,3,1,11,10,77,005,21,23,63,118,31,20,60,134,32,32,44,316,25*73
$GPGSV,3,2,11,25,38,126,34,31,33,227,33,12,30,081,21,24,17,043,15*7A
$GPGSV,3,3,11,21,17,305,22,18,16,179,35,15,00,087,*46
$GLGSV,2,1,06,69,44,057,26,79,42,041,22,85,16,274,27,68,11,102,31*65
$GLGSV,2,2,06,80,67,158,25,70,32,336,*61
$QZGSV,1,1,03,01,54,089,26,02,53,099,30,03,06,150,27*50
$BDGSV,3,1,12,237,73,081,,216,57,005,,220,57,348,,206,56,015,*6E
$BDGSV,3,2,12,232,48,091,,223,24,042,,203,58,172,,209,57,322,*6C
$BDGSV,3,3,12,202,50,224,,213,46,206,,207,33,152,,205,30,249,*64
$GAGSV,1,1,04,131,53,128,,109,49,334,,104,44,058,,101,32,056,*69
$GPGSA,A,3,10,12,18,20,21,23,24,25,31,32,,,2.3,1.1,2.0*38
$GNGSA,A,3,10,12,18,20,21,23,24,25,31,32,,,2.3,1.1,2.0*26
$GNGSA,A,3,68,69,79,85,,,,,,,,,2.3,1.1,2.0*2D
$QZGSA,A,3,01,02,03,,,,,,,,,,2.3,1.1,2.0*2D
$IMGSA,A,3,,,,,,,,,,,,,2.3,1.1,2.0*22
$BDGSA,A,3,,,,,,,,,,,,,2.3,1.1,2.0*20
$GAGSA,A,3,,,,,,,,,,,,,2.3,1.1,2.0*20
$GPRMC,075910.00,A,2632.265199,N,10647.870994,E,000.0,,241020,,,A*75
$GPGGA,075911.00,2632.265087,N,10647.870649,E,1,16,0.4,1142.8,M,-26.1,M,,*79
$GPGSV,3,1,11,10,77,005,20,23,63,118,31,20,60,134,32,32,44,316,25*72
$GPGSV,3,2,11,25,38,126,34,31,33,227,32,12,30,081,23,24,17,043,14*78
$GPGSV,3,3,11,21,17,305,21,18,16,179,35,15,00,087,*45
$GLGSV,2,1,06,69,44,057,26,79,42,041,21,85,16,274,28,68,11,102,31*69
$GLGSV,2,2,06,80,67,158,25,70,32,336,*61
$QZGSV,1,1,03,01,54,089,26,02,53,099,30,03,06,150,28*5F
$BDGSV,3,1,12,237,73,081,,216,57,005,,220,57,348,,206,56,015,*6E
$BDGSV,3,2,12,232,48,091,,223,24,042,,203,58,172,,209,57,322,*6C
$BDGSV,3,3,12,202,50,224,,213,46,206,,207,33,152,,205,30,249,*64
$GAGSV,1,1,04,131,53,128,,109,49,334,,104,44,058,,101,32,056,*69
$GPGSA,A,3,10,12,18,20,21,23,24,25,31,32,,,1.9,1.0,1.6*35
$GNGSA,A,3,10,12,18,20,21,23,24,25,31,32,,,1.9,1.0,1.6*2B
$GNGSA,A,3,68,69,85,,,,,,,,,,1.9,1.0,1.6*2E
$QZGSA,A,3,01,02,03,,,,,,,,,,1.9,1.0,1.6*20
$IMGSA,A,3,,,,,,,,,,,,,1.9,1.0,1.6*2F
$BDGSA,A,3,,,,,,,,,,,,,1.9,1.0,1.6*2D
$GAGSA,A,3,,,,,,,,,,,,,1.9,1.0,1.6*2D
$GPRMC,075911.00,A,2632.265087,N,10647.870649,E,000.0,,241020,,,A*75
$GPGGA,075912.00,2632.264915,N,10647.870300,E,1,17,0.4,1143.1,M,-26.1,M,,*78
$GPGSV,3,1,11,10,77,005,20,23,63,118,31,20,60,134,34,32,44,316,26*77
$GPGSV,3,2,11,25,38,126,36,31,33,227,32,12,30,081,25,24,17,043,20*7B
$GPGSV,3,3,11,21,17,305,21,18,16,179,35,15,00,087,*45
$GLGSV,2,1,06,69,44,057,25,79,42,040,20,85,16,274,28,68,11,102,31*6A
$GLGSV,2,2,06,80,67,158,24,70,32,336,*60
$QZGSV,1,1,03,01,54,089,26,02,53,099,31,03,06,150,28*5E
$BDGSV,3,1,12,237,73,081,,216,57,005,,220,57,348,,206,56,015,*6E
$BDGSV,3,2,12,232,48,091,,223,24,042,,203,58,172,,209,57,322,*6C
$BDGSV,3,3,12,202,50,224,,213,46,206,,207,33,152,,205,30,249,*64
$GAGSV,1,1,04,131,53,128,,109,49,334,,104,44,058,,101,32,056,*69
$GPGSA,A,3,10,12,18,20,21,23,24,25,31,32,,,2.5,1.1,2.2*3C
$GNGSA,A,3,10,12,18,20,21,23,24,25,31,32,,,2.5,1.1,2.2*22
$GNGSA,A,3,68,69,79,85,,,,,,,,,2.5,1.1,2.2*29
$QZGSA,A,3,01,02,03,,,,,,,,,,2.5,1.1,2.2*29
$IMGSA,A,3,,,,,,,,,,,,,2.5,1.1,2.2*26
$BDGSA,A,3,,,,,,,,,,,,,2.5,1.1,2.2*24
$GAGSA,A,3,,,,,,,,,,,,,2.5,1.1,2.2*24
$GPRMC,075912.00,A,2632.264915,N,10647.870300,E,000.0,,241020,,,A*7D
$GPGGA,075913.00,2632.264592,N,10647.870254,E,1,17,0.6,1143.0,M,-26.1,M,,*79
$GPGSV,3,1,11,10,77,005,20,23,62,118,31,20,60,134,34,32,44,316,26*76
$GPGSV,3,2,11,25,38,126,36,31,33,227,32,12,30,081,24,24,17,043,20*7A
$GPGSV,3,3,11,21,17,305,21,18,16,179,34,15,00,087,*44
$GLGSV,2,1,06,69,44,057,25,79,42,040,21,85,16,274,27,68,11,102,30*65
$GLGSV,2,2,06,80,67,158,24,70,32,336,*60
$QZGSV,1,1,03,01,54,089,26,02,53,099,31,03,06,150,27*51
$BDGSV,3,1,12,237,73,081,,216,57,005,,220,57,348,,206,56,015,*6E
$BDGSV,3,2,12,232,48,091,,223,24,042,,203,58,172,,209,57,322,*6C
$BDGSV,3,3,12,202,50,224,,213,46,206,,207,33,152,,205,30,249,*64
$GAGSV,1,1,04,131,53,128,,109,49,334,,104,44,058,,101,32,056,*69
$GPGSA,A,3,10,12,18,20,21,23,24,25,31,32,,,2.6,1.1,2.3*3E
$GNGSA,A,3,10,12,18,20,21,23,24,25,31,32,,,2.6,1.1,2.3*20
$GNGSA,A,3,68,69,79,85,,,,,,,,,2.6,1.1,2.3*2B
$QZGSA,A,3,01,02,03,,,,,,,,,,2.6,1.1,2.3*2B
$IMGSA,A,3,,,,,,,,,,,,,2.6,1.1,2.3*24
$BDGSA,A,3,,,,,,,,,,,,,2.6,1.1,2.3*26
$GAGSA,A,3,,,,,,,,,,,,,2.6,1.1,2.3*26
$GPRMC,075913.00,A,2632.264592,N,10647.870254,E,000.0,,241020,,,A*7F
$GPGGA,075914.00,2632.264180,N,10647.870175,E,1,17,0.6,1143.1,M,-26.1,M,,*78
$GPGSV,3,1,11,10,77,005,22,23,62,118,34,20,60,134,35,32,44,316,25*73
$GPGSV,3,2,11,25,38,126,37,31,33,227,32,12,30,081,24,24,17,043,20*7B
$GPGSV,3,3,11,21,17,305,20,18,16,179,33,15,00,087,*42
$GLGSV,2,1,06,69,44,057,26,79,42,040,23,85,16,274,29,68,11,102,30*6A
$GLGSV,2,2,06,80,67,158,25,70,32,336,*61
$QZGSV,1,1,03,01,54,089,27,02,53,099,31,03,06,150,26*51
$BDGSV,3,1,12,237,73,081,,216,57,005,,220,57,348,,206,56,015,*6E
$BDGSV,3,2,12,232,48,091,,223,24,042,,203,58,172,,209,57,322,*6C
$BDGSV,3,3,12,202,50,224,,213,46,206,,207,33,152,,205,30,249,*64
$GAGSV,1,1,04,131,53,128,,109,49,334,,104,44,058,,101,32,056,*69
$GPGSA,A,3,10,12,18,20,21,23,24,25,31,32,,,2.5,1.1,2.2*3C
$GNGSA,A,3,10,12,18,20,21,23,24,25,31,32,,,2.5,1.1,2.2*22
$GNGSA,A,3,68,69,79,85,,,,,,,,,2.5,1.1,2.2*29
$QZGSA,A,3,01,02,03,,,,,,,,,,2.5,1.1,2.2*29
$IMGSA,A,3,,,,,,,,,,,,,2.5,1.1,2.2*26
$BDGSA,A,3,,,,,,,,,,,,,2.5,1.1,2.2*24
$GAGSA,A,3,,,,,,,,,,,,,2.5,1.1,2.2*24
$GPRMC,075914.00,A,2632.264180,N,10647.870175,E,000.0,,241020,,,A*7F
$GPGGA,075915.00,2632.263659,N,10647.870056,E,1,17,0.6,1143.2,M,-26.1,M,,*7E
$GPGSV,3,1,11,10,77,005,25,23,62,118,34,20,60,134,35,32,44,316,25*74
$GPGSV,3,2,11,25,38,126,37,31,33,227,32,12,30,081,24,24,17,043,20*7B
$GPGSV,3,3,11,21,17,305,20,18,16,179,33,15,00,087,*42
$GLGSV,2,1,06,69,44,057,26,79,42,040,26,85,16,274,30,68,11,102,29*6F
$GLGSV,2,2,06,80,67,158,27,70,32,336,*63
$QZGSV,1,1,03,01,54,089,28,02,53,099,31,03,06,150,25*5D
$BDGSV,3,1,12,237,73,081,,216,57,005,,220,57,348,,206,56,015,*6E
$BDGSV,3,2,12,232,48,091,,223,24,042,,203,58,172,,209,57,322,*6C
$BDGSV,3,3,12,202,50,224,,213,46,206,,207,33,152,,205,30,249,*64
$GAGSV,1,1,04,131,53,128,,109,49,334,,104,44,058,,101,32,056,*69
$GPGSA,A,3,10,12,18,20,21,23,24,25,31,32,,,1.7,1.0,1.4*39
$GNGSA,A,3,10,12,18,20,21,23,24,25,31,32,,,1.7,1.0,1.4*27
$GNGSA,A,3,68,69,79,85,,,,,,,,,1.7,1.0,1.4*2C
$QZGSA,A,3,01,02,03,,,,,,,,,,1.7,1.0,1.4*2C
$IMGSA,A,3,,,,,,,,,,,,,1.7,1.0,1.4*23
$BDGSA,A,3,,,,,,,,,,,,,1.7,1.0,1.4*21
$GAGSA,A,3,,,,,,,,,,,,,1.7,1.0,1.4*21
$GPRMC,075915.00,A,2632.263659,N,10647.870056,E,000.0,,241020,,,A*7A
$GPGGA,075916.00,2632.263659,N,10647.870056,E,1,17,0.4,1143.4,M,-26.1,M,,*79
$GPGSV,3,1,11,10,77,005,25,23,62,118,34,20,60,134,35,32,44,317,24*74
$GPGSV,3,2,11,25,38,126,37,31,33,227,32,12,30,081,24,24,17,043,20*7B
$GPGSV,3,3,11,21,17,305,19,18,16,179,33,15,00,087,*48
$GLGSV,2,1,06,69,44,057,26,79,42,040,28,85,16,274,29,68,11,102,28*68
$GLGSV,2,2,06,80,67,158,28,70,32,336,*6C
$QZGSV,1,1,03,01,54,089,28,02,53,099,31,03,06,150,25*5D
$BDGSV,3,1,12,237,73,081,,216,57,005,,220,57,348,,206,56,015,*6E
$BDGSV,3,2,12,232,48,091,,223,24,042,,203,58,172,,209,57,322,*6C
$BDGSV,3,3,12,202,50,224,,213,46,206,,207,33,152,,205,30,249,*64
$GAGSV,1,1,04,131,53,128,,109,49,334,,104,44,058,,101,32,056,*69
$GPGSA,A,3,10,12,18,20,21,23,24,25,31,32,,,1.6,0.9,1.3*37
$GNGSA,A,3,10,12,18,20,21,23,24,25,31,32,,,1.6,0.9,1.3*29
$GNGSA,A,3,68,69,79,85,,,,,,,,,1.6,0.9,1.3*22
$QZGSA,A,3,01,02,03,,,,,,,,,,1.6,0.9,1.3*22
$IMGSA,A,3,,,,,,,,,,,,,1.6,0.9,1.3*2D
$BDGSA,A,3,,,,,,,,,,,,,1.6,0.9,1.3*2F
$GAGSA,A,3,,,,,,,,,,,,,1.6,0.9,1.3*2F
$GPRMC,075916.00,A,2632.263659,N,10647.870056,E,000.0,,241020,,,A*79
$GPGGA,075917.00,2632.263659,N,10647.870056,E,1,21,0.4,1143.5,M,-26.1,M,,*7C
$GPGSV,3,1,11,10,77,005,25,23,62,118,34,20,60,134,34,32,44,317,23*72
$GPGSV,3,2,11,25,38,126,36,31,33,227,32,12,30,081,23,21,17,305,19*73
$GPGSV,3,3,11,24,17,043,20,18,16,179,33,15,00,087,*46
$GLGSV,2,1,06,69,44,057,27,79,42,040,28,85,16,274,29,68,11,102,27*66
$GLGSV,2,2,06,80,67,158,28,70,32,336,*6C
$QZGSV,1,1,03,01,54,089,28,02,53,099,31,03,06,150,25*5D
$BDGSV,3,1,12,237,73,081,20,216,57,005,09,220,57,348,15,206,56,015,08*69
$BDGSV,3,2,12,232,48,091,20,223,24,042,12,203,58,172,,209,57,322,*6D
$BDGSV,3,3,12,202,50,224,,213,46,206,,207,33,152,,205,30,249,*64
$GAGSV,1,1,04,131,53,128,,109,49,334,,104,44,058,,101,32,056,*69
$GPGSA,A,3,10,12,18,20,21,23,24,25,31,32,,,1.6,0.9,1.3*37
$GNGSA,A,3,10,12,18,20,21,23,24,25,31,32,,,1.6,0.9,1.3*29
$GNGSA,A,3,68,69,79,85,,,,,,,,,1.6,0.9,1.3*22
$QZGSA,A,3,01,02,03,,,,,,,,,,1.6,0.9,1.3*22
$IMGSA,A,3,,,,,,,,,,,,,1.6,0.9,1.3*2D
$BDGSA,A,3,220,223,232,237,,,,,,,,,1.6,0.9,1.3*29
$GAGSA,A,3,,,,,,,,,,,,,1.6,0.9,1.3*2F
$GPRMC,075917.00,A,2632.263659,N,10647.870056,E,000.0,,241020,,,A*78
$GPGGA,075918.00,2632.263659,N,10647.870056,E,1,20,0.4,1143.5,M,-26.1,M,,*72
$GPGSV,3,1,11,10,77,005,24,23,62,118,34,20,60,134,34,32,44,317,22*72
$GPGSV,3,2,11,25,38,126,36,31,33,227,32,12,30,081,23,21,17,305,18*72
$GPGSV,3,3,11,24,17,043,20,18,16,179,33,15,00,087,*46
$GLGSV,2,1,06,69,44,057,27,79,42,040,28,85,16,274,29,68,11,102,26*67
$GLGSV,2,2,06,80,67,158,28,70,32,336,*6C
$QZGSV,1,1,03,01,54,089,28,02,53,099,32,03,06,150,24*5F
$BDGSV,3,1,12,237,73,081,21,216,57,005,,220,57,348,16,206,56,015,*6A
$BDGSV,3,2,12,232,48,091,21,223,24,042,,203,58,172,,209,57,322,*6F
$BDGSV,3,3,12,202,50,224,,213,46,206,,207,33,152,,205,30,249,*64
$GAGSV,1,1,04,131,53,128,,109,49,334,,104,44,058,,101,32,056,*69
$GPGSA,A,3,10,12,18,20,21,23,24,25,31,32,,,1.5,0.9,1.2*35
$GNGSA,A,3,10,12,18,20,21,23,24,25,31,32,,,1.5,0.9,1.2*2B
$GNGSA,A,3,68,69,79,85,,,,,,,,,1.5,0.9,1.2*20
$QZGSA,A,3,01,02,03,,,,,,,,,,1.5,0.9,1.2*20
$IMGSA,A,3,,,,,,,,,,,,,1.5,0.9,1.2*2F
$BDGSA,A,3,220,232,237,,,,,,,,,,1.5,0.9,1.2*18
$GAGSA,A,3,,,,,,,,,,,,,1.5,0.9,1.2*2D
$GPRMC,075918.00,A,2632.263659,N,10647.870056,E,000.0,,241020,,,A*77
$GPGGA,075919.00,2632.263659,N,10647.870056,E,1,22,0.4,1143.4,M,-26.1,M,,*70
$GPGSV,3,1,11,10,77,005,24,23,62,118,34,20,60,134,34,32,44,317,21*71
$GPGSV,3,2,11,25,38,126,36,31,33,227,32,12,30,081,23,21,17,305,18*72
$GPGSV,3,3,11,24,17,043,20,18,16,179,33,15,00,087,*46
$GLGSV,2,1,06,69,44,057,27,79,42,040,28,85,16,274,29,68,11,102,26*67
$GLGSV,2,2,06,80,67,158,29,70,32,336,*6D
$QZGSV,1,1,03,01,54,089,29,02,53,099,32,03,06,150,24*5E
$BDGSV,3,1,12,237,73,081,24,216,57,005,13,220,57,348,16,206,56,015,*6D
$BDGSV,3,2,12,232,48,091,25,223,24,042,16,203,58,172,,209,57,323,*6D
$BDGSV,3,3,12,202,50,224,,213,46,206,,207,33,152,,205,30,249,*64
$GAGSV,1,1,04,131,53,128,,109,49,334,,104,44,058,,101,32,056,*69
$GPGSA,A,3,10,12,18,20,21,23,24,25,31,32,,,1.5,0.9,1.2*35
$GNGSA,A,3,10,12,18,20,21,23,24,25,31,32,,,1.5,0.9,1.2*2B
$GNGSA,A,3,68,69,79,85,,,,,,,,,1.5,0.9,1.2*20
$QZGSA,A,3,01,02,03,,,,,,,,,,1.5,0.9,1.2*20
$IMGSA,A,3,,,,,,,,,,,,,1.5,0.9,1.2*2F
$BDGSA,A,3,216,220,223,232,237,,,,,,,,1.5,0.9,1.2*1E
$GAGSA,A,3,,,,,,,,,,,,,1.5,0.9,1.2*2D
$GPRMC,075919.00,A,2632.263659,N,10647.870056,E,000.0,,241020,,,A*76
$GPGGA,075920.00,2632.263659,N,10647.870056,E,1,21,0.4,1143.3,M,-26.1,M,,*7E
$GPGSV,3,1,11,10,77,005,24,23,62,118,34,20,60,134,35,32,44,317,20*71
$GPGSV,3,2,11,25,38,126,36,31,33,227,32,12,30,081,22,21,17,305,18*73
$GPGSV,3,3,11,24,17,043,20,18,16,179,33,15,00,087,*46
$GLGSV,2,1,06,69,44,057,28,79,42,040,28,85,16,274,29,68,11,102,25*6B
$GLGSV,2,2,06,80,67,158,29,70,32,336,*6D
$QZGSV,1,1,03,01,54,089,29,02,53,099,34,03,06,150,23*5F
$BDGSV,3,1,12,237,73,081,25,216,57,005,14,220,57,348,16,206,56,015,*6B
$BDGSV,3,2,12,232,48,091,29,223,24,042,,203,58,172,,209,57,323,*66
$BDGSV,3,3,12,202,50,224,,213,46,206,,207,33,152,,205,30,249,*64
$GAGSV,1,1,04,131,53,128,,109,49,334,,104,44,058,,101,32,056,*69
$GPGSA,A,3,10,12,18,20,21,23,24,25,31,32,,,1.5,0.9,1.2*35
$GNGSA,A,3,10,12,18,20,21,23,24,25,31,32,,,1.5,0.9,1.2*2B
$GNGSA,A,3,68,69,79,85,,,,,,,,,1.5,0.9,1.2*20
$QZGSA,A,3,01,02,03,,,,,,,,,,1.5,0.9,1.2*20
$IMGSA,A,3,,,,,,,,,,,,,1.5,0.9,1.2*2F
$BDGSA,A,3,216,220,232,237,,,,,,,,,1.5,0.9,1.2*2D
$GAGSA,A,3,,,,,,,,,,,,,1.5,0.9,1.2*2D
$GPRMC,075920.00,A,2632.263659,N,10647.870056,E,000.0,,241020,,,A*7C
$GPGGA,075921.00,2632.263659,N,10647.870056,E,1,21,0.4,1143.2,M,-26.1,M,,*7E
$GPGSV,3,1,11,10,77,005,26,23,62,118,34,20,60,134,35,32,44,317,20*73
$GPGSV,3,2,11,25,38,126,36,31,33,227,33,12,30,081,22,21,17,305,18*72
$GPGSV,3,3,11,24,17,043,21,18,16,179,33,15,00,087,*47
$GLGSV,2,1,06,69,44,057,28,79,42,040,28,85,16,274,30,68,11,102,25*63
$GLGSV,2,2,06,80,67,158,29,70,32,336,*6D
$QZGSV,1,1,03,01,54,089,29,02,53,099,33,03,06,150,23*58
$BDGSV,3,1,12,237,73,081,25,216,57,005,14,220,57,348,18,206,56,015,*65
$BDGSV,3,2,12,232,48,091,29,223,24,042,15,203,58,172,,209,57,323,*62
$BDGSV,3,3,12,202,50,224,,213,46,206,,207,33,152,,205,30,249,*64
$GAGSV,1,1,04,131,53,128,,109,49,334,,104,44,058,,101,32,056,*69
$GPGSA,A,3,10,12,18,20,21,23,24,25,31,32,,,1.5,0.9,1.2*35
$GNGSA,A,3,10,12,18,20,21,23,24,25,31,32,,,1.5,0.9,1.2*2B
$GNGSA,A,3,68,69,79,85,,,,,,,,,1.5,0.9,1.2*20
$QZGSA,A,3,01,02,03,,,,,,,,,,1.5,0.9,1.2*20
$IMGSA,A,3,,,,,,,,,,,,,1.5,0.9,1.2*2F
$BDGSA,A,3,216,220,232,237,,,,,,,,,1.5,0.9,1.2*2D
$GAGSA,A,3,,,,,,,,,,,,,1.5,0.9,1.2*2D
$GPRMC,075921.00,A,2632.263659,N,10647.870056,E,000.0,,241020,,,A*7D
$GPGGA,075922.00,2632.263659,N,10647.870056,E,1,20,0.4,1143.4,M,-26.1,M,,*7A
$GPGSV,3,1,11,10,77,005,26,23,62,118,34,20,60,134,35,32,44,317,21*72
$GPGSV,3,2,11,25,38,126,36,31,33,227,33,12,30,081,22,21,17,305,20*79
$GPGSV,3,3,11,24,17,043,21,18,16,179,33,15,00,087,*47
$GLGSV,2,1,06,69,44,057,27,79,42,040,28,85,16,274,30,68,11,102,26*6F
$GLGSV,2,2,06,80,67,158,29,70,32,336,*6D
$QZGSV,1,1,03,01,54,089,28,02,53,099,33,03,06,150,23*59
$BDGSV,3,1,12,237,73,081,26,216,57,005,13,220,57,348,18,206,56,015,*61
$BDGSV,3,2,12,232,48,091,29,223,24,042,,203,58,172,,209,57,323,*66
$BDGSV,3,3,12,202,50,224,,213,46,206,,207,33,152,,205,30,249,*64
$GAGSV,1,1,04,131,53,128,,109,49,334,,104,44,058,,101,32,056,*69
$GPGSA,A,3,10,12,18,20,21,23,24,25,31,32,,,1.6,0.8,1.3*36
$GNGSA,A,3,10,12,18,20,21,23,24,25,31,32,,,1.6,0.8,1.3*28
$GNGSA,A,3,68,69,79,85,,,,,,,,,1.6,0.8,1.3*23
$QZGSA,A,3,01,02,03,,,,,,,,,,1.6,0.8,1.3*23
$IMGSA,A,3,,,,,,,,,,,,,1.6,0.8,1.3*2C
$BDGSA,A,3,220,232,237,,,,,,,,,,1.6,0.8,1.3*1B
$GAGSA,A,3,,,,,,,,,,,,,1.6,0.8,1.3*2E
$GPRMC,075922.00,A,2632.263659,N,10647.870056,E,000.0,,241020,,,A*7E
$GPGGA,075923.00,2632.263659,N,10647.870056,E,1,20,0.4,1143.6,M,-26.1,M,,*79
$GPGSV,3,1,11,10,77,005,25,23,62,118,34,20,60,134,35,32,44,317,22*72
$GPGSV,3,2,11,25,38,126,35,31,33,227,33,12,30,081,22,21,17,305,23*79
$GPGSV,3,3,11,24,17,043,20,18,16,179,32,15,00,087,*47
$GLGSV,2,1,06,69,44,057,27,79,42,040,27,85,16,274,29,68,11,102,27*69
$GLGSV,2,2,06,80,67,158,29,70,32,336,*6D
$QZGSV,1,1,03,01,54,089,28,02,53,099,32,03,06,150,27*5C
$BDGSV,3,1,12,237,73,081,27,216,57,005,,220,57,348,18,206,56,015,08*6A
$BDGSV,3,2,12,232,48,091,28,223,24,042,13,203,58,172,,209,57,323,*65
$BDGSV,3,3,12,202,50,224,,213,46,206,,207,33,152,,205,30,249,*64
$GAGSV,1,1,04,131,53,128,,109,49,334,,104,44,058,,101,32,056,*69
$GPGSA,A,3,10,12,18,20,21,23,24,25,31,32,,,1.5,0.9,1.2*35
$GNGSA,A,3,10,12,18,20,21,23,24,25,31,32,,,1.5,0.9,1.2*2B
$GNGSA,A,3,68,69,79,85,,,,,,,,,1.5,0.9,1.2*20
$QZGSA,A,3,01,02,03,,,,,,,,,,1.5,0.9,1.2*20
$IMGSA,A,3,,,,,,,,,,,,,1.5,0.9,1.2*2F
$BDGSA,A,3,220,232,237,,,,,,,,,,1.5,0.9,1.2*18
$GAGSA,A,3,,,,,,,,,,,,,1.5,0.9,1.2*2D
$GPRMC,075923.00,A,2632.263659,N,10647.870056,E,000.0,,241020,,,A*7F
$GPGGA,075924.00,2632.263659,N,10647.870056,E,1,20,0.4,1143.6,M,-26.1,M,,*7E
$GPGSV,3,1,11,10,77,005,24,23,62,118,33,20,60,134,34,32,44,317,23*74
$GPGSV,3,2,11,25,38,126,35,31,33,227,35,12,30,081,22,21,17,305,23*7F
$GPGSV,3,3,11,24,17,043,20,18,16,179,32,15,00,087,*47
$GLGSV,2,1,06,69,44,057,26,79,42,040,27,85,16,274,28,68,11,102,29*67
$GLGSV,2,2,06,80,67,158,29,70,32,336,*6D
$QZGSV,1,1,03,01,54,089,27,02,53,099,31,03,06,150,27*50
$BDGSV,3,1,12,237,73,081,27,216,57,005,13,220,57,348,18,206,56,015,*60
$BDGSV,3,2,12,232,48,091,27,223,24,042,,203,58,172,,209,57,323,*68
$BDGSV,3,3,12,202,50,224,,213,46,206,,207,33,152,,205,30,249,*64
$GAGSV,1,1,04,131,53,128,,109,49,334,,104,44,058,,101,32,056,*69
$GPGSA,A,3,10,12,18,20,21,23,24,25,31,32,,,1.5,0.9,1.2*35
$GNGSA,A,3,10,12,18,20,21,23,24,25,31,32,,,1.5,0.9,1.2*2B
$GNGSA,A,3,68,69,79,85,,,,,,,,,1.5,0.9,1.2*20
$QZGSA,A,3,01,02,03,,,,,,,,,,1.5,0.9,1.2*20
$IMGSA,A,3,,,,,,,,,,,,,1.5,0.9,1.2*2F
$BDGSA,A,3,220,232,237,,,,,,,,,,1.5,0.9,1.2*18
$GAGSA,A,3,,,,,,,,,,,,,1.5,0.9,1.2*2D
$GPRMC,075924.00,A,2632.263659,N,10647.870056,E,000.0,,241020,,,A*78
$GPGGA,075925.00,2632.263659,N,10647.870056,E,1,20,0.4,1143.6,M,-26.1,M,,*7F
$GPGSV,3,1,11,10,77,005,24,23,62,118,33,20,60,134,34,32,44,317,23*74
$GPGSV,3,2,11,25,38,126,35,31,33,227,37,12,30,081,22,21,17,305,23*7D
$GPGSV,3,3,11,24,17,043,19,18,16,179,31,15,00,087,*4E
$GLGSV,2,1,06,69,44,057,26,79,42,040,27,85,16,274,28,68,11,102,29*67
$GLGSV,2,2,06,80,67,158,29,70,32,336,*6D
$QZGSV,1,1,03,01,54,089,26,02,53,099,30,03,06,150,27*50
$BDGSV,3,1,12,237,73,081,29,216,57,005,,220,57,348,18,206,56,015,*6C
$BDGSV,3,2,12,232,48,091,26,223,24,042,,203,58,172,,209,57,323,*69
$BDGSV,3,3,12,202,50,224,,213,46,206,,207,33,152,,205,30,249,*64
$GAGSV,1,1,04,131,53,128,,109,49,334,,104,44,058,,101,32,056,*69
$GPGSA,A,3,10,12,18,20,21,23,24,25,31,32,,,1.5,0.9,1.2*35
$GNGSA,A,3,10,12,18,20,21,23,24,25,31,32,,,1.5,0.9,1.2*2B
$GNGSA,A,3,68,69,79,85,,,,,,,,,1.5,0.9,1.2*20
$QZGSA,A,3,01,02,03,,,,,,,,,,1.5,0.9,1.2*20
$IMGSA,A,3,,,,,,,,,,,,,1.5,0.9,1.2*2F
$BDGSA,A,3,220,232,237,,,,,,,,,,1.5,0.9,1.2*18
$GAGSA,A,3,,,,,,,,,,,,,1.5,0.9,1.2*2D
$GPRMC,075925.00,A,2632.263659,N,10647.870056,E,000.0,,241020,,,A*79
$GPGGA,075926.00,2632.263659,N,10647.870056,E,1,19,0.4,1143.6,M,-26.1,M,,*76
$GPGSV,3,1,11,10,77,005,26,23,62,118,33,20,60,134,33,32,44,317,23*71
$GPGSV,3,2,11,25,39,126,35,31,33,227,37,12,30,081,21,21,18,305,23*70
$GPGSV,3,3,11,24,17,043,18,18,16,179,31,15,00,087,*4F
$GLGSV,2,1,06,69,44,057,25,79,42,040,27,85,16,274,28,68,11,102,29*64
$GLGSV,2,2,06,80,67,158,30,70,32,336,*65
$QZGSV,1,1,03,01,54,089,26,02,53,099,28,03,06,150,27*59
$BDGSV,3,1,12,237,73,081,30,216,57,005,,220,57,348,18,206,56,015,12*67
$BDGSV,3,2,12,232,48,091,25,223,24,042,12,203,58,172,,209,57,323,*69
$BDGSV,3,3,12,202,50,224,,213,46,206,,207,33,152,,205,30,249,*64
$GAGSV,1,1,04,131,53,128,,109,49,334,,104,44,058,,101,32,056,*69
$GPGSA,A,3,10,12,18,20,21,23,25,31,32,,,,1.5,0.9,1.2*33
$GNGSA,A,3,10,12,18,20,21,23,25,31,32,,,,1.5,0.9,1.2*2D
$GNGSA,A,3,68,69,79,85,,,,,,,,,1.5,0.9,1.2*20
$QZGSA,A,3,01,02,03,,,,,,,,,,1.5,0.9,1.2*20
$IMGSA,A,3,,,,,,,,,,,,,1.5,0.9,1.2*2F
$BDGSA,A,3,220,232,237,,,,,,,,,,1.5,0.9,1.2*18
$GAGSA,A,3,,,,,,,,,,,,,1.5,0.9,1.2*2D
$GPRMC,075926.00,A,2632.263659,N,10647.870056,E,000.0,,241020,,,A*7A
$GPGGA,075927.00,2632.263659,N,10647.870056,E,1,19,0.4,1143.6,M,-26.1,M,,*77
$GPGSV,3,1,11,10,77,005,27,23,62,118,33,20,60,134,33,32,44,317,23*70
$GPGSV,3,2,11,25,39,126,35,31,33,227,37,12,30,081,21,21,18,305,22*71
$GPGSV,3,3,11,24,17,043,17,18,16,179,30,15,00,087,*41
$GLGSV,2,1,06,69,44,057,25,79,42,040,27,85,16,274,28,68,11,102,29*64
$GLGSV,2,2,06,80,67,158,31,70,32,336,*64
$QZGSV,1,1,03,01,54,089,26,02,53,099,27,03,06,150,27*56
$BDGSV,3,1,12,237,73,081,30,216,57,005,,220,57,348,18,206,56,015,*64
$BDGSV,3,2,12,232,48,091,25,223,24,042,,203,58,172,,209,57,323,*6A
$BDGSV,3,3,12,202,50,224,,213,46,206,,207,33,152,,205,30,249,*64
$GAGSV,1,1,04,131,53,128,,109,49,334,,104,44,058,,101,32,056,*69
$GPGSA,A,3,10,12,18,20,21,23,25,31,32,,,,1.6,1.0,1.2*38
$GNGSA,A,3,10,12,18,20,21,23,25,31,32,,,,1.6,1.0,1.2*26
$GNGSA,A,3,68,69,79,85,,,,,,,,,1.6,1.0,1.2*2B
$QZGSA,A,3,01,02,03,,,,,,,,,,1.6,1.0,1.2*2B
$IMGSA,A,3,,,,,,,,,,,,,1.6,1.0,1.2*24
$BDGSA,A,3,220,232,237,,,,,,,,,,1.6,1.0,1.2*13
$GAGSA,A,3,,,,,,,,,,,,,1.6,1.0,1.2*26
$GPRMC,075927.00,A,2632.263659,N,10647.870056,E,000.0,,241020,,,A*7B
$GPGGA,075928.00,2632.263659,N,10647.870056,E,1,20,0.4,1143.6,M,-26.1,M,,*72
$GPGSV,3,1,11,10,77,005,27,23,62,118,33,20,60,134,33,32,44,317,23*70
$GPGSV,3,2,11,25,39,126,35,31,33,227,37,12,30,081,21,21,18,305,22*71
$GPGSV,3,3,11,24,17,043,17,18,16,179,30,15,00,087,*41
$GLGSV,2,1,06,69,44,057,25,79,42,040,27,85,16,274,28,68,11,102,29*64
$GLGSV,2,2,06,80,67,158,31,70,32,336,*64
$QZGSV,1,1,03,01,54,089,25,02,53,099,25,03,06,150,26*56
$BDGSV,3,1,12,237,73,081,30,216,57,005,,220,57,348,19,206,56,015,11*65
$BDGSV,3,2,12,232,48,091,24,223,24,042,12,203,58,172,,209,57,323,*68
$BDGSV,3,3,12,202,50,224,,213,46,206,,207,33,152,,205,30,249,*64
$GAGSV,1,1,04,131,53,128,,109,49,334,,104,44,058,,101,32,056,*69
$GPGSA,A,3,10,12,18,20,21,23,25,31,32,,,,1.6,1.0,1.2*38
$GNGSA,A,3,10,12,18,20,21,23,25,31,32,,,,1.6,1.0,1.2*26
$GNGSA,A,3,68,69,79,85,,,,,,,,,1.6,1.0,1.2*2B
$QZGSA,A,3,01,02,03,,,,,,,,,,1.6,1.0,1.2*2B
$IMGSA,A,3,,,,,,,,,,,,,1.6,1.0,1.2*24
$BDGSA,A,3,220,223,232,237,,,,,,,,,1.6,1.0,1.2*20
$GAGSA,A,3,,,,,,,,,,,,,1.6,1.0,1.2*26
$GPRMC,075928.00,A,2632.263659,N,10647.870056,E,000.0,,241020,,,A*74
$GPGGA,075929.00,2632.263659,N,10647.870056,E,1,19,0.4,1143.6,M,-26.1,M,,*79
$GPGSV,3,1,11,10,77,005,26,23,62,118,33,20,60,134,33,32,44,317,23*71
$GPGSV,3,2,11,25,39,126,35,31,33,227,37,12,30,081,20,21,18,305,22*70
$GPGSV,3,3,11,24,17,043,16,18,16,179,30,15,00,087,*40
$GLGSV,2,1,06,69,44,057,25,79,42,040,26,85,16,274,28,68,11,102,29*65
$GLGSV,2,2,06,80,67,158,31,70,32,336,*64
$QZGSV,1,1,03,01,54,089,25,02,53,099,25,03,06,150,26*56
$BDGSV,3,1,12,237,73,081,30,216,57,005,,220,57,348,20,206,56,015,*6F
$BDGSV,3,2,12,232,48,091,24,223,24,042,12,203,58,172,,209,57,323,*68
$BDGSV,3,3,12,202,50,224,,213,46,206,,207,33,152,,205,30,249,*64
$GAGSV,1,1,04,131,53,128,,109,49,334,,104,44,058,,101,32,056,*69
$GPGSA,A,3,10,12,18,20,21,23,25,31,32,,,,1.5,0.9,1.2*33
$GNGSA,A,3,10,12,18,20,21,23,25,31,32,,,,1.5,0.9,1.2*2D
$GNGSA,A,3,68,69,79,85,,,,,,,,,1.5,0.9,1.2*20
$QZGSA,A,3,01,02,03,,,,,,,,,,1.5,0.9,1.2*20
$IMGSA,A,3,,,,,,,,,,,,,1.5,0.9,1.2*2F
$BDGSA,A,3,220,232,237,,,,,,,,,,1.5,0.9,1.2*18
$GAGSA,A,3,,,,,,,,,,,,,1.5,0.9,1.2*2D
$GPRMC,075929.00,A,2632.263659,N,10647.870056,E,000.0,,241020,,,A*75
$GPGGA,075930.00,2632.263659,N,10647.870056,E,1,19,0.4,1143.6,M,-26.1,M,,*71
$GPGSV,3,1,11,10,77,005,26,23,62,118,34,20,60,134,32,32,44,317,23*77
$GPGSV,3,2,11,25,39,126,35,31,33,227,36,12,30,081,20,21,18,305,22*71
$GPGSV,3,3,11,24,17,043,15,18,16,179,30,15,00,087,*43
$GLGSV,2,1,06,69,44,057,26,79,42,040,27,85,16,274,28,68,11,102,29*67
$GLGSV,2,2,06,80,67,158,30,70,32,336,*65
$QZGSV,1,1,03,01,54,089,27,02,53,099,25,03,06,150,26*54
$BDGSV,3,1,12,237,73,080,30,216,57,005,,220,57,348,21,206,56,015,*6F
$BDGSV,3,2,12,232,48,091,25,223,24,042,,203,58,172,,209,57,323,*6A
$BDGSV,3,3,12,202,50,224,,213,46,206,,207,33,152,,205,30,249,*64
$GAGSV,1,1,04,131,53,128,,109,49,334,,104,44,059,,101,32,056,*68
$GPGSA,A,3,10,12,18,20,21,23,25,31,32,,,,2.1,1.0,1.8*36
$GNGSA,A,3,10,12,18,20,21,23,25,31,32,,,,2.1,1.0,1.8*28
$GNGSA,A,3,68,69,79,85,,,,,,,,,2.1,1.0,1.8*25
$QZGSA,A,3,01,02,03,,,,,,,,,,2.1,1.0,1.8*25
$IMGSA,A,3,,,,,,,,,,,,,2.1,1.0,1.8*2A
$BDGSA,A,3,220,232,237,,,,,,,,,,2.1,1.0,1.8*1D
$GAGSA,A,3,,,,,,,,,,,,,2.1,1.0,1.8*28
$GPRMC,075930.00,A,2632.263659,N,10647.870056,E,000.0,,241020,,,A*7D
$GPGGA,075931.00,2632.263659,N,10647.870056,E,1,20,0.4,1143.7,M,-26.1,M,,*7B
$GPGSV,3,1,11,10,77,005,26,23,62,118,34,20,59,134,32,32,44,317,23*7D
$GPGSV,3,2,11,25,39,126,35,31,33,227,36,12,30,081,20,21,18,305,22*71
$GPGSV,3,3,11,24,17,043,15,18,16,179,30,15,00,087,*43
$GLGSV,2,1,06,69,44,057,27,79,42,040,27,85,16,274,28,68,11,102,29*66
$GLGSV,2,2,06,80,67,158,30,70,32,336,*65
$QZGSV,1,1,03,01,54,089,27,02,53,099,28,03,06,150,25*5A
$BDGSV,3,1,12,237,73,080,29,216,57,005,,220,57,348,22,206,56,015,10*65
$BDGSV,3,2,12,232,48,091,26,223,24,042,16,203,58,172,,209,57,323,*6E
$BDGSV,3,3,12,202,50,224,,213,46,206,,207,33,152,,205,30,249,*64
$GAGSV,1,1,04,131,53,128,,109,49,334,,104,44,059,,101,32,056,*68
$GPGSA,A,3,10,12,18,20,21,23,25,31,32,,,,1.5,0.8,1.3*33
$GNGSA,A,3,10,12,18,20,21,23,25,31,32,,,,1.5,0.8,1.3*2D
$GNGSA,A,3,68,69,79,85,,,,,,,,,1.5,0.8,1.3*20
$QZGSA,A,3,01,02,03,,,,,,,,,,1.5,0.8,1.3*20
$IMGSA,A,3,,,,,,,,,,,,,1.5,0.8,1.3*2F
$BDGSA,A,3,220,223,232,237,,,,,,,,,1.5,0.8,1.3*2B
$GAGSA,A,3,,,,,,,,,,,,,1.5,0.8,1.3*2D
$GPRMC,075931.00,A,2632.263659,N,10647.870056,E,000.0,,241020,,,A*7C
$GPGGA,075932.00,2632.263659,N,10647.870056,E,1,20,0.4,1143.7,M,-26.1,M,,*78
$GPGSV,3,1,11,10,77,005,25,23,62,118,34,20,59,134,33,32,44,317,24*78
$GPGSV,3,2,11,25,39,126,35,31,33,227,36,12,30,081,24,21,18,305,22*75
$GPGSV,3,3,11,24,17,043,14,18,16,179,30,15,00,087,*42
$GLGSV,2,1,06,69,44,057,27,79,42,040,26,85,16,274,27,68,11,102,28*69
$GLGSV,2,2,06,80,67,158,30,70,32,336,*65
$QZGSV,1,1,03,01,54,089,27,02,53,099,32,03,06,150,25*51
$BDGSV,3,1,12,220,57,348,22,237,73,080,29,216,57,005,,206,56,015,10*65
$BDGSV,3,2,12,232,48,092,28,223,24,042,17,203,58,172,,209,57,323,*62
$BDGSV,3,3,12,202,50,224,,213,46,206,,207,33,152,,205,30,249,*64
$GAGSV,1,1,04,131,53,128,,109,49,334,,104,44,059,,101,32,056,*68
$GPGSA,A,3,10,12,18,20,21,23,25,31,32,,,,1.6,0.9,1.3*31
$GNGSA,A,3,10,12,18,20,21,23,25,31,32,,,,1.6,0.9,1.3*2F
$GNGSA,A,3,68,69,79,85,,,,,,,,,1.6,0.9,1.3*22
$QZGSA,A,3,01,02,03,,,,,,,,,,1.6,0.9,1.3*22
$IMGSA,A,3,,,,,,,,,,,,,1.6,0.9,1.3*2D
$BDGSA,A,3,220,223,232,237,,,,,,,,,1.6,0.9,1.3*29
$GAGSA,A,3,,,,,,,,,,,,,1.6,0.9,1.3*2F
$GPRMC,075932.00,A,2632.263659,N,10647.870056,E,000.0,,241020,,,A*7F
$GPGGA,075933.00,2632.263659,N,10647.870056,E,1,19,0.4,1143.7,M,-26.1,M,,*73
$GPGSV,3,1,11,10,77,005,24,23,62,118,34,20,59,134,33,32,44,317,24*79
$GPGSV,3,2,11,25,39,126,35,31,33,227,36,12,30,081,24,21,18,305,21*76
$GPGSV,3,3,11,24,17,043,14,18,16,179,29,15,00,087,*4A
$GLGSV,2,1,06,69,44,057,26,79,42,040,26,85,16,274,27,68,11,102,28*68
$GLGSV,2,2,06,80,67,158,30,70,32,336,*65
$QZGSV,1,1,03,01,54,089,27,02,53,099,32,03,06,150,25*51
$BDGSV,3,1,12,220,57,348,22,237,73,080,28,216,57,005,11,206,56,015,*65
$BDGSV,3,2,12,232,48,092,28,223,24,042,,203,58,172,,209,57,323,*64
$BDGSV,3,3,12,202,50,224,,213,46,206,,207,33,152,,205,30,249,*64
$GAGSV,1,1,04,131,53,128,,109,49,334,,104,44,059,,101,32,056,*68
$GPGSA,A,3,10,12,18,20,21,23,25,31,32,,,,1.6,1.0,1.3*39
$GNGSA,A,3,10,12,18,20,21,23,25,31,32,,,,1.6,1.0,1.3*27
$GNGSA,A,3,68,69,79,85,,,,,,,,,1.6,1.0,1.3*2A
$QZGSA,A,3,01,02,03,,,,,,,,,,1.6,1.0,1.3*2A
$IMGSA,A,3,,,,,,,,,,,,,1.6,1.0,1.3*25
$BDGSA,A,3,220,232,237,,,,,,,,,,1.6,1.0,1.3*12
$GAGSA,A,3,,,,,,,,,,,,,1.6,1.0,1.3*27
$GPRMC,075933.00,A,2632.263659,N,10647.870056,E,000.0,,241020,,,A*7E
$GPGGA,075934.00,2632.263659,N,10647.870056,E,1,19,0.4,1143.8,M,-26.1,M,,*7B
$GPGSV,3,1,11,10,77,005,24,23,62,118,33,20,59,134,33,32,44,317,24*7E
$GPGSV,3,2,11,25,39,126,35,31,33,227,35,12,30,081,24,21,18,305,21*75
$GPGSV,3,3,11,24,17,043,14,18,16,179,29,15,00,087,*4A
$GLGSV,2,1,06,69,44,057,26,79,42,040,25,85,16,274,27,68,11,102,28*6B
$GLGSV,2,2,06,80,67,158,29,70,32,336,*6D
$QZGSV,1,1,03,01,54,089,26,02,53,099,31,03,06,150,24*52
$BDGSV,3,1,12,220,57,348,22,237,73,080,28,216,57,005,,206,56,015,*65
$BDGSV,3,2,12,232,48,092,27,223,24,042,,203,58,172,,209,57,323,*6B
$BDGSV,3,3,12,202,50,224,,213,46,206,,207,33,152,,205,30,249,*64
$GAGSV,1,1,04,131,53,128,,109,49,334,,104,44,059,,101,32,056,*68
$GPGSA,A,3,10,12,18,20,21,23,25,31,32,,,,1.6,1.0,1.3*39
$GNGSA,A,3,10,12,18,20,21,23,25,31,32,,,,1.6,1.0,1.3*27
$GNGSA,A,3,68,69,79,85,,,,,,,,,1.6,1.0,1.3*2A
$QZGSA,A,3,01,02,03,,,,,,,,,,1.6,1.0,1.3*2A
$IMGSA,A,3,,,,,,,,,,,,,1.6,1.0,1.3*25
$BDGSA,A,3,220,232,237,,,,,,,,,,1.6,1.0,1.3*12
$GAGSA,A,3,,,,,,,,,,,,,1.6,1.0,1.3*27
$GPRMC,075934.00,A,2632.263659,N,10647.870056,E,000.0,,241020,,,A*79
$GPGGA,075935.00,2632.263659,N,10647.870056,E,1,19,0.4,1143.8,M,-26.1,M,,*7A
$GPGSV,3,1,11,10,77,005,23,23,62,118,33,20,59,134,32,32,44,317,23*7F
$GPGSV,3,2,11,25,39,126,34,31,33,227,34,12,30,081,24,21,18,305,21*75
$GPGSV,3,3,11,24,17,043,13,18,16,179,29,15,00,087,*4D
$GLGSV,2,1,06,69,44,057,25,79,42,040,24,85,16,274,26,68,11,102,28*68
$GLGSV,2,2,06,80,67,158,28,70,32,336,*6C
$QZGSV,1,1,03,01,54,089,26,02,53,099,30,03,06,150,25*52
$BDGSV,3,1,12,220,57,348,21,237,73,080,27,216,57,005,,232,48,092,27*6B
$BDGSV,3,2,12,223,24,042,,203,58,172,,209,57,323,,206,56,015,*69
$BDGSV,3,3,12,202,50,224,,213,46,206,,207,33,152,,205,30,249,*64
$GAGSV,1,1,04,131,53,128,,109,49,334,,104,44,059,,101,32,056,*68
$GPGSA,A,3,10,12,18,20,21,23,25,31,32,,,,1.6,0.9,1.3*31
$GNGSA,A,3,10,12,18,20,21,23,25,31,32,,,,1.6,0.9,1.3*2F
$GNGSA,A,3,68,69,79,85,,,,,,,,,1.6,0.9,1.3*22
$QZGSA,A,3,01,02,03,,,,,,,,,,1.6,0.9,1.3*22
$IMGSA,A,3,,,,,,,,,,,,,1.6,0.9,1.3*2D
$BDGSA,A,3,220,232,237,,,,,,,,,,1.6,0.9,1.3*1A
$GAGSA,A,3,,,,,,,,,,,,,1.6,0.9,1.3*2F
$GPRMC,075935.00,A,2632.263659,N,10647.870056,E,000.0,,241020,,,A*78
$GPGGA,075936.00,2632.263659,N,10647.870056,E,1,20,0.4,1143.8,M,-26.1,M,,*73
$GPGSV,3,1,11,10,77,005,22,23,62,118,32,20,59,134,32,32,44,317,23*7F
$GPGSV,3,2,11,25,39,126,33,31,33,227,33,12,30,081,24,21,18,305,20*74
$GPGSV,3,3,11,24,17,043,13,18,16,179,29,15,00,087,*4D
$GLGSV,2,1,06,69,44,057,25,79,42,040,24,85,16,274,25,68,11,102,27*64
$GLGSV,2,2,06,80,67,158,27,70,32,336,*63
$QZGSV,1,1,03,01,54,089,25,02,53,099,30,03,06,150,26*52
$BDGSV,3,1,12,220,57,348,21,237,73,080,26,216,57,005,,232,48,092,26*6B
$BDGSV,3,2,12,203,58,172,,209,57,323,,206,56,015,,202,50,224,*6B
$BDGSV,3,3,12,213,46,206,,207,33,152,,205,30,249,,208,29,183,*6E
$GAGSV,1,1,04,131,53,128,,109,49,334,,104,44,059,,101,32,056,*68
$GPGSA,A,3,10,12,18,20,21,23,24,25,31,32,,,1.5,0.9,1.2*35
$GNGSA,A,3,10,12,18,20,21,23,24,25,31,32,,,1.5,0.9,1.2*2B
$GNGSA,A,3,68,69,79,85,,,,,,,,,1.5,0.9,1.2*20
$QZGSA,A,3,01,02,03,,,,,,,,,,1.5,0.9,1.2*20
$IMGSA,A,3,,,,,,,,,,,,,1.5,0.9,1.2*2F
$BDGSA,A,3,220,232,237,,,,,,,,,,1.5,0.9,1.2*18
$GAGSA,A,3,,,,,,,,,,,,,1.5,0.9,1.2*2D
$GPRMC,075936.00,A,2632.263659,N,10647.870056,E,000.0,,241020,,,A*7B
$GPGGA,075937.00,2632.263659,N,10647.870056,E,1,19,0.4,1143.8,M,-26.1,M,,*78
$GPGSV,3,1,11,10,77,005,22,23,62,118,31,20,59,134,31,32,44,317,22*7E
$GPGSV,3,2,11,25,39,126,31,31,33,227,32,12,30,081,23,21,18,305,20*70
$GPGSV,3,3,11,24,17,043,13,18,16,179,29,15,00,087,*4D
$GLGSV,2,1,06,69,44,057,25,79,42,040,23,85,16,274,25,68,11,102,26*62
$GLGSV,2,2,06,80,67,158,27,70,32,336,*63
$QZGSV,1,1,03,01,54,089,24,02,53,099,29,03,06,150,26*5B
$BDGSV,3,1,12,220,57,348,20,237,73,080,25,216,57,005,,232,48,092,25*6A
$BDGSV,3,2,12,203,58,172,,209,57,323,,206,56,015,,202,50,224,*6B
$BDGSV,3,3,12,213,46,206,,207,33,152,,205,30,249,,208,29,183,*6E
$GAGSV,1,1,04,131,53,128,,109,49,334,,104,44,059,,101,32,056,*68
$GPGSA,A,3,10,12,18,20,21,23,25,31,32,,,,1.6,0.9,1.3*31
$GNGSA,A,3,10,12,18,20,21,23,25,31,32,,,,1.6,0.9,1.3*2F
$GNGSA,A,3,68,69,79,85,,,,,,,,,1.6,0.9,1.3*22
$QZGSA,A,3,01,02,03,,,,,,,,,,1.6,0.9,1.3*22
$IMGSA,A,3,,,,,,,,,,,,,1.6,0.9,1.3*2D
$BDGSA,A,3,220,232,237,,,,,,,,,,1.6,0.9,1.3*1A
$GAGSA,A,3,,,,,,,,,,,,,1.6,0.9,1.3*2F
$GPRMC,075937.00,A,2632.263659,N,10647.870056,E,000.0,,241020,,,A*7A
$GPGGA,075938.00,2632.263659,N,10647.870056,E,1,19,0.4,1143.9,M,-26.1,M,,*76
$GPGSV,3,1,11,10,77,005,21,23,62,118,30,20,59,134,31,32,44,317,22*7C
$GPGSV,3,2,11,25,39,126,30,31,33,227,31,12,30,081,23,21,18,305,20*72
$GPGSV,3,3,11,24,17,043,13,18,16,179,29,15,00,087,*4D
$GLGSV,2,1,07,69,44,057,24,79,42,040,22,85,16,274,25,68,11,102,25*60
$GLGSV,2,2,07,80,67,158,26,73,20,194,25,70,32,336,*5E
$QZGSV,1,1,03,01,54,089,23,02,53,099,28,03,06,150,30*5A
$BDGSV,3,1,11,220,57,348,19,237,73,080,24,216,57,005,,232,48,092,24*63
$BDGSV,3,2,11,203,58,172,,209,57,323,,206,56,015,,202,50,224,*68
$BDGSV,3,3,11,213,46,206,,207,34,152,,205,30,249,*61
$GAGSV,1,1,04,131,53,128,,109,49,334,,104,44,059,,101,32,056,*68
$GPGSA,A,3,10,12,18,20,21,23,25,31,32,,,,1.7,0.9,1.5*36
$GNGSA,A,3,10,12,18,20,21,23,25,31,32,,,,1.7,0.9,1.5*28
$GNGSA,A,3,68,69,79,85,,,,,,,,,1.7,0.9,1.5*25
$QZGSA,A,3,01,02,03,,,,,,,,,,1.7,0.9,1.5*25
$IMGSA,A,3,,,,,,,,,,,,,1.7,0.9,1.5*2A
$BDGSA,A,3,220,232,237,,,,,,,,,,1.7,0.9,1.5*1D
$GAGSA,A,3,,,,,,,,,,,,,1.7,0.9,1.5*28
$GPRMC,075938.00,A,2632.263659,N,10647.870056,E,000.0,,241020,,,A*75
$GPGGA,075939.00,2632.263659,N,10647.870056,E,1,19,0.4,1143.9,M,-26.1,M,,*77
$GPGSV,3,1,11,10,77,005,21,23,62,118,30,20,59,134,31,32,44,317,21*7F
$GPGSV,3,2,11,25,39,126,29,31,33,227,30,12,30,081,23,21,18,305,19*71
$GPGSV,3,3,11,24,17,043,12,18,16,179,29,15,00,087,*4C
$GLGSV,2,1,07,69,44,057,24,79,42,040,22,85,16,274,24,68,11,102,25*61
$GLGSV,2,2,07,80,67,158,26,73,20,194,25,70,32,336,*5E
$QZGSV,1,1,03,01,54,089,23,02,53,099,27,03,06,150,30*55
$BDGSV,3,1,11,220,57,348,19,237,73,080,23,232,48,092,24,203,58,172,*6E
$BDGSV,3,2,11,209,57,323,,216,57,005,,206,56,015,,202,50,224,*62
$BDGSV,3,3,11,213,46,206,,207,34,152,,205,30,249,*61
$GAGSV,1,1,04,131,53,128,,109,49,334,,104,44,059,,101,32,056,*68
$GPGSA,A,3,10,12,18,20,21,23,25,31,32,,,,1.7,0.9,1.4*37
$GNGSA,A,3,10,12,18,20,21,23,25,31,32,,,,1.7,0.9,1.4*29
$GNGSA,A,3,68,69,79,85,,,,,,,,,1.7,0.9,1.4*24
$QZGSA,A,3,01,02,03,,,,,,,,,,1.7,0.9,1.4*24
$IMGSA,A,3,,,,,,,,,,,,,1.7,0.9,1.4*2B
$BDGSA,A,3,220,232,237,,,,,,,,,,1.7,0.9,1.4*1C
$GAGSA,A,3,,,,,,,,,,,,,1.7,0.9,1.4*29
$GPRMC,075939.00,A,2632.263659,N,10647.870056,E,000.0,,241020,,,A*74
$GPGGA,075940.00,2632.263659,N,10647.870056,E,1,19,0.6,1144.0,M,-26.1,M,,*75
$GPGSV,3,1,11,10,77,005,20,23,62,118,29,20,59,134,30,32,44,317,21*77
$GPGSV,3,2,11,25,39,126,28,31,33,227,29,12,30,081,22,21,18,305,19*79
$GPGSV,3,3,11,24,17,043,12,18,16,179,29,15,00,087,*4C
$GLGSV,2,1,07,69,44,057,24,79,42,040,21,85,16,274,24,68,11,102,24*63
$GLGSV,2,2,07,80,67,158,25,73,20,194,24,70,32,336,*5C
$QZGSV,1,1,03,01,54,089,22,02,53,099,26,03,06,150,29*5D
$BDGSV,3,1,11,220,57,348,18,237,73,080,22,232,48,092,23,203,58,172,*69
$BDGSV,3,2,11,209,57,323,,216,57,005,,206,56,015,,202,50,224,*62
