$GPGGA,131848.08,,,,,0,00,999.9,,M,,M,,*69
$GPGSV,3,1,10,15,63,027,,21,61,309,,24,46,141,,20,36,308,*7C
$GPGSV,3,2,10,13,27,042,,29,22,205,,10,14,291,,05,11,088,*7F
$GPGSV,3,3,10,32,04,233,,27,04,321,*7E
$GLGSV,3,1,10,88,58,228,,81,41,312,,65,41,022,,66,38,297,*6E
$GLGSV,3,2,10,75,24,097,,87,22,181,,74,13,043,,76,12,143,*6A
$GLGSV,3,3,10,72,08,057,,67,01,262,*6D
$QZGSV,1,1,01,01,56,071,*50
$BDGSV,3,1,09,206,70,000,,209,68,287,,203,52,167,,202,49,216,*66
$BDGSV,3,2,09,208,44,165,,201,36,126,,205,31,244,,204,20,110,*68
$BDGSV,3,3,09,207,10,154,*65
$GAGSV,2,1,06,109,64,316,,104,38,044,,105,25,261,,101,13,076,*68
$GAGSV,2,2,06,112,08,158,,111,53,189,*6F
$GPGSA,A,1,,,,,,,,,,,,,140.0,99.0,99.0*35
$GNGSA,A,1,,,,,,,,,,,,,140.0,99.0,99.0*2B
$GNGSA,A,1,,,,,,,,,,,,,140.0,99.0,99.0*2B
$QZGSA,A,1,,,,,,,,,,,,,140.0,99.0,99.0*29
$IMGSA,A,1,,,,,,,,,,,,,140.0,99.0,99.0*26
$BDGSA,A,1,,,,,,,,,,,,,140.0,99.0,99.0*24
$GAGSA,A,1,,,,,,,,,,,,,140.0,99.0,99.0*24
$GPRMC,131848.08,V,,,,,,,220718,,,N*7C
$GPGGA,131849.08,,,,,0,00,999.9,,M,,M,,*68
$GPGSV,3,1,10,15,63,027,,21,61,309,,24,46,141,,20,36,308,*7C
$GPGSV,3,2,10,13,27,042,,29,22,205,,10,14,291,,05,11,088,*7F
$GPGSV,3,3,10,32,04,233,,27,04,321,*7E
$GLGSV,3,1,10,88,58,228,,81,41,312,,65,41,022,,66,38,297,*6E
$GLGSV,3,2,10,75,24,097,,87,22,181,,74,13,043,,76,12,143,*6A
$GLGSV,3,3,10,72,08,057,,67,01,262,*6D
$QZGSV,1,1,01,01,56,071,*50
$BDGSV,3,1,09,206,70,000,,209,68,287,,203,52,167,,202,49,216,*66
$BDGSV,3,2,09,208,44,165,,201,36,126,,205,31,244,,204,20,110,*68
$BDGSV,3,3,09,207,10,154,*65
$GAGSV,2,1,06,109,64,316,,104,38,044,,105,25,261,,101,13,076,*68
$GAGSV,2,2,06,112,08,158,,111,53,189,*6F
$GPGSA,A,1,,,,,,,,,,,,,140.0,99.0,99.0*35
$GNGSA,A,1,,,,,,,,,,,,,140.0,99.0,99.0*2B
$GNGSA,A,1,,,,,,,,,,,,,140.0,99.0,99.0*2B
$QZGSA,A,1,,,,,,,,,,,,,140.0,99.0,99.0*29
$IMGSA,A,1,,,,,,,,,,,,,140.0,99.0,99.0*26
$BDGSA,A,1,,,,,,,,,,,,,140.0,99.0,99.0*24
$GAGSA,A,1,,,,,,,,,,,,,140.0,99.0,99.0*24
$GPRMC,131849.08,V,,,,,,,220718,,,N*7D
$GPGGA,131850.08,,,,,0,00,999.9,,M,,M,,*60
$GPGSV,3,1,10,15,63,027,,21,61,309,,24,46,141,,20,36,308,*7C
$GPGSV,3,2,10,13,27,042,,29,22,205,,10,14,291,,05,11,088,*7F
$GPGSV,3,3,10,32,04,233,,27,04,321,*7E
$GLGSV,3,1,09,88,58,228,,81,41,312,,65,41,022,,66,38,297,*66
$GLGSV,3,2,09,75,24,097,,87,22,181,,76,12,143,,72,08,057,*6B
$GLGSV,3,3,09,67,01,262,*5A
$QZGSV,1,1,01,01,56,071,*50
$BDGSV,3,1,10,206,70,000,,209,68,287,,203,52,167,,202,49,216,*6E
$BDGSV,3,2,10,208,44,165,,201,36,126,,205,31,244,,204,20,110,*60
$BDGSV,3,3,10,207,10,154,,210,02,178,*62
$GAGSV,2,1,06,109,64,316,,104,38,044,,105,25,261,,101,13,076,*68
$GAGSV,2,2,06,112,08,158,,111,53,189,*6F
$GPGSA,A,1,,,,,,,,,,,,,140.0,99.0,99.0*35
$GNGSA,A,1,,,,,,,,,,,,,140.0,99.0,99.0*2B
$GNGSA,A,1,,,,,,,,,,,,,140.0,99.0,99.0*2B
$QZGSA,A,1,,,,,,,,,,,,,140.0,99.0,99.0*29
$IMGSA,A,1,,,,,,,,,,,,,140.0,99.0,99.0*26
$BDGSA,A,1,,,,,,,,,,,,,140.0,99.0,99.0*24
$GAGSA,A,1,,,,,,,,,,,,,140.0,99.0,99.0*24
$GPRMC,131850.08,V,,,,,,,220718,,,N*75
$GPGGA,131851.08,,,,,0,00,999.9,,M,,M,,*61
$GPGSV,3,1,10,24,46,141,17,10,14,291,18,32,04,233,,15,63,027,*78
$GPGSV,3,2,10,21,61,309,,20,36,308,,13,27,042,,29,22,205,*76
$GPGSV,3,3,10,05,11,088,,27,04,321,*7C
$GLGSV,3,1,09,88,58,228,,81,41,312,,65,41,022,,66,38,297,*66
$GLGSV,3,2,09,75,24,097,,87,22,181,,76,12,143,,72,08,057,*6B
$GLGSV,3,3,09,67,01,262,*5A
$QZGSV,1,1,01,01,56,071,*50
$BDGSV,3,1,10,206,70,000,,209,68,287,,203,52,167,,202,49,216,*6E
$BDGSV,3,2,10,208,44,165,,201,36,126,,205,31,244,,204,20,110,*60
$BDGSV,3,3,10,207,10,154,,210,02,178,*62
$GAGSV,2,1,06,109,64,316,,104,38,044,,105,25,261,,101,13,076,*68
$GAGSV,2,2,06,112,08,158,,111,53,189,*6F
$GPGSA,A,1,,,,,,,,,,,,,140.0,99.0,99.0*35
$GNGSA,A,1,,,,,,,,,,,,,140.0,99.0,99.0*2B
$GNGSA,A,1,,,,,,,,,,,,,140.0,99.0,99.0*2B
$QZGSA,A,1,,,,,,,,,,,,,140.0,99.0,99.0*29
$IMGSA,A,1,,,,,,,,,,,,,140.0,99.0,99.0*26
$BDGSA,A,1,,,,,,,,,,,,,140.0,99.0,99.0*24
$GAGSA,A,1,,,,,,,,,,,,,140.0,99.0,99.0*24
$GPRMC,131851.08,V,,,,,,,220718,,,N*74
$GPGGA,131852.08,,,,,0,00,999.9,,M,,M,,*62
$GPGSV,3,1,10,24,46,141,20,20,36,308,17,10,14,291,23,32,04,233,*7A
$GPGSV,3,2,10,15,63,027,,21,61,309,,13,27,042,,29,22,205,*7E
$GPGSV,3,3,10,05,11,088,,27,04,321,*7C
$GLGSV,3,1,09,88,58,228,,81,41,312,,65,41,022,,66,38,297,*66
$GLGSV,3,2,09,75,24,097,,87,22,181,,76,12,143,,72,08,057,*6B
$GLGSV,3,3,09,67,01,262,*5A
$QZGSV,1,1,01,01,56,071,*50
$BDGSV,3,1,10,206,70,000,,209,68,287,,203,52,167,,202,49,216,*6E
$BDGSV,3,2,10,208,44,165,,201,36,126,,205,31,244,,204,20,110,*60
$BDGSV,3,3,10,207,10,154,,210,02,178,*62
$GAGSV,2,1,06,109,64,316,,104,38,044,,105,25,261,,101,13,076,*68
$GAGSV,2,2,06,112,08,158,,111,53,189,*6F
$GPGSA,A,1,,,,,,,,,,,,,140.0,99.0,99.0*35
$GNGSA,A,1,,,,,,,,,,,,,140.0,99.0,99.0*2B
$GNGSA,A,1,,,,,,,,,,,,,140.0,99.0,99.0*2B
$QZGSA,A,1,,,,,,,,,,,,,140.0,99.0,99.0*29
$IMGSA,A,1,,,,,,,,,,,,,140.0,99.0,99.0*26
$BDGSA,A,1,,,,,,,,,,,,,140.0,99.0,99.0*24
$GAGSA,A,1,,,,,,,,,,,,,140.0,99.0,99.0*24
$GPRMC,131852.08,V,,,,,,,220718,,,N*77
$GPGGA,131853.08,,,,,0,00,999.9,,M,,M,,*63
$GPGSV,3,1,10,24,46,141,22,20,36,308,17,10,14,291,25,05,11,088,20*7E
$GPGSV,3,2,10,32,04,233,,15,63,027,,21,61,309,,13,27,042,*75
$GPGSV,3,3,10,29,22,205,,27,04,321,*75
$GLGSV,3,1,09,88,58,228,,65,41,022,,81,41,312,,66,38,297,*66
$GLGSV,3,2,09,75,24,097,,87,22,181,,76,12,143,,72,08,057,*6B
$GLGSV,3,3,09,67,01,262,*5A
$QZGSV,1,1,01,01,56,071,*50
$BDGSV,3,1,10,206,70,000,,209,68,287,,203,52,167,,202,49,216,*6E
$BDGSV,3,2,10,208,44,165,,201,36,126,,205,31,244,,204,20,110,*60
$BDGSV,3,3,10,207,10,154,,210,02,178,*62
$GAGSV,2,1,06,109,64,316,,104,38,044,,105,25,261,,101,13,076,*68
$GAGSV,2,2,06,112,08,158,,111,53,189,*6F
$GPGSA,A,1,,,,,,,,,,,,,140.0,99.0,99.0*35
$GNGSA,A,1,,,,,,,,,,,,,140.0,99.0,99.0*2B
$GNGSA,A,1,,,,,,,,,,,,,140.0,99.0,99.0*2B
$QZGSA,A,1,,,,,,,,,,,,,140.0,99.0,99.0*29
$IMGSA,A,1,,,,,,,,,,,,,140.0,99.0,99.0*26
$BDGSA,A,1,,,,,,,,,,,,,140.0,99.0,99.0*24
$GAGSA,A,1,,,,,,,,,,,,,140.0,99.0,99.0*24
$GPRMC,131853.08,V,,,,,,,220718,,,N*76
$GPGGA,131854.08,,,,,0,00,999.9,,M,,M,,*64
$GPGSV,3,1,10,24,46,141,22,20,36,308,17,13,27,042,19,29,22,205,19*7D
$GPGSV,3,2,10,10,14,291,27,05,11,088,20,32,04,233,,15,63,027,*76
$GPGSV,3,3,10,21,61,309,,27,04,321,*77
$GLGSV,3,1,09,66,38,297,20,88,58,228,,65,41,022,,81,41,312,*64
$GLGSV,3,2,09,75,24,097,,87,22,181,,76,12,143,,72,08,057,*6B
$GLGSV,3,3,09,67,01,262,*5A
$QZGSV,1,1,01,01,56,071,*50
$BDGSV,3,1,10,206,70,000,,209,68,287,,203,52,167,,202,49,216,*6E
$BDGSV,3,2,10,208,44,165,,201,36,126,,205,31,244,,204,20,110,*60
$BDGSV,3,3,10,207,10,154,,210,02,178,*62
$GAGSV,2,1,06,109,64,316,,104,38,044,,105,25,261,,101,13,076,*68
$GAGSV,2,2,06,112,08,158,,111,53,189,*6F
$GPGSA,A,1,,,,,,,,,,,,,140.0,99.0,99.0*35
$GNGSA,A,1,,,,,,,,,,,,,140.0,99.0,99.0*2B
$GNGSA,A,1,,,,,,,,,,,,,140.0,99.0,99.0*2B
$QZGSA,A,1,,,,,,,,,,,,,140.0,99.0,99.0*29
$IMGSA,A,1,,,,,,,,,,,,,140.0,99.0,99.0*26
$BDGSA,A,1,,,,,,,,,,,,,140.0,99.0,99.0*24
$GAGSA,A,1,,,,,,,,,,,,,140.0,99.0,99.0*24
$GPRMC,131854.08,V,,,,,,,220718,,,N*71
$GPGGA,131855.08,,,,,0,00,999.9,,M,,M,,*65
$GPGSV,3,1,10,21,61,309,16,24,46,141,22,20,36,308,16,13,27,042,19*71
$GPGSV,3,2,10,29,22,205,18,10,14,292,26,05,11,088,20,32,04,233,*75
$GPGSV,3,3,10,15,63,027,,27,04,321,*7D
$GLGSV,3,1,09,66,38,297,20,88,58,228,,65,41,022,,81,41,312,*64
$GLGSV,3,2,09,75,24,097,,87,22,181,,76,12,143,,72,08,057,*6B
$GLGSV,3,3,09,67,01,262,*5A
$QZGSV,1,1,01,01,56,071,*50
$BDGSV,3,1,10,206,70,000,,209,68,287,,203,52,167,,202,49,216,*6E
$BDGSV,3,2,10,208,44,165,,201,36,126,,205,31,244,,204,20,110,*60
$BDGSV,3,3,10,207,10,154,,210,02,178,*62
$GAGSV,2,1,06,109,64,316,,104,38,044,,105,25,261,,101,13,076,*68
$GAGSV,2,2,06,112,08,158,,111,53,189,*6F
$GPGSA,A,1,,,,,,,,,,,,,140.0,99.0,99.0*35
$GNGSA,A,1,,,,,,,,,,,,,140.0,99.0,99.0*2B
$GNGSA,A,1,,,,,,,,,,,,,140.0,99.0,99.0*2B
$QZGSA,A,1,,,,,,,,,,,,,140.0,99.0,99.0*29
$IMGSA,A,1,,,,,,,,,,,,,140.0,99.0,99.0*26
$BDGSA,A,1,,,,,,,,,,,,,140.0,99.0,99.0*24
$GAGSA,A,1,,,,,,,,,,,,,140.0,99.0,99.0*24
$GPRMC,131855.08,V,,,,,,,220718,,,N*70
$GPGGA,131858.07,3053.695076,N,10336.312538,E,1,07,0.8,718.0,M,-32.8,M,,*4F
$GPGSV,3,1,10,15,63,027,16,21,61,309,16,24,46,141,22,20,36,308,16*7B
$GPGSV,3,2,10,13,27,042,20,29,22,205,19,10,14,292,26,05,11,088,20*70
$GPGSV,3,3,10,32,04,233,,27,04,321,*7E
$GLGSV,3,1,09,66,38,297,20,88,58,228,,65,41,022,,81,41,312,*64
$GLGSV,3,2,09,75,24,097,,87,22,181,,76,12,143,,72,08,057,*6B
$GLGSV,3,3,09,67,01,262,*5A
$QZGSV,1,1,01,01,56,071,*50
$BDGSV,3,1,10,206,70,000,,209,68,287,,203,52,167,,202,49,216,*6E
$BDGSV,3,2,10,208,44,165,,201,36,126,,205,31,244,,204,20,110,*60
$BDGSV,3,3,10,207,10,154,,210,02,178,*62
$GAGSV,2,1,06,109,64,316,,104,38,044,,105,25,261,,101,13,076,*68
$GAGSV,2,2,06,112,08,158,,111,53,189,*6F
$GPGSA,A,3,05,10,13,20,24,29,,,,,,,2.5,1.0,2.3*3C
$GNGSA,A,3,05,10,13,20,24,29,,,,,,,2.5,1.0,2.3*22
$GNGSA,A,3,66,,,,,,,,,,,,2.5,1.0,2.3*2B
$QZGSA,A,3,,,,,,,,,,,,,2.5,1.0,2.3*29
$IMGSA,A,3,,,,,,,,,,,,,2.5,1.0,2.3*26
$BDGSA,A,3,,,,,,,,,,,,,2.5,1.0,2.3*24
$GAGSA,A,3,,,,,,,,,,,,,2.5,1.0,2.3*24
$GPRMC,131858.07,A,3053.695076,N,10336.312538,E,002.0,,220718,,,A*7A
$GPGGA,131859.08,3053.696655,N,10336.312708,E,1,09,3.2,697.9,M,-32.8,M,,*4C
$GPGSV,3,1,10,15,63,027,18,21,61,309,16,24,46,141,21,20,36,308,20*73
$GPGSV,3,2,10,13,27,042,21,29,22,205,19,10,14,292,28,05,11,088,21*7E
$GPGSV,3,3,10,32,04,233,,27,04,321,*7E
$GLGSV,3,1,09,66,38,297,22,75,24,097,22,88,58,228,,65,41,022,*60
$GLGSV,3,2,09,81,41,312,,87,22,181,,76,12,143,,72,08,057,*6D
$GLGSV,3,3,09,67,01,262,*5A
$QZGSV,1,1,01,01,56,071,*50
$BDGSV,3,1,10,206,70,000,,209,68,287,,203,52,167,,202,49,216,*6E
$BDGSV,3,2,10,208,44,165,,201,36,126,,205,31,244,,204,20,110,*60
$BDGSV,3,3,10,207,10,154,,210,02,178,*62
$GAGSV,2,1,06,109,64,316,,104,38,044,,105,25,261,,101,13,076,*68
$GAGSV,2,2,06,112,08,158,,111,53,189,*6F
$GPGSA,A,3,05,10,13,20,21,24,29,,,,,,2.0,0.9,1.8*3A
$GNGSA,A,3,05,10,13,20,21,24,29,,,,,,2.0,0.9,1.8*24
$GNGSA,A,3,66,75,,,,,,,,,,,2.0,0.9,1.8*2C
$QZGSA,A,3,,,,,,,,,,,,,2.0,0.9,1.8*2C
$IMGSA,A,3,,,,,,,,,,,,,2.0,0.9,1.8*23
$BDGSA,A,3,,,,,,,,,,,,,2.0,0.9,1.8*21
$GAGSA,A,3,,,,,,,,,,,,,2.0,0.9,1.8*21
$GPRMC,131859.08,A,3053.696655,N,10336.312708,E,002.0,,220718,,,A*71
$GPGGA,131900.08,,,,,0,00,999.9,,M,,M,,*64
$GPGSV,3,1,10,15,63,027,17,21,61,309,16,24,46,141,21,20,36,308,20*7C
$GPGSV,3,2,10,13,27,042,21,29,22,205,18,10,14,292,27,05,11,088,21*70
$GPGSV,3,3,10,32,04,233,,27,04,321,*7E
$GLGSV,3,1,09,66,38,297,23,75,24,097,22,88,58,228,,65,41,022,*61
$GLGSV,3,2,09,81,41,312,,87,22,181,,76,12,143,,72,08,057,*6D
$GLGSV,3,3,09,67,01,262,*5A
$QZGSV,1,1,01,01,56,071,*50
$BDGSV,3,1,10,206,70,000,,209,68,287,,203,52,167,,202,49,216,*6E
$BDGSV,3,2,10,208,44,165,,201,36,126,,205,31,244,,204,20,110,*60
$BDGSV,3,3,10,207,10,154,,210,02,178,*62
$GAGSV,2,1,06,109,64,316,,104,38,044,,105,25,261,,101,13,076,*68
$GAGSV,2,2,06,112,07,158,,111,53,189,*60
$GPGSA,A,1,,,,,,,,,,,,,140.0,99.0,99.0*35
$GNGSA,A,1,,,,,,,,,,,,,140.0,99.0,99.0*2B
$GNGSA,A,1,,,,,,,,,,,,,140.0,99.0,99.0*2B
$QZGSA,A,1,,,,,,,,,,,,,140.0,99.0,99.0*29
$IMGSA,A,1,,,,,,,,,,,,,140.0,99.0,99.0*26
$BDGSA,A,1,,,,,,,,,,,,,140.0,99.0,99.0*24
$GAGSA,A,1,,,,,,,,,,,,,140.0,99.0,99.0*24
$GPRMC,131900.08,V,,,,,,,220718,,,N*71
$GPGGA,131901.09,3053.698865,N,10336.313309,E,1,10,3.2,673.0,M,-32.8,M,,*4D
$GPGSV,3,1,10,15,63,027,17,21,61,309,16,24,46,141,22,20,36,308,19*75
$GPGSV,3,2,10,13,27,042,20,29,22,205,18,10,14,292,27,05,11,088,20*70
$GPGSV,3,3,10,32,04,233,,27,04,321,*7E
$GLGSV,3,1,09,66,38,297,23,75,24,097,22,88,58,227,,65,41,022,*6E
$GLGSV,3,2,09,81,41,312,,87,22,181,,76,12,143,,72,08,057,*6D
$GLGSV,3,3,09,67,01,262,*5A
$QZGSV,1,1,01,01,56,071,*50
$BDGSV,3,1,10,206,70,000,,209,68,287,,203,52,167,,202,49,216,*6E
$BDGSV,3,2,10,208,44,165,,201,36,126,,205,31,244,,204,20,110,*60
$BDGSV,3,3,10,207,10,154,,210,02,178,*62
$GAGSV,2,1,06,109,64,316,,104,38,044,,105,25,261,,101,13,076,*68
$GAGSV,2,2,06,112,07,158,,111,53,189,*60
$GPGSA,A,3,05,10,13,15,20,21,24,29,,,,,1.7,0.9,1.4*36
$GNGSA,A,3,05,10,13,15,20,21,24,29,,,,,1.7,0.9,1.4*28
$GNGSA,A,3,66,75,,,,,,,,,,,1.7,0.9,1.4*24
$QZGSA,A,3,,,,,,,,,,,,,1.7,0.9,1.4*24
$IMGSA,A,3,,,,,,,,,,,,,1.7,0.9,1.4*2B
$BDGSA,A,3,,,,,,,,,,,,,1.7,0.9,1.4*29
$GAGSA,A,3,,,,,,,,,,,,,1.7,0.9,1.4*29
$GPRMC,131901.09,A,3053.698865,N,10336.313309,E,002.2,,220718,,,A*79
$GPGGA,131902.06,3053.697738,N,10336.312389,E,1,09,3.2,676.8,M,-32.8,M,,*45
$GPGSV,3,1,10,15,63,027,17,21,61,309,16,24,46,141,22,20,36,308,19*75
$GPGSV,3,2,10,13,27,042,20,29,22,205,18,10,14,292,27,05,11,088,20*70
$GPGSV,3,3,10,32,04,233,,27,04,321,*7E
$GLGSV,3,1,09,66,38,297,23,75,24,097,22,88,58,227,,65,41,022,*6E
$GLGSV,3,2,09,81,41,312,,87,22,181,,76,12,143,,72,08,057,*6D
$GLGSV,3,3,09,67,01,262,*5A
$QZGSV,1,1,01,01,56,071,14*55
$BDGSV,3,1,10,206,70,000,,209,68,287,,203,52,167,,202,49,216,*6E
$BDGSV,3,2,10,208,44,165,,201,36,126,,205,31,244,,204,20,110,*60
$BDGSV,3,3,10,207,10,154,,210,02,178,*62
$GAGSV,2,1,06,109,64,316,,104,38,044,,105,25,261,,101,13,076,*68
$GAGSV,2,2,06,112,07,158,,111,53,189,*60
$GPGSA,A,3,05,10,13,15,20,21,24,,,,,,1.9,1.2,1.4*39
$GNGSA,A,3,05,10,13,15,20,21,24,,,,,,1.9,1.2,1.4*27
$GNGSA,A,3,66,75,,,,,,,,,,,1.9,1.2,1.4*20
$QZGSA,A,3,,,,,,,,,,,,,1.9,1.2,1.4*20
$IMGSA,A,3,,,,,,,,,,,,,1.9,1.2,1.4*2F
$BDGSA,A,3,,,,,,,,,,,,,1.9,1.2,1.4*2D
$GAGSA,A,3,,,,,,,,,,,,,1.9,1.2,1.4*2D
$GPRMC,131902.06,A,3053.697738,N,10336.312389,E,002.5,,220718,,,A*73
$GPGGA,131903.06,3053.692310,N,10336.305212,E,1,13,3.2,683.7,M,-32.8,M,,*44
$GPGSV,3,1,10,15,63,027,18,21,61,309,15,24,46,141,22,20,36,308,19*79
$GPGSV,3,2,10,13,27,042,20,29,22,205,18,10,14,292,27,05,11,088,20*70
$GPGSV,3,3,10,32,04,233,,27,04,321,*7E
$GLGSV,3,1,09,81,41,312,18,66,38,297,23,75,24,097,21,88,58,227,*6E
$GLGSV,3,2,09,65,41,022,,87,22,181,,76,12,143,,72,08,057,*67
$GLGSV,3,3,09,67,01,262,*5A
$QZGSV,1,1,01,01,56,071,14*55
$BDGSV,3,1,10,206,70,000,,209,68,287,,203,52,167,,202,49,216,*6E
$BDGSV,3,2,10,208,44,165,,201,36,126,,205,31,244,,204,20,110,*60
$BDGSV,3,3,10,207,10,154,,210,02,178,*62
$GAGSV,2,1,06,109,64,316,,104,38,044,,105,25,261,,101,13,076,*68
$GAGSV,2,2,06,112,07,158,,111,53,189,*60
$GPGSA,A,3,05,10,13,15,20,21,24,29,,,,,2.1,1.3,1.7*3B
$GNGSA,A,3,05,10,13,15,20,21,24,29,,,,,2.1,1.3,1.7*25
$GNGSA,A,3,66,75,81,,,,,,,,,,2.1,1.3,1.7*20
$QZGSA,A,3,01,,,,,,,,,,,,2.1,1.3,1.7*28
$IMGSA,A,3,,,,,,,,,,,,,2.1,1.3,1.7*26
$BDGSA,A,3,,,,,,,,,,,,,2.1,1.3,1.7*24
$GAGSA,A,3,,,,,,,,,,,,,2.1,1.3,1.7*24
$GPRMC,131903.06,A,3053.692310,N,10336.305212,E,002.2,,220718,,,A*7B
$GPGGA,131904.06,3053.694776,N,10336.310475,E,1,13,3.2,676.1,M,-32.8,M,,*4E
$GPGSV,3,1,10,15,63,027,18,21,61,309,15,24,46,141,24,20,36,308,19*7F
$GPGSV,3,2,10,13,27,042,20,29,22,205,18,10,14,292,27,05,11,088,20*70
$GPGSV,3,3,10,32,04,233,,27,04,321,*7E
$GLGSV,3,1,09,81,41,312,19,66,38,297,23,75,24,097,21,88,58,227,*6F
$GLGSV,3,2,09,65,41,022,,87,22,181,,76,12,143,,72,08,057,*67
$GLGSV,3,3,09,67,01,262,*5A
$QZGSV,1,1,01,01,56,071,14*55
$BDGSV,3,1,10,206,70,000,,209,68,287,,203,52,167,,202,49,216,*6E
$BDGSV,3,2,10,208,44,165,,201,36,126,,205,31,244,,204,20,110,*60
$BDGSV,3,3,10,207,10,154,,210,02,178,*62
$GAGSV,2,1,06,109,64,316,,104,38,044,,105,25,261,,101,13,076,*68
$GAGSV,2,2,06,112,07,158,,111,53,189,*60
$GPGSA,A,3,05,10,13,15,20,21,24,29,,,,,2.0,1.0,1.8*36
$GNGSA,A,3,05,10,13,15,20,21,24,29,,,,,2.0,1.0,1.8*28
$GNGSA,A,3,66,75,81,,,,,,,,,,2.0,1.0,1.8*2D
$QZGSA,A,3,01,,,,,,,,,,,,2.0,1.0,1.8*25
$IMGSA,A,3,,,,,,,,,,,,,2.0,1.0,1.8*2B
$BDGSA,A,3,,,,,,,,,,,,,2.0,1.0,1.8*29
$GAGSA,A,3,,,,,,,,,,,,,2.0,1.0,1.8*29
$GPRMC,131904.06,A,3053.694776,N,10336.310475,E,002.8,,220718,,,A*77
$GPGGA,131905.00,3053.695856,N,10336.312081,E,1,13,3.2,672.2,M,-32.8,M,,*4F
$GPGSV,3,1,10,15,63,027,18,21,61,309,15,24,46,141,23,20,36,308,19*78
$GPGSV,3,2,10,13,27,042,19,29,22,205,18,10,14,292,26,05,11,088,20*7B
$GPGSV,3,3,10,32,04,233,,27,04,321,*7E
$GLGSV,3,1,09,81,41,312,19,66,38,297,23,75,24,097,20,88,58,227,*6E
$GLGSV,3,2,09,65,41,022,,87,22,181,,76,13,143,,72,08,057,*66
$GLGSV,3,3,09,67,01,262,*5A
$QZGSV,1,1,01,01,56,071,14*55
$BDGSV,3,1,10,206,70,000,,209,68,287,,203,52,167,,202,49,216,*6E
$BDGSV,3,2,10,208,44,165,,201,36,126,,205,31,244,,204,20,110,*60
$BDGSV,3,3,10,207,10,154,,210,02,178,*62
$GAGSV,2,1,06,109,64,316,,104,38,044,,105,25,261,,101,13,076,*68
$GAGSV,2,2,06,112,07,158,,111,53,189,*60
$GPGSA,A,3,05,10,13,15,20,21,24,29,,,,,2.3,1.3,1.9*37
$GNGSA,A,3,05,10,13,15,20,21,24,29,,,,,2.3,1.3,1.9*29
$GNGSA,A,3,66,75,81,,,,,,,,,,2.3,1.3,1.9*2C
$QZGSA,A,3,01,,,,,,,,,,,,2.3,1.3,1.9*24
$IMGSA,A,3,,,,,,,,,,,,,2.3,1.3,1.9*2A
$BDGSA,A,3,,,,,,,,,,,,,2.3,1.3,1.9*28
$GAGSA,A,3,,,,,,,,,,,,,2.3,1.3,1.9*28
$GPRMC,131905.00,A,3053.695856,N,10336.312081,E,002.4,,220718,,,A*7D
$GPGGA,131906.00,3053.698892,N,10336.313814,E,1,12,3.2,671.6,M,-32.8,M,,*4A
$GPGSV,3,1,10,15,63,027,18,21,61,309,15,24,46,141,23,20,36,308,19*78
$GPGSV,3,2,10,13,27,042,19,29,22,205,18,10,14,292,26,05,11,088,20*7B
$GPGSV,3,3,10,32,04,233,,27,04,321,*7E
$GLGSV,3,1,09,81,41,312,22,66,38,297,23,75,24,097,20,88,58,227,*66
$GLGSV,3,2,09,65,41,022,,87,22,181,,76,13,143,,72,08,057,*66
$GLGSV,3,3,09,67,01,262,*5A
$QZGSV,1,1,01,01,56,071,13*52
$BDGSV,3,1,10,206,70,000,,209,68,287,,203,52,167,,202,49,216,*6E
$BDGSV,3,2,10,208,44,165,,201,36,126,,205,31,244,,204,20,110,*60
$BDGSV,3,3,10,207,10,154,,210,02,178,*62
$GAGSV,2,1,06,109,64,316,,104,38,044,,105,25,261,,101,13,076,*68
$GAGSV,2,2,06,112,07,158,,111,53,189,*60
$GPGSA,A,3,05,10,13,15,20,21,24,29,,,,,2.0,1.2,1.6*3A
$GNGSA,A,3,05,10,13,15,20,21,24,29,,,,,2.0,1.2,1.6*24
$GNGSA,A,3,66,75,81,,,,,,,,,,2.0,1.2,1.6*21
$QZGSA,A,3,,,,,,,,,,,,,2.0,1.2,1.6*28
$IMGSA,A,3,,,,,,,,,,,,,2.0,1.2,1.6*27
$BDGSA,A,3,,,,,,,,,,,,,2.0,1.2,1.6*25
$GAGSA,A,3,,,,,,,,,,,,,2.0,1.2,1.6*25
$GPRMC,131906.00,A,3053.698892,N,10336.313814,E,002.4,,220718,,,A*7E
$GPGGA,131907.00,3053.701561,N,10336.315716,E,1,12,2.4,666.6,M,-32.8,M,,*41
$GPGSV,3,1,10,15,63,027,18,21,61,309,15,24,46,141,23,20,36,308,19*78
$GPGSV,3,2,10,13,27,042,19,29,22,205,18,10,14,292,28,05,11,088,20*75
$GPGSV,3,3,10,32,04,233,,27,04,321,*7E
$GLGSV,3,1,09,81,41,312,21,66,38,297,25,75,24,097,20,88,58,227,*63
$GLGSV,3,2,09,65,41,022,,87,22,181,,76,13,143,,72,08,057,*66
$GLGSV,3,3,09,67,01,262,*5A
$QZGSV,1,1,01,01,56,071,13*52
$BDGSV,3,1,10,206,70,000,,209,68,287,,203,52,167,,202,49,216,*6E
$BDGSV,3,2,10,208,44,165,,201,36,126,,205,31,244,,204,20,110,*60
$BDGSV,3,3,10,207,10,154,,210,02,178,*62
$GAGSV,2,1,06,109,64,316,,104,38,044,,105,25,261,,101,13,076,*68
$GAGSV,2,2,06,112,07,158,,111,53,189,*60
$GPGSA,A,3,05,10,13,15,20,21,24,29,,,,,1.8,0.9,1.6*3B
$GNGSA,A,3,05,10,13,15,20,21,24,29,,,,,1.8,0.9,1.6*25
$GNGSA,A,3,66,75,81,,,,,,,,,,1.8,0.9,1.6*20
$QZGSA,A,3,,,,,,,,,,,,,1.8,0.9,1.6*29
$IMGSA,A,3,,,,,,,,,,,,,1.8,0.9,1.6*26
$BDGSA,A,3,,,,,,,,,,,,,1.8,0.9,1.6*24
$GAGSA,A,3,,,,,,,,,,,,,1.8,0.9,1.6*24
$GPRMC,131907.00,A,3053.701561,N,10336.315716,E,002.4,,220718,,,A*74
$GPGGA,131908.00,3053.703442,N,10336.316080,E,1,13,2.4,662.7,M,-32.8,M,,*43
$GPGSV,3,1,10,15,63,027,17,21,61,309,15,24,46,141,23,20,36,308,20*7D
$GPGSV,3,2,10,13,27,042,18,29,22,205,18,10,14,292,29,05,11,088,20*75
$GPGSV,3,3,10,32,04,233,,27,04,321,*7E
$GLGSV,3,1,09,81,41,312,21,66,38,298,24,75,24,097,19,88,58,227,*67
$GLGSV,3,2,09,65,41,022,,87,22,181,,76,13,143,,72,08,057,*66
$GLGSV,3,3,09,67,01,262,*5A
$QZGSV,1,1,01,01,56,071,13*52
$BDGSV,3,1,10,206,70,000,,209,68,287,,203,52,167,,202,49,216,*6E
$BDGSV,3,2,10,208,44,165,,201,36,126,,205,31,244,,204,20,110,*60
$BDGSV,3,3,10,207,10,154,,210,02,178,*62
$GAGSV,2,1,06,109,64,316,,104,38,044,,105,25,261,,101,13,076,*68
$GAGSV,2,2,06,112,07,158,,111,53,189,*60
$GPGSA,A,3,05,10,13,15,20,21,24,29,,,,,1.8,0.9,1.6*3B
$GNGSA,A,3,05,10,13,15,20,21,24,29,,,,,1.8,0.9,1.6*25
$GNGSA,A,3,66,75,81,,,,,,,,,,1.8,0.9,1.6*20
$QZGSA,A,3,01,,,,,,,,,,,,1.8,0.9,1.6*28
$IMGSA,A,3,,,,,,,,,,,,,1.8,0.9,1.6*26
$BDGSA,A,3,,,,,,,,,,,,,1.8,0.9,1.6*24
$GAGSA,A,3,,,,,,,,,,,,,1.8,0.9,1.6*24
$GPRMC,131908.00,A,3053.703442,N,10336.316080,E,003.2,,220718,,,A*75
$GPGGA,131909.00,3053.702129,N,10336.314541,E,1,14,2.4,657.7,M,-32.8,M,,*40
$GPGSV,3,1,10,15,63,027,18,21,61,309,15,24,46,141,23,20,36,308,20*72
$GPGSV,3,2,10,13,27,042,18,29,22,205,18,10,14,292,30,05,11,088,20*7D
$GPGSV,3,3,10,32,04,233,,27,04,321,*7E
$GLGSV,3,1,09,81,41,312,22,66,38,298,24,75,24,097,19,87,22,181,16*6E
$GLGSV,3,2,09,88,58,227,,65,41,022,,76,13,143,,72,08,057,*6B
$GLGSV,3,3,09,67,01,262,*5A
$QZGSV,1,1,01,01,56,071,13*52
$BDGSV,3,1,10,206,70,000,,209,68,287,,203,52,167,,202,49,216,*6E
$BDGSV,3,2,10,208,44,165,,201,36,126,,205,31,244,,204,20,110,*60
$BDGSV,3,3,10,207,10,154,,210,02,178,*62
$GAGSV,2,1,06,109,64,316,,104,38,044,,105,25,261,,101,13,076,*68
$GAGSV,2,2,06,112,07,158,,111,53,189,*60
$GPGSA,A,3,05,10,13,15,20,21,24,29,,,,,1.9,1.2,1.4*32
$GNGSA,A,3,05,10,13,15,20,21,24,29,,,,,1.9,1.2,1.4*2C
$GNGSA,A,3,66,75,81,87,,,,,,,,,1.9,1.2,1.4*26
$QZGSA,A,3,01,,,,,,,,,,,,1.9,1.2,1.4*21
$IMGSA,A,3,,,,,,,,,,,,,1.9,1.2,1.4*2F
$BDGSA,A,3,,,,,,,,,,,,,1.9,1.2,1.4*2D
$GAGSA,A,3,,,,,,,,,,,,,1.9,1.2,1.4*2D
$GPRMC,131909.00,A,3053.702129,N,10336.314541,E,004.0,,220718,,,A*72
$GPGGA,131910.00,3053.702980,N,10336.313895,E,1,15,1.6,657.1,M,-32.8,M,,*46
$GPGSV,3,1,10,15,63,027,18,21,61,309,15,24,46,141,23,20,36,308,20*72
$GPGSV,3,2,10,13,27,042,18,29,22,205,18,10,14,292,29,05,11,088,20*75
$GPGSV,3,3,10,32,04,233,,27,04,321,*7E
$GLGSV,3,1,09,81,41,312,22,66,38,298,24,75,24,097,18,87,22,181,16*6F
$GLGSV,3,2,09,76,13,143,15,88,58,227,,65,41,022,,72,08,057,*6F
$GLGSV,3,3,09,67,01,262,*5A
$QZGSV,1,1,01,01,56,071,13*52
$BDGSV,3,1,10,206,70,000,,209,68,287,,203,52,167,,202,49,216,*6E
$BDGSV,3,2,10,208,44,165,,201,36,126,,205,31,244,,204,20,110,*60
$BDGSV,3,3,10,207,10,154,,210,02,178,*62
$GAGSV,2,1,06,109,64,316,,104,38,044,,105,25,261,,101,13,076,*68
$GAGSV,2,2,06,112,07,158,,111,53,189,*60
$GPGSA,A,3,05,10,13,15,20,21,24,29,,,,,1.8,0.9,1.5*38
$GNGSA,A,3,05,10,13,15,20,21,24,29,,,,,1.8,0.9,1.5*26
$GNGSA,A,3,66,75,76,81,87,,,,,,,,1.8,0.9,1.5*2D
$QZGSA,A,3,01,,,,,,,,,,,,1.8,0.9,1.5*2B
$IMGSA,A,3,,,,,,,,,,,,,1.8,0.9,1.5*25
$BDGSA,A,3,,,,,,,,,,,,,1.8,0.9,1.5*27
$GAGSA,A,3,,,,,,,,,,,,,1.8,0.9,1.5*27
$GPRMC,131910.00,A,3053.702980,N,10336.313895,E,003.6,,220718,,,A*73
$GPGGA,131911.00,3053.704490,N,10336.313280,E,1,15,1.6,658.9,M,-32.8,M,,*44
$GPGSV,3,1,10,15,63,027,17,21,61,309,15,24,46,141,23,20,36,308,20*7D
$GPGSV,3,2,10,13,27,042,18,29,22,205,18,10,14,292,29,05,11,088,20*75
$GPGSV,3,3,10,32,04,233,,27,04,321,*7E
$GLGSV,3,1,09,81,41,312,21,66,38,298,24,75,24,097,18,87,22,181,16*6C
$GLGSV,3,2,09,76,13,143,16,88,58,227,,65,41,022,,72,08,057,*6C
$GLGSV,3,3,09,67,01,262,*5A
$QZGSV,1,1,01,01,56,071,13*52
$BDGSV,3,1,10,206,70,000,,209,68,287,,203,52,167,,202,49,216,*6E
$BDGSV,3,2,10,208,44,165,,201,36,126,,205,31,244,,204,20,110,*60
$BDGSV,3,3,10,207,10,154,,210,02,178,*62
$GAGSV,2,1,06,109,64,316,,104,38,044,,105,25,261,,101,13,076,*68
$GAGSV,2,2,06,112,07,158,,111,53,189,*60
$GPGSA,A,3,05,10,13,15,20,21,24,29,,,,,1.7,0.9,1.4*36
$GNGSA,A,3,05,10,13,15,20,21,24,29,,,,,1.7,0.9,1.4*28
$GNGSA,A,3,66,75,76,81,87,,,,,,,,1.7,0.9,1.4*23
$QZGSA,A,3,01,,,,,,,,,,,,1.7,0.9,1.4*25
$IMGSA,A,3,,,,,,,,,,,,,1.7,0.9,1.4*2B
$BDGSA,A,3,,,,,,,,,,,,,1.7,0.9,1.4*29
$GAGSA,A,3,,,,,,,,,,,,,1.7,0.9,1.4*29
$GPRMC,131911.00,A,3053.704490,N,10336.313280,E,003.0,,220718,,,A*70
$GPGGA,131912.00,3053.705771,N,10336.312603,E,1,15,1.6,660.9,M,-32.8,M,,*4F
$GPGSV,3,1,10,15,63,027,17,21,61,309,15,24,46,141,22,20,36,308,20*7C
$GPGSV,3,2,10,13,27,042,17,29,22,205,18,10,14,292,29,05,11,088,20*7A
$GPGSV,3,3,10,32,04,233,,27,04,321,*7E
$GLGSV,3,1,09,81,41,312,21,66,38,298,24,75,24,097,17,87,22,181,16*63
$GLGSV,3,2,09,76,13,143,16,88,58,227,,65,41,022,,72,08,057,*6C
$GLGSV,3,3,09,67,01,262,*5A
$QZGSV,1,1,01,01,56,071,13*52
$BDGSV,3,1,10,206,70,000,,209,68,287,,203,52,167,,202,49,216,*6E
$BDGSV,3,2,10,208,44,165,,201,36,126,,205,31,244,,204,20,110,*60
$BDGSV,3,3,10,207,10,154,,210,02,178,*62
$GAGSV,2,1,06,109,64,316,,104,38,044,,105,25,261,,101,13,076,*68
$GAGSV,2,2,06,112,07,158,,111,53,189,*60
$GPGSA,A,3,05,10,13,15,20,21,24,29,,,,,2.2,1.6,1.5*3F
$GNGSA,A,3,05,10,13,15,20,21,24,29,,,,,2.2,1.6,1.5*21
$GNGSA,A,3,66,75,76,81,87,,,,,,,,2.2,1.6,1.5*2A
$QZGSA,A,3,01,,,,,,,,,,,,2.2,1.6,1.5*2C
$IMGSA,A,3,,,,,,,,,,,,,2.2,1.6,1.5*22
$BDGSA,A,3,,,,,,,,,,,,,2.2,1.6,1.5*20
$GAGSA,A,3,,,,,,,,,,,,,2.2,1.6,1.5*20
$GPRMC,131912.00,A,3053.705771,N,10336.312603,E,003.6,,220718,,,A*76
$GPGGA,131913.00,3053.706539,N,10336.311416,E,1,15,1.6,662.9,M,-32.8,M,,*44
$GPGSV,3,1,10,15,63,027,17,21,61,309,15,24,46,141,22,20,36,308,19*76
$GPGSV,3,2,10,13,27,042,17,29,22,205,18,10,14,292,28,05,11,088,19*71
$GPGSV,3,3,10,32,04,233,,27,04,321,*7E
$GLGSV,3,1,09,81,41,312,21,66,38,298,24,75,24,097,17,87,22,181,16*63
$GLGSV,3,2,09,76,13,143,15,88,58,227,,65,41,022,,72,08,057,*6F
$GLGSV,3,3,09,67,01,262,*5A
$QZGSV,1,1,01,01,56,071,13*52
$BDGSV,3,1,10,206,70,000,,209,68,287,,203,52,167,,202,49,216,*6E
$BDGSV,3,2,10,208,44,165,,201,36,126,,205,31,244,,204,20,110,*60
$BDGSV,3,3,10,207,10,154,,210,02,178,*62
$GAGSV,2,1,06,109,64,317,,104,38,044,,105,25,261,,101,13,076,*69
$GAGSV,2,2,06,112,07,158,,111,53,189,*60
$GPGSA,A,3,05,10,13,15,20,21,24,29,,,,,1.9,1.3,1.4*33
$GNGSA,A,3,05,10,13,15,20,21,24,29,,,,,1.9,1.3,1.4*2D
$GNGSA,A,3,66,75,76,81,87,,,,,,,,1.9,1.3,1.4*26
$QZGSA,A,3,01,,,,,,,,,,,,1.9,1.3,1.4*20
$IMGSA,A,3,,,,,,,,,,,,,1.9,1.3,1.4*2E
$BDGSA,A,3,,,,,,,,,,,,,1.9,1.3,1.4*2C
$GAGSA,A,3,,,,,,,,,,,,,1.9,1.3,1.4*2C
$GPRMC,131913.00,A,3053.706539,N,10336.311416,E,004.2,,220718,,,A*7C
$GPGGA,131914.00,3053.708033,N,10336.310717,E,1,15,1.2,665.9,M,-32.8,M,,*42
$GPGSV,3,1,10,15,63,027,17,21,61,309,15,24,46,141,22,20,36,308,19*76
$GPGSV,3,2,10,13,27,042,16,29,22,205,18,10,14,292,28,05,10,088,19*71
$GPGSV,3,3,10,32,04,233,,27,04,321,*7E
$GLGSV,3,1,09,81,41,312,21,66,38,298,23,75,24,097,17,87,22,181,16*64
$GLGSV,3,2,09,76,13,143,15,88,58,227,,65,41,022,,72,08,057,*6F
$GLGSV,3,3,09,67,01,262,*5A
$QZGSV,1,1,01,01,56,071,13*52
$BDGSV,3,1,10,206,70,000,,209,68,287,,203,52,167,,202,49,216,*6E
$BDGSV,3,2,10,208,44,165,,201,36,126,,205,31,244,,204,20,110,*60
$BDGSV,3,3,10,207,10,154,,210,02,178,*62
$GAGSV,2,1,06,109,64,317,,104,38,044,,105,25,261,,101,13,076,*69
$GAGSV,2,2,06,112,07,158,,111,53,189,*60
$GPGSA,A,3,05,10,13,15,20,21,24,29,,,,,1.7,1.0,1.4*3E
$GNGSA,A,3,05,10,13,15,20,21,24,29,,,,,1.7,1.0,1.4*20
$GNGSA,A,3,66,75,76,81,87,,,,,,,,1.7,1.0,1.4*2B
$QZGSA,A,3,01,,,,,,,,,,,,1.7,1.0,1.4*2D
$IMGSA,A,3,,,,,,,,,,,,,1.7,1.0,1.4*23
$BDGSA,A,3,,,,,,,,,,,,,1.7,1.0,1.4*21
$GAGSA,A,3,,,,,,,,,,,,,1.7,1.0,1.4*21
$GPRMC,131914.00,A,3053.708033,N,10336.310717,E,002.5,,220718,,,A*78
$GPGGA,131915.00,3053.708055,N,10336.310709,E,1,15,1.2,668.2,M,-32.8,M,,*4A
$GPGSV,3,1,10,15,63,027,17,21,61,309,15,24,46,141,23,20,36,308,19*77
$GPGSV,3,2,10,13,27,042,16,29,22,205,18,10,14,292,29,05,10,088,19*70
$GPGSV,3,3,10,32,04,233,,27,04,321,*7E
$GLGSV,3,1,09,81,41,312,20,66,38,298,24,75,24,097,16,87,22,181,16*63
$GLGSV,3,2,09,76,13,143,15,88,58,227,,65,41,022,,72,08,057,*6F
$GLGSV,3,3,09,67,01,262,*5A
$QZGSV,1,1,01,01,56,071,13*52
$BDGSV,3,1,10,206,70,000,,209,68,287,,203,52,167,,202,49,216,*6E
$BDGSV,3,2,10,208,44,165,,201,36,126,,205,31,244,,204,20,110,*60
$BDGSV,3,3,10,207,10,154,,210,02,178,*62
$GAGSV,2,1,06,109,64,317,,104,38,044,,105,25,261,,101,13,076,*69
$GAGSV,2,2,06,112,07,158,,111,53,189,*60
$GPGSA,A,3,05,10,13,15,20,21,24,29,,,,,2.2,0.9,2.0*37
$GNGSA,A,3,05,10,13,15,20,21,24,29,,,,,2.2,0.9,2.0*29
$GNGSA,A,3,66,75,76,81,87,,,,,,,,2.2,0.9,2.0*22
$QZGSA,A,3,01,,,,,,,,,,,,2.2,0.9,2.0*24
$IMGSA,A,3,,,,,,,,,,,,,2.2,0.9,2.0*2A
$BDGSA,A,3,,,,,,,,,,,,,2.2,0.9,2.0*28
$GAGSA,A,3,,,,,,,,,,,,,2.2,0.9,2.0*28
$GPRMC,131915.00,A,3053.708055,N,10336.310709,E,002.4,021.9,220718,,,A*53
$GPGGA,131916.00,3053.708726,N,10336.309667,E,1,14,1.2,670.1,M,-32.8,M,,*40
$GPGSV,3,1,10,15,63,027,17,21,61,309,15,24,46,141,23,20,36,308,19*77
$GPGSV,3,2,10,13,27,042,16,29,22,205,17,10,14,292,32,05,10,088,19*75
$GPGSV,3,3,10,32,04,233,,27,04,321,*7E
$GLGSV,3,1,09,81,41,312,20,66,38,298,24,75,24,097,16,87,22,181,16*63
$GLGSV,3,2,09,76,13,143,15,88,58,227,,65,41,022,,72,08,057,*6F
$GLGSV,3,3,09,67,01,262,*5A
$QZGSV,1,1,01,01,56,071,13*52
$BDGSV,3,1,10,206,70,000,,209,68,287,,203,52,167,,202,49,216,*6E
$BDGSV,3,2,10,208,44,165,,201,36,126,,205,31,244,,204,20,110,*60
$BDGSV,3,3,10,207,10,154,,210,02,178,*62
$GAGSV,2,1,06,109,64,317,,104,38,044,,105,25,261,,101,13,076,*69
$GAGSV,2,2,06,112,07,158,,111,53,189,*60
$GPGSA,A,3,05,10,13,15,20,21,24,29,,,,,1.9,1.1,1.6*33
$GNGSA,A,3,05,10,13,15,20,21,24,29,,,,,1.9,1.1,1.6*2D
$GNGSA,A,3,66,75,76,81,87,,,,,,,,1.9,1.1,1.6*26
$QZGSA,A,3,,,,,,,,,,,,,1.9,1.1,1.6*21
$IMGSA,A,3,,,,,,,,,,,,,1.9,1.1,1.6*2E
$BDGSA,A,3,,,,,,,,,,,,,1.9,1.1,1.6*2C
$GAGSA,A,3,,,,,,,,,,,,,1.9,1.1,1.6*2C
$GPRMC,131916.00,A,3053.708726,N,10336.309667,E,004.6,009.9,220718,,,A*5C
$GPGGA,131917.00,3053.710426,N,10336.309115,E,1,14,1.2,673.8,M,-32.8,M,,*43
$GPGSV,3,1,10,15,63,027,18,21,61,309,15,24,46,141,23,20,36,308,19*78
$GPGSV,3,2,10,13,27,042,16,29,22,205,17,10,14,292,32,05,10,088,18*74
$GPGSV,3,3,10,32,04,233,,27,04,321,*7E
$GLGSV,3,1,09,81,41,312,22,66,38,298,24,75,24,097,16,87,22,181,16*61
$GLGSV,3,2,09,76,13,143,15,88,58,227,,65,41,022,,72,08,057,*6F
$GLGSV,3,3,09,67,01,262,*5A
$QZGSV,1,1,01,01,56,071,13*52
$BDGSV,3,1,10,206,70,000,,209,68,287,,203,52,167,,202,49,216,*6E
$BDGSV,3,2,10,208,44,165,,201,36,126,,205,31,244,,204,20,110,*60
$BDGSV,3,3,10,207,10,154,,210,02,178,*62
$GAGSV,2,1,06,109,64,317,,104,38,044,,105,25,261,,101,13,076,*69
$GAGSV,2,2,06,112,07,158,,111,53,189,*60
$GPGSA,A,3,05,10,13,15,20,21,24,29,,,,,1.9,1.0,1.6*32
$GNGSA,A,3,05,10,13,15,20,21,24,29,,,,,1.9,1.0,1.6*2C
$GNGSA,A,3,66,75,76,81,87,,,,,,,,1.9,1.0,1.6*27
$QZGSA,A,3,01,,,,,,,,,,,,1.9,1.0,1.6*21
$IMGSA,A,3,,,,,,,,,,,,,1.9,1.0,1.6*2F
$BDGSA,A,3,,,,,,,,,,,,,1.9,1.0,1.6*2D
$GAGSA,A,3,,,,,,,,,,,,,1.9,1.0,1.6*2D
$GPRMC,131917.00,A,3053.710426,N,10336.309115,E,002.1,003.4,220718,,,A*53
$GPGGA,131918.00,3053.710841,N,10336.308908,E,1,15,1.2,673.7,M,-32.8,M,,*4A
$GPGSV,3,1,10,15,63,027,18,21,61,309,15,24,46,141,23,20,36,308,19*78
$GPGSV,3,2,10,13,27,042,15,29,22,205,17,10,14,292,31,05,10,088,19*75
$GPGSV,3,3,10,32,04,233,,27,04,321,*7E
$GLGSV,3,1,09,81,41,312,22,66,38,298,23,75,24,097,16,87,22,181,16*66
$GLGSV,3,2,09,76,13,143,15,88,58,227,,65,41,022,,72,08,057,*6F
$GLGSV,3,3,09,67,01,262,*5A
$QZGSV,1,1,01,01,56,071,13*52
$BDGSV,3,1,10,206,70,000,,209,68,287,,203,52,167,,202,49,216,*6E
$BDGSV,3,2,10,208,44,165,,201,36,126,,205,31,244,,204,20,110,*60
$BDGSV,3,3,10,207,10,154,,210,02,178,*62
$GAGSV,2,1,06,109,64,317,,104,38,044,,105,25,261,,101,13,076,*69
$GAGSV,2,2,06,112,07,158,,111,53,189,*60
$GPGSA,A,3,05,10,13,15,20,21,24,29,,,,,1.9,1.0,1.6*32
$GNGSA,A,3,05,10,13,15,20,21,24,29,,,,,1.9,1.0,1.6*2C
$GNGSA,A,3,66,75,76,81,87,,,,,,,,1.9,1.0,1.6*27
$QZGSA,A,3,01,,,,,,,,,,,,1.9,1.0,1.6*21
$IMGSA,A,3,,,,,,,,,,,,,1.9,1.0,1.6*2F
$BDGSA,A,3,,,,,,,,,,,,,1.9,1.0,1.6*2D
$GAGSA,A,3,,,,,,,,,,,,,1.9,1.0,1.6*2D
$GPRMC,131918.00,A,3053.710841,N,10336.308908,E,004.8,015.2,220718,,,A*5A
$GPGGA,131919.00,3053.710962,N,10336.308760,E,1,15,1.2,674.5,M,-32.8,M,,*4E
$GPGSV,3,1,10,15,63,027,18,21,61,309,14,24,47,141,23,20,36,308,19*78
$GPGSV,3,2,10,13,27,042,15,29,22,205,17,10,14,292,31,05,10,088,19*75
$GPGSV,3,3,10,32,04,233,,27,04,321,*7E
$GLGSV,3,1,09,81,41,312,22,66,38,298,23,75,24,097,16,87,22,181,16*66
$GLGSV,3,2,09,76,13,143,15,88,58,227,,65,41,023,,72,08,057,*6E
$GLGSV,3,3,09,67,01,262,*5A
$QZGSV,1,1,01,01,56,072,14*56
$BDGSV,3,1,10,206,70,000,,209,68,287,,203,52,167,,202,49,216,*6E
$BDGSV,3,2,10,208,44,165,,201,36,126,,205,31,244,,204,20,110,*60
$BDGSV,3,3,10,207,10,154,,210,02,178,*62
$GAGSV,2,1,06,109,64,317,,104,38,044,,105,25,261,,101,13,076,*69
$GAGSV,2,2,06,112,07,158,,111,53,189,*60
$GPGSA,A,3,05,10,13,15,20,21,24,29,,,,,1.8,1.0,1.5*30
$GNGSA,A,3,05,10,13,15,20,21,24,29,,,,,1.8,1.0,1.5*2E
$GNGSA,A,3,66,75,76,81,87,,,,,,,,1.8,1.0,1.5*25
$QZGSA,A,3,01,,,,,,,,,,,,1.8,1.0,1.5*23
$IMGSA,A,3,,,,,,,,,,,,,1.8,1.0,1.5*2D
$BDGSA,A,3,,,,,,,,,,,,,1.8,1.0,1.5*2F
$GAGSA,A,3,,,,,,,,,,,,,1.8,1.0,1.5*2F
$GPRMC,131919.00,A,3053.710962,N,10336.308760,E,002.7,017.9,220718,,,A*5B
$GPGGA,131920.00,3053.711395,N,10336.308541,E,1,15,1.2,676.7,M,-32.8,M,,*46
$GPGSV,3,1,10,15,63,027,18,21,61,309,14,24,47,141,22,20,37,308,19*78
$GPGSV,3,2,10,13,27,042,15,29,22,205,17,10,14,292,31,05,10,088,19*75
$GPGSV,3,3,10,32,04,233,,27,04,321,*7E
$GLGSV,3,1,09,81,41,312,21,66,38,298,23,75,24,097,16,87,22,181,16*65
$GLGSV,3,2,09,76,13,143,15,88,58,227,,65,41,023,,72,08,057,*6E
$GLGSV,3,3,09,67,01,262,*5A
$QZGSV,1,1,01,01,56,072,14*56
$BDGSV,3,1,10,206,70,000,,209,68,287,,203,52,167,,202,49,216,*6E
$BDGSV,3,2,10,208,44,165,,201,36,126,,205,31,244,,204,20,110,*60
$BDGSV,3,3,10,207,10,154,,210,02,178,*62
$GAGSV,2,1,06,109,64,317,,104,38,044,,105,25,261,,101,13,076,*69
$GAGSV,2,2,06,112,07,158,,111,53,189,*60
$GPGSA,A,3,05,10,13,15,20,21,24,29,,,,,1.9,1.0,1.6*32
$GNGSA,A,3,05,10,13,15,20,21,24,29,,,,,1.9,1.0,1.6*2C
$GNGSA,A,3,66,75,76,81,87,,,,,,,,1.9,1.0,1.6*27
$QZGSA,A,3,01,,,,,,,,,,,,1.9,1.0,1.6*21
$IMGSA,A,3,,,,,,,,,,,,,1.9,1.0,1.6*2F
$BDGSA,A,3,,,,,,,,,,,,,1.9,1.0,1.6*2D
$GAGSA,A,3,,,,,,,,,,,,,1.9,1.0,1.6*2D
$GPRMC,131920.00,A,3053.711395,N,10336.308541,E,005.1,018.8,220718,,,A*5C
$GPGGA,131921.00,3053.713326,N,10336.308939,E,1,19,1.2,677.3,M,-32.8,M,,*47
$GPGSV,3,1,10,15,63,027,17,21,61,309,14,24,47,141,22,20,37,308,19*77
$GPGSV,3,2,10,13,27,042,15,29,22,205,16,10,14,292,30,05,10,088,18*74
$GPGSV,3,3,10,32,04,233,,27,04,321,*7E
$GLGSV,3,1,09,88,58,227,08,81,41,312,21,65,41,023,,66,38,298,23*6D
$GLGSV,3,2,09,75,24,097,15,87,22,181,16,76,13,143,15,72,08,057,*6D
$GLGSV,3,3,09,67,01,262,*5A
$QZGSV,1,1,01,01,56,072,14*56
$BDGSV,3,1,10,206,70,000,,209,68,287,,203,52,167,,202,49,216,*6E
$BDGSV,3,2,10,208,44,165,,201,36,126,,205,31,244,,204,20,110,*60
$BDGSV,3,3,10,207,10,154,,210,02,178,*62
$GAGSV,2,1,06,109,64,317,31,104,38,044,31,105,25,261,27,101,13,076,32*6D
$GAGSV,2,2,06,112,07,158,,111,53,189,*60
$GPGSA,A,3,05,10,13,15,20,21,24,29,,,,,2.2,1.6,1.5*3F
$GNGSA,A,3,05,10,13,15,20,21,24,29,,,,,2.2,1.6,1.5*21
$GNGSA,A,3,66,75,76,81,87,,,,,,,,2.2,1.6,1.5*2A
$QZGSA,A,3,01,,,,,,,,,,,,2.2,1.6,1.5*2C
$IMGSA,A,3,,,,,,,,,,,,,2.2,1.6,1.5*22
$BDGSA,A,3,,,,,,,,,,,,,2.2,1.6,1.5*20
$GAGSA,A,3,101,104,105,109,,,,,,,,,2.2,1.6,1.5*29
$GPRMC,131921.00,A,3053.713326,N,10336.308939,E,007.2,009.6,220718,,,A*5B
$GPGGA,131922.00,3053.716083,N,10336.309470,E,1,21,1.6,679.5,M,-32.8,M,,*4B
$GPGSV,3,1,10,15,63,027,17,21,61,309,14,24,47,141,22,20,37,308,18*76
$GPGSV,3,2,10,13,27,042,15,29,22,205,16,10,14,292,30,05,10,088,18*74
$GPGSV,3,3,10,32,04,233,,27,04,321,*7E
$GLGSV,3,1,09,88,58,227,08,81,41,312,20,65,41,023,,66,38,298,23*6C
$GLGSV,3,2,09,75,24,097,15,87,22,181,15,76,13,143,15,72,08,057,*6E
$GLGSV,3,3,09,67,01,262,14*5F
$QZGSV,1,1,01,01,56,072,14*56
$BDGSV,3,1,10,206,70,000,,209,68,287,,203,52,167,,202,49,216,*6E
$BDGSV,3,2,10,208,44,165,,201,36,126,,205,31,244,,204,20,110,*60
$BDGSV,3,3,10,207,10,154,,210,02,178,*62
$GAGSV,2,1,06,109,64,317,30,104,38,044,31,105,25,261,26,101,13,076,31*6E
$GAGSV,2,2,06,112,07,158,26,111,53,189,*64
$GPGSA,A,3,05,10,13,15,20,21,24,29,,,,,1.9,1.0,1.6*32
$GNGSA,A,3,05,10,13,15,20,21,24,29,,,,,1.9,1.0,1.6*2C
$GNGSA,A,3,66,67,75,76,81,87,,,,,,,1.9,1.0,1.6*26
$QZGSA,A,3,01,,,,,,,,,,,,1.9,1.0,1.6*21
$IMGSA,A,3,,,,,,,,,,,,,1.9,1.0,1.6*2F
$BDGSA,A,3,,,,,,,,,,,,,1.9,1.0,1.6*2D
$GAGSA,A,3,101,104,105,109,112,,,,,,,,1.9,1.0,1.6*16
$GPRMC,131922.00,A,3053.716083,N,10336.309470,E,006.6,015.2,220718,,,A*5C
$GPGGA,131923.00,3053.718920,N,10336.310281,E,1,20,1.6,681.7,M,-32.8,M,,*40
$GPGSV,3,1,10,15,63,027,17,21,61,309,14,24,47,141,22,20,37,308,19*77
$GPGSV,3,2,10,13,27,042,15,29,22,205,16,10,14,292,29,05,10,088,18*7C
$GPGSV,3,3,10,32,04,233,,27,04,321,*7E
$GLGSV,3,1,09,88,58,227,08,81,41,312,20,65,41,023,,66,38,298,24*6B
$GLGSV,3,2,09,75,24,097,15,87,22,181,15,76,13,143,15,72,08,057,*6E
$GLGSV,3,3,09,67,01,262,14*5F
$QZGSV,1,1,01,01,56,072,15*57
$BDGSV,3,1,10,206,70,000,,209,68,287,,203,52,167,,202,49,216,*6E
$BDGSV,3,2,10,208,44,165,,201,36,126,,205,31,244,,204,20,110,*60
$BDGSV,3,3,10,207,10,154,,210,02,178,*62
$GAGSV,2,1,06,109,64,317,29,104,38,044,30,105,25,261,25,101,13,076,30*65
$GAGSV,2,2,06,112,07,158,26,111,53,189,*64
$GPGSA,A,3,05,10,13,15,20,21,24,29,,,,,2.1,1.6,1.4*3D
$GNGSA,A,3,05,10,13,15,20,21,24,29,,,,,2.1,1.6,1.4*23
$GNGSA,A,3,66,75,76,81,87,,,,,,,,2.1,1.6,1.4*28
$QZGSA,A,3,01,,,,,,,,,,,,2.1,1.6,1.4*2E
$IMGSA,A,3,,,,,,,,,,,,,2.1,1.6,1.4*20
$BDGSA,A,3,,,,,,,,,,,,,2.1,1.6,1.4*22
$GAGSA,A,3,101,104,105,109,112,,,,,,,,2.1,1.6,1.4*19
$GPRMC,131923.00,A,3053.718920,N,10336.310281,E,007.7,013.1,220718,,,A*56
$GPGGA,131924.00,3053.722273,N,10336.311004,E,1,20,1.6,683.4,M,-32.8,M,,*4C
$GPGSV,3,1,10,15,63,027,17,21,61,309,14,24,47,141,22,20,37,308,19*77
$GPGSV,3,2,10,13,27,042,15,29,22,205,16,10,14,292,29,05,10,088,18*7C
$GPGSV,3,3,10,32,04,233,,27,04,321,*7E
$GLGSV,3,1,09,88,58,227,08,81,41,312,20,65,41,023,,66,38,298,24*6B
$GLGSV,3,2,09,75,24,097,15,87,22,181,15,76,13,143,15,72,08,057,*6E
$GLGSV,3,3,09,67,01,262,14*5F
$QZGSV,1,1,01,01,56,072,15*57
$BDGSV,3,1,10,206,70,000,,209,68,287,,203,52,167,,202,49,216,*6E
$BDGSV,3,2,10,208,44,165,,201,36,126,,205,31,244,,204,20,110,*60
$BDGSV,3,3,10,207,10,154,,210,02,178,*62
$GAGSV,2,1,06,109,64,317,28,104,38,044,29,105,25,261,24,101,13,076,29*65
$GAGSV,2,2,06,112,07,158,25,111,53,189,*67
$GPGSA,A,3,05,10,13,15,20,21,24,29,,,,,2.2,1.6,1.5*3F
$GNGSA,A,3,05,10,13,15,20,21,24,29,,,,,2.2,1.6,1.5*21
$GNGSA,A,3,66,75,76,81,87,,,,,,,,2.2,1.6,1.5*2A
$QZGSA,A,3,01,,,,,,,,,,,,2.2,1.6,1.5*2C
$IMGSA,A,3,,,,,,,,,,,,,2.2,1.6,1.5*22
$BDGSA,A,3,,,,,,,,,,,,,2.2,1.6,1.5*20
$GAGSA,A,3,101,104,105,109,112,,,,,,,,2.2,1.6,1.5*1B
$GPRMC,131924.00,A,3053.722273,N,10336.311004,E,008.5,010.9,220718,,,A*5D
$GPGGA,131925.00,3053.725771,N,10336.311852,E,1,21,1.6,685.2,M,-32.8,M,,*47
$GPGSV,3,1,10,15,63,027,17,21,61,309,14,24,47,141,22,20,37,308,19*77
$GPGSV,3,2,10,13,27,042,15,29,22,205,15,10,14,292,28,05,10,088,18*7E
$GPGSV,3,3,10,32,04,233,,27,04,321,*7E
$GLGSV,3,1,09,88,57,227,08,81,41,312,21,65,41,023,08,66,38,298,24*6D
$GLGSV,3,2,09,75,24,097,15,87,22,181,15,76,13,143,15,72,08,057,*6E
$GLGSV,3,3,09,67,01,262,13*58
$QZGSV,1,1,01,01,56,072,15*57
$BDGSV,3,1,10,206,70,000,,209,68,287,,203,52,167,,202,49,216,*6E
$BDGSV,3,2,10,208,44,165,,201,36,126,,205,31,244,,204,20,110,*60
$BDGSV,3,3,10,207,10,154,,210,02,178,*62
$GAGSV,2,1,06,109,64,317,27,104,38,044,28,105,25,261,24,101,13,076,27*65
$GAGSV,2,2,06,112,07,158,24,111,53,189,*66
$GPGSA,A,3,05,10,13,15,20,21,24,29,,,,,2.0,1.5,1.3*38
$GNGSA,A,3,05,10,13,15,20,21,24,29,,,,,2.0,1.5,1.3*26
$GNGSA,A,3,66,75,76,81,87,,,,,,,,2.0,1.5,1.3*2D
$QZGSA,A,3,01,,,,,,,,,,,,2.0,1.5,1.3*2B
$IMGSA,A,3,,,,,,,,,,,,,2.0,1.5,1.3*25
$BDGSA,A,3,,,,,,,,,,,,,2.0,1.5,1.3*27
$GAGSA,A,3,101,104,105,109,112,,,,,,,,2.0,1.5,1.3*1C
$GPRMC,131925.00,A,3053.725771,N,10336.311852,E,009.2,012.2,220718,,,A*58
$GPGGA,131926.00,3053.729610,N,10336.312924,E,1,19,1.6,687.5,M,-32.8,M,,*43
$GPGSV,3,1,10,15,63,027,17,21,61,309,14,24,47,141,21,20,37,308,19*74
$GPGSV,3,2,10,13,27,042,15,29,22,205,15,10,14,292,28,05,10,088,18*7E
$GPGSV,3,3,10,32,04,233,,27,04,321,*7E
$GLGSV,3,1,09,88,57,227,,81,41,312,23,65,41,023,,66,38,298,24*6F
$GLGSV,3,2,09,75,24,097,15,87,22,181,15,76,13,143,14,72,08,057,*6F
$GLGSV,3,3,09,67,01,262,13*58
$QZGSV,1,1,01,01,56,072,15*57
$BDGSV,3,1,10,206,70,000,,209,68,287,,203,52,167,,202,49,216,*6E
$BDGSV,3,2,10,208,44,165,,201,36,126,,205,31,244,,204,20,110,*60
$BDGSV,3,3,10,207,10,154,,210,02,178,*62
$GAGSV,2,1,06,109,64,317,26,104,38,044,26,105,25,261,23,101,13,076,26*6C
$GAGSV,2,2,06,112,07,158,22,111,53,189,*60
$GPGSA,A,3,05,10,13,15,20,21,24,29,,,,,2.1,1.6,1.4*3D
$GNGSA,A,3,05,10,13,15,20,21,24,29,,,,,2.1,1.6,1.4*23
$GNGSA,A,3,66,75,76,81,87,,,,,,,,2.1,1.6,1.4*28
$QZGSA,A,3,01,,,,,,,,,,,,2.1,1.6,1.4*2E
$IMGSA,A,3,,,,,,,,,,,,,2.1,1.6,1.4*20
$BDGSA,A,3,,,,,,,,,,,,,2.1,1.6,1.4*22
$GAGSA,A,3,101,104,105,109,,,,,,,,,2.1,1.6,1.4*2B
$GPRMC,131926.00,A,3053.729610,N,10336.312924,E,009.9,015.7,220718,,,A*5B
$GPGGA,131927.00,3053.732905,N,10336.314089,E,1,18,1.6,689.7,M,-32.8,M,,*46
$GPGSV,3,1,10,15,63,027,16,21,61,309,14,24,47,141,21,20,37,308,19*75
$GPGSV,3,2,10,13,27,042,14,29,22,205,15,10,14,292,28,05,10,088,18*7F
$GPGSV,3,3,10,32,04,233,,27,04,321,*7E
$GLGSV,3,1,09,88,57,227,,81,41,312,23,65,41,023,,66,38,298,24*6F
$GLGSV,3,2,09,75,24,097,15,87,22,181,15,76,13,143,14,72,08,057,*6F
$GLGSV,3,3,09,67,01,262,12*59
$QZGSV,1,1,01,01,56,072,15*57
$BDGSV,3,1,10,206,70,000,,209,68,287,,203,52,167,,202,49,216,*6E
$BDGSV,3,2,10,208,44,165,,201,36,126,,205,31,244,,204,20,110,*60
$BDGSV,3,3,10,207,10,154,,210,02,178,*62
$GAGSV,2,1,06,109,64,317,24,104,38,044,25,105,25,261,22,101,13,076,25*6F
$GAGSV,2,2,06,112,07,158,21,111,53,189,*63
$GPGSA,A,3,05,10,13,15,20,21,24,29,,,,,2.2,1.6,1.5*3F
$GNGSA,A,3,05,10,13,15,20,21,24,29,,,,,2.2,1.6,1.5*21
$GNGSA,A,3,66,75,81,87,,,,,,,,,2.2,1.6,1.5*2B
$QZGSA,A,3,01,,,,,,,,,,,,2.2,1.6,1.5*2C
$IMGSA,A,3,,,,,,,,,,,,,2.2,1.6,1.5*22
$BDGSA,A,3,,,,,,,,,,,,,2.2,1.6,1.5*20
$GAGSA,A,3,101,104,105,109,,,,,,,,,2.2,1.6,1.5*29
$GPRMC,131927.00,A,3053.732905,N,10336.314089,E,009.7,015.5,220718,,,A*5F
$GPGGA,131928.00,3053.736010,N,10336.315041,E,1,18,1.6,691.1,M,-32.8,M,,*4A
$GPGSV,3,1,10,15,63,027,16,21,61,309,14,24,47,141,21,20,37,308,18*74
$GPGSV,3,2,10,13,27,042,14,29,22,205,15,10,14,292,28,05,10,088,18*7F
$GPGSV,3,3,10,32,04,233,,27,04,321,*7E
$GLGSV,3,1,09,88,57,227,08,81,41,312,22,65,41,023,,66,38,298,24*66
$GLGSV,3,2,09,75,24,097,15,87,22,181,15,76,13,143,14,72,08,057,*6F
$GLGSV,3,3,09,67,01,262,*5A
$QZGSV,1,1,01,01,56,072,16*54
$BDGSV,3,1,10,206,70,000,,209,68,287,,203,52,167,,202,49,216,*6E
$BDGSV,3,2,10,208,44,165,,201,36,126,,205,31,244,,204,20,110,*60
$BDGSV,3,3,10,207,10,154,,210,02,178,*62
$GAGSV,2,1,06,109,64,317,23,104,38,044,24,105,25,261,21,101,13,076,23*6C
$GAGSV,2,2,06,112,07,158,20,111,53,189,*62
$GPGSA,A,3,05,10,13,15,20,21,24,29,,,,,2.1,1.5,1.4*3E
$GNGSA,A,3,05,10,13,15,20,21,24,29,,,,,2.1,1.5,1.4*20
$GNGSA,A,3,66,75,81,87,,,,,,,,,2.1,1.5,1.4*2A
$QZGSA,A,3,01,,,,,,,,,,,,2.1,1.5,1.4*2D
$IMGSA,A,3,,,,,,,,,,,,,2.1,1.5,1.4*23
$BDGSA,A,3,,,,,,,,,,,,,2.1,1.5,1.4*21
$GAGSA,A,3,101,104,105,109,,,,,,,,,2.1,1.5,1.4*28
$GPRMC,131928.00,A,3053.736010,N,10336.315041,E,009.8,014.3,220718,,,A*54
$GPGGA,131929.00,3053.738798,N,10336.315785,E,1,18,1.6,691.7,M,-32.8,M,,*4B
$GPGSV,3,1,10,15,63,027,16,21,61,309,14,24,47,141,20,20,37,308,18*75
$GPGSV,3,2,10,13,27,042,14,29,22,205,14,10,14,292,27,05,10,088,18*71
$GPGSV,3,3,10,27,04,321,,32,04,233,*7E
$GLGSV,3,1,10,88,57,227,09,81,41,312,22,65,41,023,,66,38,298,24*6F
$GLGSV,3,2,10,75,24,097,16,87,22,181,15,76,13,143,13,72,08,057,12*60
$GLGSV,3,3,10,67,01,262,,82,00,338,*60
$QZGSV,1,1,01,01,56,072,15*57
$BDGSV,3,1,09,206,70,000,,209,68,287,,203,52,167,,202,49,216,*66
$BDGSV,3,2,09,208,44,165,,201,36,126,,205,31,244,,204,20,110,*68
$BDGSV,3,3,09,207,10,154,*65
$GAGSV,2,1,06,109,64,317,23,104,38,044,23,105,25,261,20,101,13,076,22*6B
$GAGSV,2,2,06,112,07,158,19,111,53,189,*68
$GPGSA,A,3,05,10,13,15,20,21,24,29,,,,,2.0,1.5,1.3*38
$GNGSA,A,3,05,10,13,15,20,21,24,29,,,,,2.0,1.5,1.3*26
$GNGSA,A,3,66,75,81,87,,,,,,,,,2.0,1.5,1.3*2C
$QZGSA,A,3,01,,,,,,,,,,,,2.0,1.5,1.3*2B
$IMGSA,A,3,,,,,,,,,,,,,2.0,1.5,1.3*25
$BDGSA,A,3,,,,,,,,,,,,,2.0,1.5,1.3*27
$GAGSA,A,3,101,104,105,109,,,,,,,,,2.0,1.5,1.3*2E
$GPRMC,131929.00,A,3053.738798,N,10336.315785,E,010.0,016.3,220718,,,A*51
$GPGGA,131930.00,3053.742004,N,10336.316596,E,1,19,1.6,692.3,M,-32.8,M,,*49
$GPGSV,3,1,10,15,63,027,16,21,61,309,14,24,47,141,21,20,37,308,18*74
$GPGSV,3,2,10,13,27,042,14,29,22,205,14,10,14,292,27,05,10,088,21*7B
$GPGSV,3,3,10,27,04,321,,32,04,233,*7E
$GLGSV,3,1,10,88,57,227,09,81,41,312,22,65,41,023,,66,38,298,24*6F
$GLGSV,3,2,10,75,24,097,16,87,22,181,15,76,13,143,13,72,08,057,12*60
$GLGSV,3,3,10,67,01,262,,82,00,338,*60
$QZGSV,1,1,01,01,56,072,15*57
$BDGSV,3,1,09,206,70,000,,209,68,287,,203,52,167,,202,49,216,*66
$BDGSV,3,2,09,208,44,165,,201,36,126,,205,31,244,,204,20,110,*68
$BDGSV,3,3,09,207,10,154,*65
$GAGSV,2,1,06,109,64,317,22,104,38,044,22,105,25,261,19,101,13,076,21*62
$GAGSV,2,2,06,112,07,158,18,111,53,189,*69
$GPGSA,A,3,05,10,13,15,20,21,24,29,,,,,2.1,1.5,1.4*3E
$GNGSA,A,3,05,10,13,15,20,21,24,29,,,,,2.1,1.5,1.4*20
$GNGSA,A,3,66,72,75,81,87,,,,,,,,2.1,1.5,1.4*2F
$QZGSA,A,3,01,,,,,,,,,,,,2.1,1.5,1.4*2D
$IMGSA,A,3,,,,,,,,,,,,,2.1,1.5,1.4*23
$BDGSA,A,3,,,,,,,,,,,,,2.1,1.5,1.4*21
$GAGSA,A,3,101,104,105,109,,,,,,,,,2.1,1.5,1.4*28
$GPRMC,131930.00,A,3053.742004,N,10336.316596,E,009.9,016.1,220718,,,A*56
$GPGGA,131931.00,3053.745544,N,10336.317535,E,1,18,1.6,692.6,M,-32.8,M,,*42
$GPGSV,3,1,10,15,63,027,16,21,61,309,14,24,47,141,21,20,37,308,18*74
$GPGSV,3,2,10,13,27,042,14,29,22,205,14,10,14,292,27,05,10,088,21*7B
$GPGSV,3,3,10,27,04,321,,32,04,233,*7E
$GLGSV,3,1,10,88,57,227,09,81,41,312,21,65,41,023,,66,38,298,24*6C
$GLGSV,3,2,10,75,24,097,16,87,22,181,15,76,13,143,13,72,08,057,12*60
$GLGSV,3,3,10,67,01,262,,82,00,338,*60
$QZGSV,1,1,01,01,56,072,15*57
$BDGSV,3,1,09,206,70,000,,209,68,287,,203,52,167,,202,49,216,*66
$BDGSV,3,2,09,208,44,165,,201,36,126,,205,31,244,,204,20,110,*68
$BDGSV,3,3,09,207,10,154,*65
$GAGSV,2,1,06,109,64,317,21,104,38,044,21,105,25,261,19,101,13,076,21*62
$GAGSV,2,2,06,112,07,158,17,111,53,189,*66
$GPGSA,A,3,05,10,13,15,20,21,24,29,,,,,2.0,1.5,1.3*38
$GNGSA,A,3,05,10,13,15,20,21,24,29,,,,,2.0,1.5,1.3*26
$GNGSA,A,3,66,75,81,87,,,,,,,,,2.0,1.5,1.3*2C
$QZGSA,A,3,01,,,,,,,,,,,,2.0,1.5,1.3*2B
$IMGSA,A,3,,,,,,,,,,,,,2.0,1.5,1.3*25
$BDGSA,A,3,,,,,,,,,,,,,2.0,1.5,1.3*27
$GAGSA,A,3,101,104,105,109,,,,,,,,,2.0,1.5,1.3*2E
$GPRMC,131931.00,A,3053.745544,N,10336.317535,E,010.4,015.7,220718,,,A*59
$GPGGA,131932.00,3053.748561,N,10336.318514,E,1,17,1.6,692.8,M,-32.8,M,,*46
$GPGSV,3,1,10,15,63,027,15,21,61,309,14,24,47,141,20,20,37,308,18*76
$GPGSV,3,2,10,13,27,042,14,29,22,205,14,10,14,292,27,05,10,088,21*7B
$GPGSV,3,3,10,27,04,321,,32,04,233,*7E
$GLGSV,3,1,10,88,57,227,09,81,41,312,21,65,41,023,,66,38,298,24*6C
$GLGSV,3,2,10,75,24,097,16,87,22,181,15,76,13,143,13,72,08,058,12*6F
$GLGSV,3,3,10,67,01,262,,82,00,338,*60
$QZGSV,1,1,01,01,56,072,15*57
$BDGSV,3,1,09,206,70,000,,209,68,287,,203,52,167,,202,49,216,*66
$BDGSV,3,2,09,208,44,165,,201,36,126,,205,31,244,,204,20,110,*68
$BDGSV,3,3,09,207,10,154,*65
$GAGSV,2,1,06,109,64,317,21,104,38,044,21,105,25,261,18,101,13,076,20*62
$GAGSV,2,2,06,112,07,158,16,111,53,189,*67
$GPGSA,A,3,05,10,13,15,20,21,24,29,,,,,1.8,1.3,1.2*34
$GNGSA,A,3,05,10,13,15,20,21,24,29,,,,,1.8,1.3,1.2*2A
$GNGSA,A,3,66,75,81,87,,,,,,,,,1.8,1.3,1.2*20
$QZGSA,A,3,01,,,,,,,,,,,,1.8,1.3,1.2*27
$IMGSA,A,3,,,,,,,,,,,,,1.8,1.3,1.2*29
$BDGSA,A,3,,,,,,,,,,,,,1.8,1.3,1.2*2B
$GAGSA,A,3,104,105,109,,,,,,,,,,1.8,1.3,1.2*12
$GPRMC,131932.00,A,3053.748561,N,10336.318514,E,010.3,015.5,220718,,,A*59
$GPGGA,131933.00,3053.751376,N,10336.319426,E,1,20,1.6,693.0,M,-32.8,M,,*43
$GPGSV,3,1,10,15,63,027,15,21,61,309,14,24,47,141,21,20,37,308,18*77
$GPGSV,3,2,10,13,27,042,14,29,22,205,15,10,14,292,28,05,10,088,20*74
$GPGSV,3,3,10,27,04,321,,32,04,233,*7E
$GLGSV,3,1,10,88,57,227,10,81,41,312,21,65,41,023,,66,38,298,24*64
$GLGSV,3,2,10,75,24,097,16,87,22,181,15,76,13,143,12,72,08,058,12*6E
$GLGSV,3,3,10,67,01,262,,82,00,338,*60
$QZGSV,1,1,01,01,56,072,15*57
$BDGSV,3,1,09,206,70,000,,209,68,287,,203,52,167,,202,49,216,*66
$BDGSV,3,2,09,208,44,165,,201,36,126,,205,31,244,,204,20,110,*68
$BDGSV,3,3,09,207,10,154,*65
$GAGSV,2,1,06,109,64,317,20,104,38,044,20,105,25,261,18,101,13,076,19*68
$GAGSV,2,2,06,112,07,158,16,111,53,189,*67
$GPGSA,A,3,05,10,13,15,20,21,24,29,,,,,1.9,1.3,1.3*34
$GNGSA,A,3,05,10,13,15,20,21,24,29,,,,,1.9,1.3,1.3*2A
$GNGSA,A,3,66,72,75,81,87,,,,,,,,1.9,1.3,1.3*25
$QZGSA,A,3,01,,,,,,,,,,,,1.9,1.3,1.3*27
$IMGSA,A,3,,,,,,,,,,,,,1.9,1.3,1.3*29
$BDGSA,A,3,,,,,,,,,,,,,1.9,1.3,1.3*2B
$GAGSA,A,3,101,104,105,109,112,,,,,,,,1.9,1.3,1.3*10
$GPRMC,131933.00,A,3053.751376,N,10336.319426,E,010.4,015.4,220718,,,A*57
$GPGGA,131934.00,3053.753898,N,10336.320153,E,1,19,1.2,693.2,M,-32.8,M,,*4C
$GPGSV,3,1,10,15,63,027,16,21,61,309,14,24,47,141,21,20,37,308,19*75
$GPGSV,3,2,10,13,27,042,14,29,22,205,18,10,14,292,28,05,10,088,20*79
$GPGSV,3,3,10,27,04,321,,32,04,233,*7E
$GLGSV,3,1,10,88,57,227,10,81,41,312,21,65,41,023,,66,38,298,24*64
$GLGSV,3,2,10,75,24,097,16,87,22,181,15,76,13,143,12,72,08,058,12*6E
$GLGSV,3,3,10,67,01,262,,82,00,338,*60
$QZGSV,1,1,01,01,56,072,15*57
$BDGSV,3,1,09,206,70,000,,209,68,287,,203,52,167,,202,49,216,*66
$BDGSV,3,2,09,208,44,165,,201,36,126,,205,31,244,,204,20,110,*68
$BDGSV,3,3,09,207,10,154,*65
$GAGSV,2,1,06,109,64,317,20,104,38,044,19,105,25,261,18,101,13,076,18*63
$GAGSV,2,2,06,112,07,158,16,111,53,189,*67
$GPGSA,A,3,05,10,13,15,20,21,24,29,,,,,2.2,1.6,1.5*3F
$GNGSA,A,3,05,10,13,15,20,21,24,29,,,,,2.2,1.6,1.5*21
$GNGSA,A,3,66,75,81,87,,,,,,,,,2.2,1.6,1.5*2B
$QZGSA,A,3,01,,,,,,,,,,,,2.2,1.6,1.5*2C
$IMGSA,A,3,,,,,,,,,,,,,2.2,1.6,1.5*22
$BDGSA,A,3,,,,,,,,,,,,,2.2,1.6,1.5*20
$GAGSA,A,3,101,104,105,109,112,,,,,,,,2.2,1.6,1.5*1B
$GPRMC,131934.00,A,3053.753898,N,10336.320153,E,010.4,015.4,220718,,,A*54
$GPGGA,131935.00,3053.756701,N,10336.321246,E,1,18,1.2,693.0,M,-32.8,M,,*42
$GPGSV,3,1,10,15,63,027,16,21,61,309,14,24,47,141,21,20,37,308,18*74
$GPGSV,3,2,10,13,27,042,14,29,22,205,18,10,14,292,28,05,10,088,20*79
$GPGSV,3,3,10,27,04,321,,32,04,233,*7E
$GLGSV,3,1,10,88,57,227,10,81,41,312,21,65,41,023,,66,38,298,24*64
$GLGSV,3,2,10,75,24,097,15,87,22,181,15,76,13,143,11,72,08,058,12*6E
$GLGSV,3,3,10,67,01,262,,82,00,338,*60
$QZGSV,1,1,01,01,56,072,15*57
$BDGSV,3,1,09,206,70,000,,209,68,287,,203,52,167,,202,49,216,*66
$BDGSV,3,2,09,208,44,165,,201,36,126,,205,31,244,,204,20,110,*68
$BDGSV,3,3,09,207,10,154,*65
$GAGSV,2,1,06,109,64,317,19,104,38,045,19,105,25,261,17,101,13,076,18*67
$GAGSV,2,2,06,112,07,158,15,111,53,189,*64
$GPGSA,A,3,05,10,13,15,20,21,24,29,,,,,2.2,1.6,1.5*3F
$GNGSA,A,3,05,10,13,15,20,21,24,29,,,,,2.2,1.6,1.5*21
$GNGSA,A,3,66,75,81,87,,,,,,,,,2.2,1.6,1.5*2B
$QZGSA,A,3,01,,,,,,,,,,,,2.2,1.6,1.5*2C
$IMGSA,A,3,,,,,,,,,,,,,2.2,1.6,1.5*22
$BDGSA,A,3,,,,,,,,,,,,,2.2,1.6,1.5*20
$GAGSA,A,3,101,104,105,109,,,,,,,,,2.2,1.6,1.5*29
$GPRMC,131935.00,A,3053.756701,N,10336.321246,E,010.4,015.4,220718,,,A*59
$GPGGA,131936.00,3053.760641,N,10336.322121,E,1,18,1.2,692.9,M,-32.8,M,,*48
$GPGSV,3,1,10,15,63,027,20,21,61,309,14,24,47,141,21,20,37,308,18*71
$GPGSV,3,2,10,13,27,042,14,29,22,205,18,10,14,292,28,05,10,088,20*79
$GPGSV,3,3,10,27,04,321,,32,04,233,*7E
$GLGSV,3,1,10,88,57,227,10,81,41,312,20,65,41,023,08,66,38,298,23*6A
$GLGSV,3,2,10,75,24,097,15,87,22,181,15,76,13,143,11,72,08,058,12*6E
$GLGSV,3,3,10,67,01,262,,82,00,338,*60
$QZGSV,1,1,01,01,56,072,15*57
$BDGSV,3,1,09,206,70,000,,209,68,287,,203,52,167,,202,49,216,*66
$BDGSV,3,2,09,208,44,165,,201,36,126,,205,31,244,,204,20,110,*68
$BDGSV,3,3,09,207,10,154,*65
$GAGSV,2,1,06,109,64,317,19,104,38,045,18,105,25,261,17,101,13,076,18*66
$GAGSV,2,2,06,112,07,158,15,111,53,189,*64
$GPGSA,A,3,05,10,13,15,20,21,24,29,,,,,2.1,1.6,1.4*3D
$GNGSA,A,3,05,10,13,15,20,21,24,29,,,,,2.1,1.6,1.4*23
$GNGSA,A,3,66,75,81,87,,,,,,,,,2.1,1.6,1.4*29
$QZGSA,A,3,01,,,,,,,,,,,,2.1,1.6,1.4*2E
$IMGSA,A,3,,,,,,,,,,,,,2.1,1.6,1.4*20
$BDGSA,A,3,,,,,,,,,,,,,2.1,1.6,1.4*22
$GAGSA,A,3,101,104,105,109,,,,,,,,,2.1,1.6,1.4*2B
$GPRMC,131936.00,A,3053.760641,N,10336.322121,E,010.6,015.4,220718,,,A*59
$GPGGA,131937.00,3053.764428,N,10336.323662,E,1,18,1.2,692.5,M,-32.8,M,,*4D
$GPGSV,3,1,10,15,63,027,20,21,61,309,14,24,47,141,20,20,37,308,24*7F
$GPGSV,3,2,10,13,27,042,14,29,22,205,18,10,14,292,28,05,10,088,21*78
$GPGSV,3,3,10,27,04,321,,32,04,233,*7E
$GLGSV,3,1,10,88,57,227,09,81,41,312,24,65,41,023,09,66,38,298,23*67
$GLGSV,3,2,10,75,24,097,15,87,22,181,15,76,13,143,,72,08,058,11*6D
$GLGSV,3,3,10,67,01,262,,82,00,338,*60
$QZGSV,1,1,01,01,56,072,15*57
$BDGSV,3,1,09,206,70,000,,209,68,287,,203,52,167,,202,49,216,*66
$BDGSV,3,2,09,208,44,165,,201,36,126,,205,31,244,,204,20,110,*68
$BDGSV,3,3,09,207,10,154,*65
$GAGSV,2,1,06,109,64,317,19,104,38,045,18,105,25,261,17,101,13,076,17*69
$GAGSV,2,2,06,112,07,158,14,111,53,189,*65
$GPGSA,A,3,05,10,13,15,20,21,24,29,,,,,2.0,1.5,1.3*38
$GNGSA,A,3,05,10,13,15,20,21,24,29,,,,,2.0,1.5,1.3*26
$GNGSA,A,3,66,75,81,87,,,,,,,,,2.0,1.5,1.3*2C
$QZGSA,A,3,01,,,,,,,,,,,,2.0,1.5,1.3*2B
$IMGSA,A,3,,,,,,,,,,,,,2.0,1.5,1.3*25
$BDGSA,A,3,,,,,,,,,,,,,2.0,1.5,1.3*27
$GAGSA,A,3,101,104,105,109,,,,,,,,,2.0,1.5,1.3*2E
$GPRMC,131937.00,A,3053.764428,N,10336.323662,E,010.8,015.4,220718,,,A*5E
$GPGGA,131938.00,3053.769340,N,10336.325571,E,1,18,1.6,692.9,M,-32.8,M,,*49
$GPGSV,3,1,10,15,63,027,22,21,61,309,29,24,47,141,20,20,37,308,27*70
$GPGSV,3,2,10,13,27,042,14,29,22,205,17,10,14,292,30,05,10,088,21*7E
$GPGSV,3,3,10,27,04,321,,32,04,233,*7E
$GLGSV,3,1,10,88,57,227,09,81,41,312,29,65,41,023,10,66,38,298,33*63
$GLGSV,3,2,10,75,24,097,15,87,22,181,15,76,13,143,10,72,08,058,11*6C
$GLGSV,3,3,10,67,01,262,,82,00,338,*60
$QZGSV,1,1,01,01,56,072,15*57
$BDGSV,3,1,09,206,70,000,,209,68,287,,203,52,167,,202,49,216,*66
$BDGSV,3,2,09,208,44,165,,201,36,126,,205,31,244,,204,20,110,*68
$BDGSV,3,3,09,207,10,154,*65
$GAGSV,2,1,06,109,64,317,26,104,38,045,17,105,25,261,17,101,13,076,17*6A
$GAGSV,2,2,06,112,07,158,14,111,53,189,*65
$GPGSA,A,3,05,10,13,15,20,21,24,29,,,,,2.0,1.5,1.3*38
$GNGSA,A,3,05,10,13,15,20,21,24,29,,,,,2.0,1.5,1.3*26
$GNGSA,A,3,66,75,81,87,,,,,,,,,2.0,1.5,1.3*2C
$QZGSA,A,3,01,,,,,,,,,,,,2.0,1.5,1.3*2B
$IMGSA,A,3,,,,,,,,,,,,,2.0,1.5,1.3*25
$BDGSA,A,3,,,,,,,,,,,,,2.0,1.5,1.3*27
$GAGSA,A,3,101,104,105,109,,,,,,,,,2.0,1.5,1.3*2E
$GPRMC,131938.00,A,3053.769340,N,10336.325571,E,010.2,015.8,220718,,,A*54
$GPGGA,131939.00,3053.774657,N,10336.327417,E,1,18,1.6,693.8,M,-32.8,M,,*44
$GPGSV,3,1,10,15,63,027,23,21,61,309,31,24,47,141,23,20,37,308,27*7B
$GPGSV,3,2,10,13,27,042,14,29,22,205,17,10,14,292,34,05,10,088,21*7A
$GPGSV,3,3,10,27,04,321,,32,04,233,*7E
$GLGSV,3,1,10,88,57,227,11,81,41,312,30,65,41,023,10,66,38,298,33*62
$GLGSV,3,2,10,75,24,097,16,87,22,181,15,76,13,143,10,72,08,058,11*6F
$GLGSV,3,3,10,67,01,262,,82,00,338,*60
$QZGSV,1,1,01,01,56,072,15*57
$BDGSV,3,1,09,206,70,000,,209,68,287,,203,52,167,,202,49,216,*66
$BDGSV,3,2,09,208,44,165,,201,36,126,,205,31,244,,204,20,110,*68
$BDGSV,3,3,09,207,10,154,*65
$GAGSV,2,1,06,109,64,317,28,104,38,045,17,105,25,261,16,101,13,076,17*65
$GAGSV,2,2,06,112,07,158,14,111,53,189,*65
$GPGSA,A,3,05,10,13,15,20,21,24,29,,,,,2.0,1.5,1.3*38
$GNGSA,A,3,05,10,13,15,20,21,24,29,,,,,2.0,1.5,1.3*26
$GNGSA,A,3,66,75,81,87,,,,,,,,,2.0,1.5,1.3*2C
$QZGSA,A,3,01,,,,,,,,,,,,2.0,1.5,1.3*2B
$IMGSA,A,3,,,,,,,,,,,,,2.0,1.5,1.3*25
$BDGSA,A,3,,,,,,,,,,,,,2.0,1.5,1.3*27
$GAGSA,A,3,101,104,105,109,,,,,,,,,2.0,1.5,1.3*2E
$GPRMC,131939.00,A,3053.774657,N,10336.327417,E,010.3,016.0,220718,,,A*53
$GPGGA,131940.00,3053.780530,N,10336.329947,E,1,19,1.6,695.2,M,-32.8,M,,*48
$GPGSV,3,1,10,15,63,027,23,21,61,309,31,24,47,141,22,20,37,308,27*7A
$GPGSV,3,2,10,13,27,042,14,29,22,205,17,10,14,292,34,05,10,088,21*7A
$GPGSV,3,3,10,27,04,321,,32,04,233,*7E
$GLGSV,3,1,10,88,57,227,13,81,41,311,32,65,41,023,09,66,38,298,33*69
$GLGSV,3,2,10,75,24,097,16,87,22,181,15,76,13,143,11,72,08,058,11*6E
$GLGSV,3,3,10,67,01,262,11,82,00,338,*60
$QZGSV,1,1,01,01,56,072,15*57
$BDGSV,3,1,09,206,70,000,,209,68,287,,203,52,167,,202,49,216,*66
$BDGSV,3,2,09,208,44,165,,201,36,126,,205,31,244,,204,20,110,*68
$BDGSV,3,3,09,207,10,154,*65
$GAGSV,2,1,06,109,64,317,28,104,38,045,17,105,25,261,16,101,13,076,17*65
$GAGSV,2,2,06,112,07,158,13,111,53,189,*62
$GPGSA,A,3,05,10,13,15,20,21,24,29,,,,,2.0,1.5,1.3*38
$GNGSA,A,3,05,10,13,15,20,21,24,29,,,,,2.0,1.5,1.3*26
$GNGSA,A,3,66,75,81,87,88,,,,,,,,2.0,1.5,1.3*2C
$QZGSA,A,3,01,,,,,,,,,,,,2.0,1.5,1.3*2B
$IMGSA,A,3,,,,,,,,,,,,,2.0,1.5,1.3*25
$BDGSA,A,3,,,,,,,,,,,,,2.0,1.5,1.3*27
$GAGSA,A,3,101,104,105,109,,,,,,,,,2.0,1.5,1.3*2E
$GPRMC,131940.00,A,3053.780530,N,10336.329947,E,010.8,015.9,220718,,,A*53
$GPGGA,131941.00,3053.786762,N,10336.332380,E,1,20,1.6,696.4,M,-32.8,M,,*4E
$GPGSV,3,1,10,15,63,027,22,21,61,309,31,24,47,141,22,20,37,308,28*74
$GPGSV,3,2,10,13,27,042,14,29,22,205,16,10,14,292,33,05,10,088,20*7D
$GPGSV,3,3,10,27,04,321,,32,04,233,*7E
$GLGSV,3,1,10,88,57,227,14,81,41,311,31,65,41,023,20,66,38,298,33*66
$GLGSV,3,2,10,75,25,097,16,87,22,181,16,76,13,143,11,72,08,058,11*6C
$GLGSV,3,3,10,67,01,262,11,82,00,338,*60
$QZGSV,1,1,01,01,56,072,15*57
$BDGSV,3,1,09,206,70,000,,209,68,287,,203,52,167,,202,49,216,*66
$BDGSV,3,2,09,208,44,165,,201,36,126,,205,31,244,,204,20,110,*68
$BDGSV,3,3,09,207,10,154,*65
$GAGSV,2,1,06,109,64,317,28,104,38,045,16,105,25,261,16,101,13,076,17*64
$GAGSV,2,2,06,112,07,158,13,111,53,189,*62
$GPGSA,A,3,05,10,13,15,20,21,24,29,,,,,2.0,1.5,1.3*38
$GNGSA,A,3,05,10,13,15,20,21,24,29,,,,,2.0,1.5,1.3*26
$GNGSA,A,3,65,66,75,81,87,88,,,,,,,2.0,1.5,1.3*2F
$QZGSA,A,3,01,,,,,,,,,,,,2.0,1.5,1.3*2B
$IMGSA,A,3,,,,,,,,,,,,,2.0,1.5,1.3*25
$BDGSA,A,3,,,,,,,,,,,,,2.0,1.5,1.3*27
$GAGSA,A,3,101,104,105,109,,,,,,,,,2.0,1.5,1.3*2E
$GPRMC,131941.00,A,3053.786762,N,10336.332380,E,012.1,014.0,220718,,,A*59
$GPGGA,131942.00,3053.791780,N,10336.334201,E,1,19,1.6,697.2,M,-32.8,M,,*44
$GPGSV,3,1,10,15,63,027,22,21,61,309,34,24,47,141,22,20,37,308,29*70
$GPGSV,3,2,10,13,27,042,14,29,22,205,16,10,14,292,33,05,10,088,20*7D
$GPGSV,3,3,10,27,04,321,,32,04,233,*7E
$GLGSV,3,1,10,88,57,227,17,81,41,311,31,65,41,023,19,66,38,298,33*6F
$GLGSV,3,2,10,75,25,097,16,87,22,181,21,76,13,143,11,72,08,058,11*68
$GLGSV,3,3,10,67,01,262,11,82,00,338,*60
$QZGSV,1,1,01,01,56,072,15*57
$BDGSV,3,1,09,206,70,000,,209,68,287,,203,52,167,,202,49,216,*66
$BDGSV,3,2,09,208,44,165,,201,36,126,,205,31,244,,204,20,110,*68
$BDGSV,3,3,09,207,10,154,*65
$GAGSV,2,1,06,109,64,317,28,104,38,045,16,105,25,261,17,101,13,076,16*64
$GAGSV,2,2,06,112,07,158,13,111,53,189,*62
$GPGSA,A,3,05,10,13,15,20,21,24,29,,,,,2.0,1.6,1.3*3B
$GNGSA,A,3,05,10,13,15,20,21,24,29,,,,,2.0,1.6,1.3*25
$GNGSA,A,3,66,75,81,87,88,,,,,,,,2.0,1.6,1.3*2F
$QZGSA,A,3,01,,,,,,,,,,,,2.0,1.6,1.3*28
$IMGSA,A,3,,,,,,,,,,,,,2.0,1.6,1.3*26
$BDGSA,A,3,,,,,,,,,,,,,2.0,1.6,1.3*24
$GAGSA,A,3,101,104,105,109,,,,,,,,,2.0,1.6,1.3*2D
$GPRMC,131942.00,A,3053.791780,N,10336.334201,E,012.2,014.8,220718,,,A*55
$GPGGA,131943.00,3053.796725,N,10336.336259,E,1,19,1.6,698.0,M,-32.8,M,,*4F
$GPGSV,3,1,10,15,63,027,22,21,61,309,34,24,47,141,21,20,37,308,28*72
$GPGSV,3,2,10,13,27,042,14,29,22,205,26,10,14,292,33,05,10,088,19*74
$GPGSV,3,3,10,27,04,321,,32,04,233,*7E
$GLGSV,3,1,10,88,57,227,18,81,41,311,31,65,41,023,18,66,38,298,33*61
$GLGSV,3,2,10,75,25,097,15,87,22,181,21,76,13,143,11,72,08,058,10*6A
$GLGSV,3,3,10,67,01,262,11,82,00,338,*60
$QZGSV,1,1,01,01,56,072,15*57
$BDGSV,3,1,09,206,70,000,,209,68,287,,203,52,167,,202,49,216,*66
$BDGSV,3,2,09,208,44,165,,201,36,126,,205,31,244,,204,20,110,*68
$BDGSV,3,3,09,207,10,154,*65
$GAGSV,2,1,06,109,64,317,28,104,38,045,16,105,25,261,22,101,13,076,16*62
$GAGSV,2,2,06,112,07,158,13,111,53,189,*62
$GPGSA,A,3,05,10,13,15,20,21,24,29,,,,,1.6,1.0,1.3*38
$GNGSA,A,3,05,10,13,15,20,21,24,29,,,,,1.6,1.0,1.3*26
$GNGSA,A,3,66,75,81,87,88,,,,,,,,1.6,1.0,1.3*2C
$QZGSA,A,3,01,,,,,,,,,,,,1.6,1.0,1.3*2B
$IMGSA,A,3,,,,,,,,,,,,,1.6,1.0,1.3*25
$BDGSA,A,3,,,,,,,,,,,,,1.6,1.0,1.3*27
$GAGSA,A,3,101,104,105,109,,,,,,,,,1.6,1.0,1.3*2E
$GPRMC,131943.00,A,3053.796725,N,10336.336259,E,012.3,014.7,220718,,,A*5D
$GPGGA,131944.00,3053.802019,N,10336.338386,E,1,20,1.6,698.6,M,-32.8,M,,*43
$GPGSV,3,1,10,15,63,027,24,21,61,309,34,24,47,141,20,20,37,308,28*75
$GPGSV,3,2,10,13,27,042,14,29,22,205,30,10,14,292,33,05,10,088,19*73
$GPGSV,3,3,10,27,04,321,,32,04,233,*7E
$GLGSV,3,1,10,88,57,227,19,81,41,311,31,65,41,023,18,66,38,298,33*60
$GLGSV,3,2,10,75,25,097,15,87,22,181,20,76,13,143,11,72,08,058,10*6B
$GLGSV,3,3,10,67,01,262,11,82,00,338,*60
$QZGSV,1,1,01,01,56,072,15*57
$BDGSV,3,1,09,206,70,000,,209,68,287,,203,52,167,,202,49,216,*66
$BDGSV,3,2,09,208,44,165,,201,36,126,,205,31,244,,204,20,110,*68
$BDGSV,3,3,09,207,10,154,*65
$GAGSV,2,1,06,109,64,317,28,104,38,045,16,105,25,261,23,101,13,076,16*63
$GAGSV,2,2,06,112,07,158,13,111,53,189,*62
$GPGSA,A,3,05,10,13,15,20,21,24,29,,,,,3.0,1.7,2.5*3E
$GNGSA,A,3,05,10,13,15,20,21,24,29,,,,,3.0,1.7,2.5*20
$GNGSA,A,3,65,66,75,81,87,88,,,,,,,3.0,1.7,2.5*29
$QZGSA,A,3,01,,,,,,,,,,,,3.0,1.7,2.5*2D
