$GPGGA,051027.02,,,,,0,00,999.9,,M,,M,,*65
$GPGSV,4,1,13,32,49,096,21,22,43,294,26,03,26,314,27,01,11,266,30*76
$GPGSV,4,2,13,04,01,296,23,31,76,330,,14,71,051,,26,39,184,*73
$GPGSV,4,3,13,25,31,049,,16,13,192,,10,12,162,,29,07,094,*7D
$GPGSV,4,4,13,12,00,032,*49
$GLGSV,2,1,05,79,81,350,,69,81,006,,68,40,136,,80,36,225,*64
$GLGSV,2,2,05,70,22,325,*53
$QZGSV,1,1,03,03,08,131,19,02,58,076,,01,34,143,*58
$BDGSV,3,1,09,209,76,021,,222,75,189,,216,65,082,,206,63,085,*6A
$BDGSV,3,2,09,207,60,160,,221,43,310,,210,42,187,,202,41,205,*69
$BDGSV,3,3,09,201,29,128,*62
$GAGSV,2,1,06,103,76,104,,125,63,061,,102,56,197,,108,46,313,*6A
$GAGSV,2,2,06,105,23,123,,130,07,212,*6F
$GPGSA,A,1,,,,,,,,,,,,,140.0,99.0,99.0*35
$GNGSA,A,1,,,,,,,,,,,,,140.0,99.0,99.0*2B
$GNGSA,A,1,,,,,,,,,,,,,140.0,99.0,99.0*2B
$QZGSA,A,1,,,,,,,,,,,,,140.0,99.0,99.0*29
$IMGSA,A,1,,,,,,,,,,,,,140.0,99.0,99.0*26
$BDGSA,A,1,,,,,,,,,,,,,140.0,99.0,99.0*24
$GAGSA,A,1,,,,,,,,,,,,,140.0,99.0,99.0*24
$GPRMC,051027.02,V,,,,,,,250120,,,N*7A
$GPGGA,051028.02,,,,,0,00,999.9,,M,,M,,*6A
$GPGSV,4,1,13,32,49,096,20,22,43,294,26,03,26,314,27,01,11,266,30*77
$GPGSV,4,2,13,04,01,296,25,31,76,330,,14,71,051,,26,39,184,*75
$GPGSV,4,3,13,25,31,049,,16,13,192,,10,12,162,,29,07,094,*7D
$GPGSV,4,4,13,12,00,032,*49
$GLGSV,2,1,05,79,81,350,,69,81,006,,68,40,136,,80,36,225,*64
$GLGSV,2,2,05,70,22,325,*53
$QZGSV,1,1,03,03,08,131,24,02,58,076,,01,34,143,*56
$BDGSV,3,1,09,209,76,021,,222,75,189,,216,65,082,,206,63,085,*6A
$BDGSV,3,2,09,207,60,160,,221,43,310,,210,42,187,,202,41,205,*69
$BDGSV,3,3,09,201,29,128,*62
$GAGSV,2,1,06,103,76,104,,125,63,061,,102,56,197,,108,46,313,*6A
$GAGSV,2,2,06,105,23,123,,130,07,212,*6F
$GPGSA,A,1,,,,,,,,,,,,,140.0,99.0,99.0*35
$GNGSA,A,1,,,,,,,,,,,,,140.0,99.0,99.0*2B
$GNGSA,A,1,,,,,,,,,,,,,140.0,99.0,99.0*2B
$QZGSA,A,1,,,,,,,,,,,,,140.0,99.0,99.0*29
$IMGSA,A,1,,,,,,,,,,,,,140.0,99.0,99.0*26
$BDGSA,A,1,,,,,,,,,,,,,140.0,99.0,99.0*24
$GAGSA,A,1,,,,,,,,,,,,,140.0,99.0,99.0*24
$GPRMC,051028.02,V,,,,,,,250120,,,N*75
$GPGGA,051029.09,3848.793545,N,10039.259568,E,1,05,1.6,1606.7,M,-46.8,M,,*79
$GPGSV,4,1,13,31,76,330,19,14,71,051,23,32,49,096,20,22,43,294,26*7E
$GPGSV,4,2,13,03,26,314,27,01,11,266,29,29,07,094,18,04,01,296,25*76
$GPGSV,4,3,13,26,39,184,,25,31,049,,16,13,192,,10,12,162,*7F
$GPGSV,4,4,13,12,00,032,*49
$GLGSV,2,1,05,68,40,136,21,79,81,350,,69,81,006,,80,36,225,*67
$GLGSV,2,2,05,70,22,325,*53
$QZGSV,1,1,03,03,08,131,25,02,58,076,,01,34,143,*57
$BDGSV,3,1,09,209,76,021,,222,75,189,,216,65,082,,206,63,085,*6A
$BDGSV,3,2,09,207,60,160,,221,43,310,,210,42,187,,202,41,205,*69
$BDGSV,3,3,09,201,29,128,*62
$GAGSV,2,1,06,103,76,104,,125,63,061,,102,56,197,,108,46,313,*6A
$GAGSV,2,2,06,105,23,123,,130,07,212,*6F
$GPGSA,A,3,01,03,22,32,,,,,,,,,4.7,3.4,3.2*34
$GNGSA,A,3,01,03,22,32,,,,,,,,,4.7,3.4,3.2*2A
$GNGSA,A,3,,,,,,,,,,,,,4.7,3.4,3.2*29
$QZGSA,A,3,03,,,,,,,,,,,,4.7,3.4,3.2*28
$IMGSA,A,3,,,,,,,,,,,,,4.7,3.4,3.2*24
$BDGSA,A,3,,,,,,,,,,,,,4.7,3.4,3.2*26
$GAGSA,A,3,,,,,,,,,,,,,4.7,3.4,3.2*26
$GPRMC,051029.09,A,3848.793545,N,10039.259568,E,002.5,,250120,,,A*75
$GPGGA,051030.06,3848.800470,N,10039.266396,E,1,06,0.4,1545.6,M,-46.8,M,,*72
$GPGSV,4,1,13,31,76,330,18,14,71,051,23,32,49,096,20,22,43,294,27*7E
$GPGSV,4,2,13,26,39,184,19,03,26,314,27,01,11,266,29,29,07,094,18*72
$GPGSV,4,3,13,04,01,296,25,25,31,049,,16,13,192,,10,12,162,*73
$GPGSV,4,4,13,12,00,032,*49
$GLGSV,2,1,05,68,40,136,20,69,81,006,,79,81,350,,80,36,225,*66
$GLGSV,2,2,05,70,22,325,*53
$QZGSV,1,1,03,02,58,076,17,03,08,131,25,01,34,143,*51
$BDGSV,3,1,09,209,76,021,,222,75,189,,216,65,082,,206,63,085,*6A
$BDGSV,3,2,09,207,60,160,,221,43,310,,210,42,187,,202,41,205,*69
$BDGSV,3,3,09,201,29,128,*62
$GAGSV,2,1,06,103,76,104,,125,63,061,,102,56,197,,108,46,313,*6A
$GAGSV,2,2,06,105,23,123,,130,07,212,*6F
$GPGSA,A,3,01,03,14,22,32,,,,,,,,4.4,3.4,2.8*39
$GNGSA,A,3,01,03,14,22,32,,,,,,,,4.4,3.4,2.8*27
$GNGSA,A,3,,,,,,,,,,,,,4.4,3.4,2.8*21
$QZGSA,A,3,03,,,,,,,,,,,,4.4,3.4,2.8*20
$IMGSA,A,3,,,,,,,,,,,,,4.4,3.4,2.8*2C
$BDGSA,A,3,,,,,,,,,,,,,4.4,3.4,2.8*2E
$GAGSA,A,3,,,,,,,,,,,,,4.4,3.4,2.8*2E
$GPRMC,051030.06,A,3848.800470,N,10039.266396,E,003.2,,250120,,,A*7D
$GPGGA,051031.06,3848.800318,N,10039.267117,E,1,10,2.4,1584.7,M,-46.8,M,,*79
$GPGSV,4,1,13,31,76,330,18,14,71,051,23,32,49,096,20,22,43,294,27*7E
$GPGSV,4,2,13,26,39,184,21,03,26,314,29,01,11,266,29,29,07,094,19*76
$GPGSV,4,3,13,04,01,296,27,25,31,049,,16,13,192,,10,12,162,*71
$GPGSV,4,4,13,12,00,031,*4A
$GLGSV,2,1,05,68,39,136,20,69,81,006,,79,81,350,,80,36,225,*68
$GLGSV,2,2,05,70,22,325,*53
$QZGSV,1,1,03,02,58,076,17,03,08,131,25,01,34,143,*51
$BDGSV,3,1,09,209,76,021,,222,75,189,,216,65,082,,206,63,085,*6A
$BDGSV,3,2,09,207,60,160,,221,43,310,,210,42,187,,202,41,205,*69
$BDGSV,3,3,09,201,29,128,*62
$GAGSV,2,1,06,103,76,104,,125,63,061,,102,56,197,,108,46,313,*6A
$GAGSV,2,2,06,105,23,123,,130,07,212,*6F
$GPGSA,A,3,01,03,14,22,26,29,31,32,,,,,1.5,1.0,1.1*3C
$GNGSA,A,3,01,03,14,22,26,29,31,32,,,,,1.5,1.0,1.1*22
$GNGSA,A,3,68,,,,,,,,,,,,1.5,1.0,1.1*27
$QZGSA,A,3,03,,,,,,,,,,,,1.5,1.0,1.1*28
$IMGSA,A,3,,,,,,,,,,,,,1.5,1.0,1.1*24
$BDGSA,A,3,,,,,,,,,,,,,1.5,1.0,1.1*26
$GAGSA,A,3,,,,,,,,,,,,,1.5,1.0,1.1*26
$GPRMC,051031.06,A,3848.800318,N,10039.267117,E,000.6,,250120,,,A*78
$GPGGA,051032.06,3848.799943,N,10039.266926,E,1,09,3.2,1591.3,M,-46.8,M,,*75
$GPGSV,4,1,13,31,76,330,18,14,71,051,23,32,49,096,20,22,43,294,27*7E
$GPGSV,4,2,13,26,39,184,21,03,26,314,29,01,11,266,28,29,07,094,19*77
$GPGSV,4,3,13,04,01,296,28,25,31,049,,16,13,192,,10,12,162,*7E
$GPGSV,4,4,13,12,00,031,*4A
$GLGSV,2,1,05,79,81,350,18,68,39,136,23,69,81,006,,80,36,225,*62
$GLGSV,2,2,05,70,22,325,*53
$QZGSV,1,1,03,02,58,076,17,03,08,131,24,01,34,143,*50
$BDGSV,3,1,09,209,76,021,,222,75,189,,216,65,082,,206,63,085,*6A
$BDGSV,3,2,09,207,60,160,,221,43,310,,210,42,187,,202,41,205,*69
$BDGSV,3,3,09,201,29,128,*62
$GAGSV,2,1,06,103,76,104,,125,63,061,,102,56,197,,108,46,313,*6A
$GAGSV,2,2,06,105,23,123,,130,07,212,*6F
$GPGSA,A,3,01,03,14,22,26,29,,,,,,,1.6,1.0,1.2*3F
$GNGSA,A,3,01,03,14,22,26,29,,,,,,,1.6,1.0,1.2*21
$GNGSA,A,3,68,,,,,,,,,,,,1.6,1.0,1.2*27
$QZGSA,A,3,02,03,,,,,,,,,,,1.6,1.0,1.2*2A
$IMGSA,A,3,,,,,,,,,,,,,1.6,1.0,1.2*24
$BDGSA,A,3,,,,,,,,,,,,,1.6,1.0,1.2*26
$GAGSA,A,3,,,,,,,,,,,,,1.6,1.0,1.2*26
$GPRMC,051032.06,A,3848.799943,N,10039.266926,E,000.2,,250120,,,A*7F
$GPGGA,051033.06,3848.788849,N,10039.275054,E,1,12,4.8,1599.6,M,-46.8,M,,*7B
$GPGSV,4,1,13,31,76,330,17,14,71,051,23,32,49,096,20,22,43,294,26*70
$GPGSV,4,2,13,26,39,184,21,03,26,314,28,01,11,266,28,29,07,094,19*76
$GPGSV,4,3,13,04,01,296,27,25,31,049,,16,13,192,,10,12,162,*71
$GPGSV,4,4,13,12,00,031,*4A
$GLGSV,2,1,05,79,81,350,23,68,39,136,23,69,81,006,,80,36,225,*6A
$GLGSV,2,2,05,70,22,325,*53
$QZGSV,1,1,03,02,58,076,17,03,08,131,25,01,34,143,*51
$BDGSV,3,1,09,209,76,021,,222,75,189,,216,65,082,,206,63,085,*6A
$BDGSV,3,2,09,207,60,160,,221,43,310,,210,42,187,,202,41,205,*69
$BDGSV,3,3,09,201,29,128,*62
$GAGSV,2,1,06,103,76,104,,125,63,061,,102,56,197,,108,46,313,*6A
$GAGSV,2,2,06,105,23,123,,130,07,213,*6E
$GPGSA,A,3,01,03,14,22,26,29,31,32,,,,,1.8,1.2,1.3*31
$GNGSA,A,3,01,03,14,22,26,29,31,32,,,,,1.8,1.2,1.3*2F
$GNGSA,A,3,68,79,,,,,,,,,,,1.8,1.2,1.3*24
$QZGSA,A,3,02,03,,,,,,,,,,,1.8,1.2,1.3*27
$IMGSA,A,3,,,,,,,,,,,,,1.8,1.2,1.3*29
$BDGSA,A,3,,,,,,,,,,,,,1.8,1.2,1.3*2B
$GAGSA,A,3,,,,,,,,,,,,,1.8,1.2,1.3*2B
$GPRMC,051033.06,A,3848.788849,N,10039.275054,E,000.0,,250120,,,A*79
$GPGGA,051034.06,3848.797209,N,10039.274471,E,1,11,3.2,1595.0,M,-46.8,M,,*7A
$GPGSV,4,1,13,31,76,330,17,14,71,051,23,32,49,096,19,22,43,294,26*7A
$GPGSV,4,2,13,26,39,184,20,03,26,314,28,01,11,266,28,29,07,094,18*76
$GPGSV,4,3,13,04,01,296,27,25,31,049,,16,13,192,,10,12,162,*71
$GPGSV,4,4,13,12,00,031,*4A
$GLGSV,2,1,05,79,81,350,23,68,39,136,23,69,81,006,,80,36,225,*6A
$GLGSV,2,2,05,70,22,325,*53
$QZGSV,1,1,03,02,58,076,17,03,08,131,25,01,34,143,*51
$BDGSV,3,1,09,209,76,021,,222,75,189,,216,65,082,,206,63,085,*6A
$BDGSV,3,2,09,207,60,160,,221,43,310,,210,42,187,,202,41,205,*69
$BDGSV,3,3,09,201,29,128,*62
$GAGSV,2,1,06,103,76,104,,125,63,061,,102,56,197,,108,46,313,*6A
$GAGSV,2,2,06,105,23,123,,130,07,213,*6E
$GPGSA,A,3,01,03,14,22,26,31,32,,,,,,1.8,1.2,1.3*3A
$GNGSA,A,3,01,03,14,22,26,31,32,,,,,,1.8,1.2,1.3*24
$GNGSA,A,3,68,79,,,,,,,,,,,1.8,1.2,1.3*24
$QZGSA,A,3,02,03,,,,,,,,,,,1.8,1.2,1.3*27
$IMGSA,A,3,,,,,,,,,,,,,1.8,1.2,1.3*29
$BDGSA,A,3,,,,,,,,,,,,,1.8,1.2,1.3*2B
$GAGSA,A,3,,,,,,,,,,,,,1.8,1.2,1.3*2B
$GPRMC,051034.06,A,3848.797209,N,10039.274471,E,000.0,,250120,,,A*7C
$GPGGA,051035.00,3848.796353,N,10039.275577,E,1,12,3.2,1590.9,M,-46.8,M,,*7B
$GPGSV,4,1,13,31,76,330,17,14,71,051,22,32,49,097,19,22,43,294,25*79
$GPGSV,4,2,13,26,39,184,20,03,26,314,27,01,11,266,28,29,07,094,17*76
$GPGSV,4,3,13,04,01,296,27,25,31,049,,16,13,192,,10,12,162,*71
$GPGSV,4,4,13,12,00,031,*4A
$GLGSV,2,1,05,79,81,351,24,69,81,006,23,68,39,136,23,80,36,225,*6D
$GLGSV,2,2,05,70,22,325,*53
$QZGSV,1,1,03,02,58,076,16,03,08,131,25,01,34,143,*50
$BDGSV,3,1,09,209,76,021,,222,75,189,,216,65,082,,206,63,085,*6A
$BDGSV,3,2,09,207,60,160,,221,43,310,,210,42,187,,202,41,205,*69
$BDGSV,3,3,09,201,29,128,*62
$GAGSV,2,1,06,103,76,104,,125,63,061,,102,56,197,,108,46,313,*6A
$GAGSV,2,2,06,105,23,123,,130,07,213,*6E
$GPGSA,A,3,01,03,14,22,26,31,32,,,,,,1.7,1.2,1.2*34
$GNGSA,A,3,01,03,14,22,26,31,32,,,,,,1.7,1.2,1.2*2A
$GNGSA,A,3,68,69,79,,,,,,,,,,1.7,1.2,1.2*25
$QZGSA,A,3,02,03,,,,,,,,,,,1.7,1.2,1.2*29
$IMGSA,A,3,,,,,,,,,,,,,1.7,1.2,1.2*27
$BDGSA,A,3,,,,,,,,,,,,,1.7,1.2,1.2*25
$GAGSA,A,3,,,,,,,,,,,,,1.7,1.2,1.2*25
$GPRMC,051035.00,A,3848.796353,N,10039.275577,E,000.0,,250120,,,A*72
$GPGGA,051036.00,3848.794667,N,10039.275756,E,1,14,3.2,1583.8,M,-46.8,M,,*7C
$GPGSV,4,1,13,31,76,330,16,14,71,051,22,32,49,097,20,22,43,294,25*72
$GPGSV,4,2,13,26,39,184,20,03,26,314,26,01,11,266,28,29,07,094,17*77
$GPGSV,4,3,13,04,01,296,26,25,31,049,,16,13,192,,10,12,162,*70
$GPGSV,4,4,13,12,00,031,*4A
$GLGSV,2,1,05,79,81,351,25,69,81,006,23,68,39,136,22,70,22,325,24*60
$GLGSV,2,2,05,80,36,225,*58
$QZGSV,1,1,03,02,58,076,16,03,08,131,25,01,34,143,*50
$BDGSV,3,1,09,209,76,021,,222,75,189,,216,65,082,,206,63,085,*6A
$BDGSV,3,2,09,207,60,160,,221,43,310,,210,42,187,,202,41,205,*69
$BDGSV,3,3,09,201,29,128,*62
$GAGSV,2,1,06,103,76,104,,125,63,061,,102,56,197,,108,46,313,*6A
$GAGSV,2,2,06,105,23,123,,130,07,213,*6E
$GPGSA,A,3,01,03,14,22,26,29,31,32,,,,,1.6,1.1,1.2*3D
$GNGSA,A,3,01,03,14,22,26,29,31,32,,,,,1.6,1.1,1.2*23
$GNGSA,A,3,68,69,70,79,,,,,,,,,1.6,1.1,1.2*20
$QZGSA,A,3,02,03,,,,,,,,,,,1.6,1.1,1.2*2B
$IMGSA,A,3,,,,,,,,,,,,,1.6,1.1,1.2*25
$BDGSA,A,3,,,,,,,,,,,,,1.6,1.1,1.2*27
$GAGSA,A,3,,,,,,,,,,,,,1.6,1.1,1.2*27
$GPRMC,051036.00,A,3848.794667,N,10039.275756,E,000.0,,250120,,,A*70
$GPGGA,051037.00,3848.794091,N,10039.274453,E,1,16,2.4,1586.6,M,-46.8,M,,*7B
$GPGSV,4,1,13,31,76,330,16,14,71,051,21,32,49,097,20,22,43,294,25*71
$GPGSV,4,2,13,26,39,184,20,03,26,314,25,10,12,162,13,01,11,266,27*79
$GPGSV,4,3,13,29,07,094,21,04,01,296,26,25,31,049,,16,13,192,*75
$GPGSV,4,4,13,12,00,031,*4A
$GLGSV,2,1,05,79,81,351,25,69,81,006,24,68,39,136,22,70,22,325,24*67
$GLGSV,2,2,05,80,36,225,*58
$QZGSV,1,1,03,02,58,076,16,01,34,143,14,03,08,131,24*54
$BDGSV,3,1,09,209,76,021,,222,75,189,,216,65,082,,206,63,085,*6A
$BDGSV,3,2,09,207,60,160,,221,43,310,,210,42,187,,202,41,205,*69
$BDGSV,3,3,09,201,29,128,*62
$GAGSV,2,1,06,103,76,104,,125,63,061,,102,56,197,,108,46,313,*6A
$GAGSV,2,2,06,105,23,123,,130,07,213,*6E
$GPGSA,A,3,01,03,10,14,22,26,29,31,32,,,,1.4,1.0,1.0*3D
$GNGSA,A,3,01,03,10,14,22,26,29,31,32,,,,1.4,1.0,1.0*23
$GNGSA,A,3,68,69,70,79,,,,,,,,,1.4,1.0,1.0*21
$QZGSA,A,3,01,02,03,,,,,,,,,,1.4,1.0,1.0*2B
$IMGSA,A,3,,,,,,,,,,,,,1.4,1.0,1.0*24
$BDGSA,A,3,,,,,,,,,,,,,1.4,1.0,1.0*26
$GAGSA,A,3,,,,,,,,,,,,,1.4,1.0,1.0*26
$GPRMC,051037.00,A,3848.794091,N,10039.274453,E,000.0,,250120,,,A*79
$GPGGA,051038.00,3848.793066,N,10039.272787,E,1,16,2.4,1588.6,M,-46.8,M,,*79
$GPGSV,4,1,13,31,76,331,16,14,71,051,21,32,49,097,20,22,43,294,24*71
$GPGSV,4,2,13,26,39,184,20,03,26,314,24,10,12,162,16,01,11,266,27*7D
$GPGSV,4,3,13,29,07,094,24,04,01,296,26,25,31,049,,16,13,192,*70
$GPGSV,4,4,13,12,00,031,*4A
$GLGSV,2,1,05,79,81,351,25,69,81,006,24,68,39,136,22,70,22,325,25*66
$GLGSV,2,2,05,80,36,225,*58
$QZGSV,1,1,03,02,58,076,16,01,34,143,15,03,08,131,24*55
$BDGSV,3,1,09,209,76,021,,222,75,189,,216,65,082,,206,63,085,*6A
$BDGSV,3,2,09,207,60,160,,221,43,310,,210,42,187,,202,41,205,*69
$BDGSV,3,3,09,201,29,128,*62
$GAGSV,2,1,06,103,76,104,,125,63,061,,102,56,197,,108,46,313,*6A
$GAGSV,2,2,06,105,23,123,,130,07,213,*6E
$GPGSA,A,3,01,03,10,14,22,26,29,31,32,,,,1.3,0.9,1.0*32
$GNGSA,A,3,01,03,10,14,22,26,29,31,32,,,,1.3,0.9,1.0*2C
$GNGSA,A,3,68,69,70,79,,,,,,,,,1.3,0.9,1.0*2E
$QZGSA,A,3,01,02,03,,,,,,,,,,1.3,0.9,1.0*24
$IMGSA,A,3,,,,,,,,,,,,,1.3,0.9,1.0*2B
$BDGSA,A,3,,,,,,,,,,,,,1.3,0.9,1.0*29
$GAGSA,A,3,,,,,,,,,,,,,1.3,0.9,1.0*29
$GPRMC,051038.00,A,3848.793066,N,10039.272787,E,000.0,,250120,,,A*75
$GPGGA,051039.00,3848.791000,N,10039.271742,E,1,15,2.4,1588.8,M,-46.8,M,,*7D
$GPGSV,4,1,13,31,76,331,16,14,71,051,20,32,49,097,20,22,43,294,24*70
$GPGSV,4,2,13,26,39,184,20,03,26,314,24,10,12,162,16,01,11,266,27*7D
$GPGSV,4,3,13,29,07,094,24,04,01,296,25,25,31,049,,16,13,192,*73
$GPGSV,4,4,13,12,00,031,*4A
$GLGSV,2,1,05,79,81,351,25,69,81,006,24,68,39,136,22,70,22,325,25*66
$GLGSV,2,2,05,80,36,225,*58
$QZGSV,1,1,03,02,58,076,18,01,34,143,14,03,08,131,24*5A
$BDGSV,3,1,09,209,76,021,,222,75,189,,216,65,082,,206,63,085,*6A
$BDGSV,3,2,09,207,60,160,,221,43,310,,210,42,187,,202,41,205,*69
$BDGSV,3,3,09,201,29,128,*62
$GAGSV,2,1,06,103,76,104,,125,63,061,,102,56,197,,108,46,313,*6A
$GAGSV,2,2,06,105,23,123,,130,07,213,*6E
$GPGSA,A,3,01,03,10,14,22,26,29,31,32,,,,1.4,0.9,1.0*35
$GNGSA,A,3,01,03,10,14,22,26,29,31,32,,,,1.4,0.9,1.0*2B
$GNGSA,A,3,68,69,70,79,,,,,,,,,1.4,0.9,1.0*29
$QZGSA,A,3,02,03,,,,,,,,,,,1.4,0.9,1.0*22
$IMGSA,A,3,,,,,,,,,,,,,1.4,0.9,1.0*2C
$BDGSA,A,3,,,,,,,,,,,,,1.4,0.9,1.0*2E
$GAGSA,A,3,,,,,,,,,,,,,1.4,0.9,1.0*2E
$GPRMC,051039.00,A,3848.791000,N,10039.271742,E,000.0,,250120,,,A*7C
$GPGGA,051040.00,3848.790856,N,10039.272724,E,1,16,2.4,1588.3,M,-46.8,M,,*72
$GPGSV,4,1,13,31,76,331,15,14,71,051,19,32,49,097,20,22,43,294,24*79
$GPGSV,4,2,13,26,39,184,19,03,26,314,23,10,12,162,19,01,11,266,26*7E
$GPGSV,4,3,13,29,07,094,25,04,01,296,24,25,31,049,,16,13,192,*73
$GPGSV,4,4,13,12,00,031,*4A
$GLGSV,2,1,05,79,81,351,25,69,81,006,23,68,39,136,22,70,22,325,25*61
$GLGSV,2,2,05,80,36,225,*58
$QZGSV,1,1,03,02,58,076,19,01,34,143,14,03,08,131,24*5B
$BDGSV,3,1,09,209,76,021,,222,75,189,,216,65,082,,206,63,085,*6A
$BDGSV,3,2,09,207,60,160,,221,43,310,,210,42,187,,202,41,205,*69
$BDGSV,3,3,09,201,29,128,*62
$GAGSV,2,1,06,103,76,104,,125,63,061,,102,56,197,,108,46,313,*6A
$GAGSV,2,2,06,105,23,123,,130,07,213,*6E
$GPGSA,A,3,01,03,10,14,22,26,29,31,32,,,,1.7,1.2,1.2*3E
$GNGSA,A,3,01,03,10,14,22,26,29,31,32,,,,1.7,1.2,1.2*20
$GNGSA,A,3,68,69,70,79,,,,,,,,,1.7,1.2,1.2*22
$QZGSA,A,3,01,02,03,,,,,,,,,,1.7,1.2,1.2*28
$IMGSA,A,3,,,,,,,,,,,,,1.7,1.2,1.2*27
$BDGSA,A,3,,,,,,,,,,,,,1.7,1.2,1.2*25
$GAGSA,A,3,,,,,,,,,,,,,1.7,1.2,1.2*25
$GPRMC,051040.00,A,3848.790856,N,10039.272724,E,001.8,,250120,,,A*72
$GPGGA,051041.00,3848.790559,N,10039.272966,E,1,17,1.6,1588.4,M,-46.8,M,,*7E
$GPGSV,4,1,13,31,76,331,20,14,71,051,19,32,49,097,19,22,43,294,23*72
$GPGSV,4,2,13,26,39,184,19,25,31,049,12,03,26,314,23,10,12,162,18*73
$GPGSV,4,3,13,01,11,266,26,29,07,094,25,04,01,296,24,16,13,192,*7C
$GPGSV,4,4,13,12,00,031,*4A
$GLGSV,2,1,05,79,81,351,25,69,81,006,23,68,39,136,22,70,22,325,24*60
$GLGSV,2,2,05,80,36,225,*58
$QZGSV,1,1,03,02,58,076,20,01,34,143,16,03,08,131,23*54
$BDGSV,3,1,09,209,76,021,,222,75,189,,216,65,082,,206,63,085,*6A
$BDGSV,3,2,09,207,60,160,,221,43,310,,210,42,187,,202,41,205,*69
$BDGSV,3,3,09,201,29,128,*62
$GAGSV,2,1,06,103,76,104,,125,63,061,,102,56,197,,108,46,313,*6A
$GAGSV,2,2,06,105,23,123,,130,07,213,*6E
$GPGSA,A,3,01,03,10,14,22,25,26,29,31,32,,,1.4,1.1,1.0*3B
$GNGSA,A,3,01,03,10,14,22,25,26,29,31,32,,,1.4,1.1,1.0*25
$GNGSA,A,3,68,69,70,79,,,,,,,,,1.4,1.1,1.0*20
$QZGSA,A,3,01,02,03,,,,,,,,,,1.4,1.1,1.0*2A
$IMGSA,A,3,,,,,,,,,,,,,1.4,1.1,1.0*25
$BDGSA,A,3,,,,,,,,,,,,,1.4,1.1,1.0*27
$GAGSA,A,3,,,,,,,,,,,,,1.4,1.1,1.0*27
$GPRMC,051041.00,A,3848.790559,N,10039.272966,E,002.0,,250120,,,A*72
$GPGGA,051042.00,3848.789660,N,10039.272923,E,1,16,1.6,1590.3,M,-46.8,M,,*72
$GPGSV,4,1,13,31,76,331,21,14,71,051,18,32,49,097,19,22,43,294,23*72
$GPGSV,4,2,13,26,39,184,19,25,31,049,12,03,26,314,24,10,12,162,18*74
$GPGSV,4,3,13,01,11,266,26,29,07,094,25,04,01,296,23,16,13,192,*7B
$GPGSV,4,4,13,12,00,031,*4A
$GLGSV,2,1,05,79,81,351,25,69,81,007,22,68,39,136,21,70,22,325,24*63
$GLGSV,2,2,05,80,36,225,*58
$QZGSV,1,1,03,02,58,076,20,01,34,143,18,03,08,131,23*5A
$BDGSV,3,1,09,209,76,021,,222,75,189,,216,65,082,,206,63,085,*6A
$BDGSV,3,2,09,207,60,160,,221,43,310,,210,42,187,,202,41,205,*69
$BDGSV,3,3,09,201,29,128,*62
$GAGSV,2,1,06,103,76,104,,125,63,061,,102,56,197,,108,46,313,*6A
$GAGSV,2,2,06,105,23,123,,130,07,213,*6E
$GPGSA,A,3,01,03,10,14,22,26,29,31,32,,,,1.3,1.0,0.9*32
$GNGSA,A,3,01,03,10,14,22,26,29,31,32,,,,1.3,1.0,0.9*2C
$GNGSA,A,3,68,69,70,79,,,,,,,,,1.3,1.0,0.9*2E
$QZGSA,A,3,01,02,03,,,,,,,,,,1.3,1.0,0.9*24
$IMGSA,A,3,,,,,,,,,,,,,1.3,1.0,0.9*2B
$BDGSA,A,3,,,,,,,,,,,,,1.3,1.0,0.9*29
$GAGSA,A,3,,,,,,,,,,,,,1.3,1.0,0.9*29
$GPRMC,051042.00,A,3848.789660,N,10039.272923,E,002.5,,250120,,,A*74
$GPGGA,051043.00,3848.789100,N,10039.273260,E,1,17,1.6,1591.6,M,-46.8,M,,*7A
$GPGSV,4,1,13,31,76,331,20,14,71,051,18,32,49,097,19,22,43,294,23*73
$GPGSV,4,2,13,26,39,184,19,25,31,049,12,03,26,314,25,10,12,162,18*75
$GPGSV,4,3,13,01,11,266,26,29,07,094,24,04,01,296,22,16,13,192,*7B
$GPGSV,4,4,13,12,00,031,*4A
$GLGSV,2,1,05,79,81,351,25,69,81,007,22,68,39,136,20,70,22,325,24*62
$GLGSV,2,2,05,80,36,225,*58
$QZGSV,1,1,03,02,58,076,20,01,34,143,18,03,08,131,22*5B
$BDGSV,3,1,09,209,76,021,,222,75,189,,216,65,082,,206,63,085,*6A
$BDGSV,3,2,09,207,60,160,,221,43,310,,210,42,187,,202,41,205,*69
$BDGSV,3,3,09,201,29,128,*62
$GAGSV,2,1,06,103,76,104,,125,63,061,,102,56,197,,108,46,313,*6A
$GAGSV,2,2,06,105,23,123,,130,07,213,*6E
$GPGSA,A,3,01,03,10,14,22,25,26,29,31,32,,,1.4,1.0,1.0*3A
$GNGSA,A,3,01,03,10,14,22,25,26,29,31,32,,,1.4,1.0,1.0*24
$GNGSA,A,3,68,69,70,79,,,,,,,,,1.4,1.0,1.0*21
$QZGSA,A,3,01,02,03,,,,,,,,,,1.4,1.0,1.0*2B
$IMGSA,A,3,,,,,,,,,,,,,1.4,1.0,1.0*24
$BDGSA,A,3,,,,,,,,,,,,,1.4,1.0,1.0*26
$GAGSA,A,3,,,,,,,,,,,,,1.4,1.0,1.0*26
$GPRMC,051043.00,A,3848.789100,N,10039.273260,E,000.0,,250120,,,A*7E
$GPGGA,051044.00,3848.789218,N,10039.273763,E,1,17,1.6,1591.0,M,-46.8,M,,*77
$GPGSV,4,1,13,31,76,331,20,14,71,051,17,32,49,097,18,22,43,294,22*7C
$GPGSV,4,2,13,26,39,184,18,25,31,049,14,03,26,314,25,10,12,162,18*72
$GPGSV,4,3,13,01,11,266,26,29,07,094,24,04,01,296,21,16,13,192,*78
$GPGSV,4,4,13,12,00,031,*4A
$GLGSV,2,1,05,79,81,351,25,69,81,007,21,68,39,136,20,70,22,325,24*61
$GLGSV,2,2,05,80,36,225,*58
$QZGSV,1,1,03,02,58,076,20,01,34,143,18,03,08,131,22*5B
$BDGSV,3,1,09,209,76,021,,222,75,189,,216,65,082,,206,63,085,*6A
$BDGSV,3,2,09,207,60,160,,221,43,310,,210,42,187,,202,41,205,*69
$BDGSV,3,3,09,201,29,128,*62
$GAGSV,2,1,06,103,76,104,,125,63,061,,102,56,197,,108,46,313,*6A
$GAGSV,2,2,06,105,23,123,,130,07,213,*6E
$GPGSA,A,3,01,03,10,14,22,25,26,29,31,32,,,1.4,1.0,1.0*3A
$GNGSA,A,3,01,03,10,14,22,25,26,29,31,32,,,1.4,1.0,1.0*24
$GNGSA,A,3,68,69,70,79,,,,,,,,,1.4,1.0,1.0*21
$QZGSA,A,3,01,02,03,,,,,,,,,,1.4,1.0,1.0*2B
$IMGSA,A,3,,,,,,,,,,,,,1.4,1.0,1.0*24
$BDGSA,A,3,,,,,,,,,,,,,1.4,1.0,1.0*26
$GAGSA,A,3,,,,,,,,,,,,,1.4,1.0,1.0*26
$GPRMC,051044.00,A,3848.789218,N,10039.273763,E,000.0,,250120,,,A*75
$GPGGA,051045.00,3848.788721,N,10039.273425,E,1,16,1.2,1590.9,M,-46.8,M,,*74
$GPGSV,4,1,13,31,76,331,19,14,71,051,17,32,49,097,18,22,43,294,22*76
$GPGSV,4,2,13,26,39,184,18,25,31,049,14,03,26,314,25,10,12,162,18*72
$GPGSV,4,3,13,01,11,266,27,29,07,094,24,04,01,296,21,16,13,192,*79
$GPGSV,4,4,13,12,00,031,*4A
$GLGSV,2,1,05,79,81,351,24,69,81,007,21,68,39,136,20,70,22,325,24*60
$GLGSV,2,2,05,80,36,225,*58
$QZGSV,1,1,03,02,58,076,21,01,34,143,18,03,08,131,22*5A
$BDGSV,3,1,09,209,76,021,,222,75,189,,216,65,082,,206,63,086,*69
$BDGSV,3,2,09,207,60,160,,221,43,310,,210,42,187,,202,41,205,*69
$BDGSV,3,3,09,201,29,128,*62
$GAGSV,2,1,06,103,76,104,,125,63,061,,102,56,197,,108,46,313,*6A
$GAGSV,2,2,06,105,23,123,,130,07,213,*6E
$GPGSA,A,3,01,03,10,14,22,25,26,29,32,,,,1.6,1.3,1.0*39
$GNGSA,A,3,01,03,10,14,22,25,26,29,32,,,,1.6,1.3,1.0*27
$GNGSA,A,3,68,69,70,79,,,,,,,,,1.6,1.3,1.0*20
$QZGSA,A,3,01,02,03,,,,,,,,,,1.6,1.3,1.0*2A
$IMGSA,A,3,,,,,,,,,,,,,1.6,1.3,1.0*25
$BDGSA,A,3,,,,,,,,,,,,,1.6,1.3,1.0*27
$GAGSA,A,3,,,,,,,,,,,,,1.6,1.3,1.0*27
$GPRMC,051045.00,A,3848.788721,N,10039.273425,E,000.0,,250120,,,A*7B
$GPGGA,051046.00,3848.788980,N,10039.273695,E,1,17,1.2,1591.5,M,-46.8,M,,*77
$GPGSV,4,1,13,31,76,331,19,14,71,051,17,32,49,097,18,22,43,294,22*76
$GPGSV,4,2,13,26,39,184,18,25,31,049,14,03,26,314,24,10,12,162,19*72
$GPGSV,4,3,13,01,11,266,27,29,07,094,24,04,01,296,20,16,13,192,*78
$GPGSV,4,4,13,12,00,031,*4A
$GLGSV,2,1,05,79,81,351,24,69,81,007,21,68,39,136,20,70,22,325,24*60
$GLGSV,2,2,05,80,36,225,*58
$QZGSV,1,1,03,02,58,076,21,01,34,143,17,03,08,131,22*55
$BDGSV,3,1,09,209,76,021,,222,75,189,,216,65,082,,206,63,086,*69
$BDGSV,3,2,09,207,60,160,,221,43,310,,210,42,187,,202,41,205,*69
$BDGSV,3,3,09,201,29,128,*62
$GAGSV,2,1,06,103,76,104,,125,63,061,,102,56,197,,108,46,313,*6A
$GAGSV,2,2,06,105,23,123,,130,07,213,*6E
$GPGSA,A,3,01,03,10,14,22,25,26,29,31,32,,,1.4,0.9,1.0*32
$GNGSA,A,3,01,03,10,14,22,25,26,29,31,32,,,1.4,0.9,1.0*2C
$GNGSA,A,3,68,69,70,79,,,,,,,,,1.4,0.9,1.0*29
$QZGSA,A,3,01,02,03,,,,,,,,,,1.4,0.9,1.0*23
$IMGSA,A,3,,,,,,,,,,,,,1.4,0.9,1.0*2C
$BDGSA,A,3,,,,,,,,,,,,,1.4,0.9,1.0*2E
$GAGSA,A,3,,,,,,,,,,,,,1.4,0.9,1.0*2E
$GPRMC,051046.00,A,3848.788980,N,10039.273695,E,000.0,,250120,,,A*74
$GPGGA,051047.00,3848.788588,N,10039.272897,E,1,17,1.2,1592.0,M,-46.8,M,,*79
$GPGSV,4,1,13,31,76,331,18,14,71,051,16,32,49,097,17,22,43,294,21*7A
$GPGSV,4,2,13,26,39,184,18,25,31,049,14,03,26,314,23,10,12,162,21*7E
$GPGSV,4,3,13,01,11,266,27,29,07,094,25,04,01,296,20,16,13,192,*79
$GPGSV,4,4,13,12,00,031,*4A
$GLGSV,2,1,05,79,81,351,24,69,81,007,22,68,39,136,20,70,22,325,24*63
$GLGSV,2,2,05,80,36,225,*58
$QZGSV,1,1,03,02,58,076,21,01,34,143,17,03,08,131,22*55
$BDGSV,3,1,09,209,76,021,,222,75,189,,216,65,082,,206,63,086,*69
$BDGSV,3,2,09,207,60,160,,221,43,310,,210,42,187,,202,41,205,*69
$BDGSV,3,3,09,201,29,128,*62
$GAGSV,2,1,06,103,76,104,,125,63,061,,102,56,197,,108,47,313,*6B
$GAGSV,2,2,06,105,23,123,,130,07,213,*6E
$GPGSA,A,3,01,03,10,14,22,25,26,29,31,32,,,1.3,0.9,1.0*35
$GNGSA,A,3,01,03,10,14,22,25,26,29,31,32,,,1.3,0.9,1.0*2B
$GNGSA,A,3,68,69,70,79,,,,,,,,,1.3,0.9,1.0*2E
$QZGSA,A,3,01,02,03,,,,,,,,,,1.3,0.9,1.0*24
$IMGSA,A,3,,,,,,,,,,,,,1.3,0.9,1.0*2B
$BDGSA,A,3,,,,,,,,,,,,,1.3,0.9,1.0*29
$GAGSA,A,3,,,,,,,,,,,,,1.3,0.9,1.0*29
$GPRMC,051047.00,A,3848.788588,N,10039.272897,E,000.0,,250120,,,A*7C
$GPGGA,051048.00,3848.788356,N,10039.273054,E,1,17,1.2,1593.7,M,-46.8,M,,*73
$GPGSV,4,1,13,31,76,331,18,14,71,051,16,32,49,097,17,22,43,294,21*7A
$GPGSV,4,2,13,26,39,184,18,25,31,049,14,03,26,314,23,10,12,162,21*7E
$GPGSV,4,3,13,01,11,266,27,29,07,094,25,04,01,296,19,16,13,192,*73
$GPGSV,4,4,13,12,00,031,*4A
$GLGSV,2,1,05,79,81,351,24,69,81,007,22,68,39,136,20,70,22,325,24*63
$GLGSV,2,2,05,80,36,225,*58
$QZGSV,1,1,03,02,58,076,21,01,34,143,16,03,08,131,22*54
$BDGSV,3,1,09,209,76,021,,222,75,189,,216,65,082,,206,63,086,*69
$BDGSV,3,2,09,207,60,160,,221,43,310,,210,42,187,,202,41,205,*69
$BDGSV,3,3,09,201,29,128,*62
$GAGSV,2,1,06,103,76,104,,125,63,061,,102,56,197,,108,47,313,*6B
$GAGSV,2,2,06,105,23,123,,130,07,213,*6E
$GPGSA,A,3,01,03,10,14,22,25,26,29,31,32,,,1.3,0.9,1.0*35
$GNGSA,A,3,01,03,10,14,22,25,26,29,31,32,,,1.3,0.9,1.0*2B
$GNGSA,A,3,68,69,70,79,,,,,,,,,1.3,0.9,1.0*2E
$QZGSA,A,3,01,02,03,,,,,,,,,,1.3,0.9,1.0*24
$IMGSA,A,3,,,,,,,,,,,,,1.3,0.9,1.0*2B
$BDGSA,A,3,,,,,,,,,,,,,1.3,0.9,1.0*29
$GAGSA,A,3,,,,,,,,,,,,,1.3,0.9,1.0*29
$GPRMC,051048.00,A,3848.788356,N,10039.273054,E,000.0,,250120,,,A*70
$GPGGA,051049.00,3848.788320,N,10039.272807,E,1,17,1.2,1594.6,M,-46.8,M,,*7A
$GPGSV,4,1,13,31,76,331,18,14,71,052,16,32,49,097,16,22,43,294,21*78
$GPGSV,4,2,13,26,39,184,18,25,31,049,15,03,26,314,22,10,12,162,21*7E
$GPGSV,4,3,13,01,11,266,27,29,07,094,26,04,01,296,19,16,13,192,*70
$GPGSV,4,4,13,12,00,031,*4A
$GLGSV,2,1,05,79,81,351,24,69,81,007,22,68,39,136,19,70,22,325,24*69
$GLGSV,2,2,05,80,36,225,*58
$QZGSV,1,1,03,02,58,076,21,01,34,143,16,03,08,131,22*54
$BDGSV,3,1,09,209,76,021,,222,75,189,,216,65,082,,206,63,086,*69
$BDGSV,3,2,09,207,60,160,,221,43,310,,210,42,187,,202,41,205,*69
$BDGSV,3,3,09,201,29,128,*62
$GAGSV,2,1,06,103,76,104,,125,63,061,,102,56,197,,108,47,313,*6B
$GAGSV,2,2,06,105,23,123,,130,07,213,*6E
$GPGSA,A,3,01,03,10,14,22,25,26,29,31,32,,,1.3,0.9,1.0*35
$GNGSA,A,3,01,03,10,14,22,25,26,29,31,32,,,1.3,0.9,1.0*2B
$GNGSA,A,3,68,69,70,79,,,,,,,,,1.3,0.9,1.0*2E
$QZGSA,A,3,01,02,03,,,,,,,,,,1.3,0.9,1.0*24
$IMGSA,A,3,,,,,,,,,,,,,1.3,0.9,1.0*2B
$BDGSA,A,3,,,,,,,,,,,,,1.3,0.9,1.0*29
$GAGSA,A,3,,,,,,,,,,,,,1.3,0.9,1.0*29
$GPRMC,051049.00,A,3848.788320,N,10039.272807,E,000.0,,250120,,,A*7F
$GPGGA,051050.00,3848.788171,N,10039.272559,E,1,17,1.2,1596.2,M,-46.8,M,,*74
$GPGSV,4,1,13,31,76,331,17,14,71,052,16,32,49,097,16,22,43,294,20*76
$GPGSV,4,2,13,26,39,184,18,25,31,049,15,03,26,314,22,10,12,162,21*7E
$GPGSV,4,3,13,01,11,266,28,29,07,094,26,04,01,296,18,16,13,192,*7E
$GPGSV,4,4,13,12,00,031,*4A
$GLGSV,2,1,05,79,81,351,24,69,81,007,22,68,39,136,19,70,22,325,24*69
$GLGSV,2,2,05,80,36,225,*58
$QZGSV,1,1,03,02,58,076,21,01,34,143,16,03,08,131,21*57
$BDGSV,3,1,09,209,76,021,,222,75,189,,216,65,082,,206,63,086,*69
$BDGSV,3,2,09,207,60,160,,221,43,310,,210,42,187,,202,41,205,*69
$BDGSV,3,3,09,201,29,128,*62
$GAGSV,2,1,06,103,76,104,,125,63,061,,102,56,197,,108,47,313,*6B
$GAGSV,2,2,06,105,23,123,,130,07,213,*6E
$GPGSA,A,3,01,03,10,14,22,25,26,29,31,32,,,1.3,0.9,1.0*35
$GNGSA,A,3,01,03,10,14,22,25,26,29,31,32,,,1.3,0.9,1.0*2B
$GNGSA,A,3,68,69,70,79,,,,,,,,,1.3,0.9,1.0*2E
$QZGSA,A,3,01,02,03,,,,,,,,,,1.3,0.9,1.0*24
$IMGSA,A,3,,,,,,,,,,,,,1.3,0.9,1.0*2B
$BDGSA,A,3,,,,,,,,,,,,,1.3,0.9,1.0*29
$GAGSA,A,3,,,,,,,,,,,,,1.3,0.9,1.0*29
$GPRMC,051050.00,A,3848.788171,N,10039.272559,E,000.0,,250120,,,A*77
$GPGGA,051051.00,3848.788207,N,10039.272270,E,1,17,1.2,1596.4,M,-46.8,M,,*7D
$GPGSV,4,1,13,31,76,331,17,14,71,052,16,32,49,097,16,22,43,294,20*76
$GPGSV,4,2,13,26,39,184,17,25,31,049,14,03,26,314,22,10,12,162,21*70
$GPGSV,4,3,13,01,11,266,28,29,07,094,26,04,01,296,18,16,13,192,*7E
$GPGSV,4,4,13,12,00,031,*4A
$GLGSV,2,1,05,79,81,351,24,69,81,007,22,68,39,136,19,70,22,325,23*6E
$GLGSV,2,2,05,80,36,225,*58
$QZGSV,1,1,03,02,58,076,20,01,34,143,16,03,08,131,21*56
$BDGSV,3,1,09,209,76,021,,222,75,189,,216,65,082,,206,63,086,*69
$BDGSV,3,2,09,207,60,160,,221,43,310,,210,42,187,,202,41,205,*69
$BDGSV,3,3,09,201,29,128,*62
$GAGSV,2,1,06,103,76,104,,125,63,061,,102,56,197,,108,47,313,*6B
$GAGSV,2,2,06,105,23,123,,130,07,213,*6E
$GPGSA,A,3,01,03,10,14,22,25,26,29,31,32,,,1.3,0.9,0.9*3D
$GNGSA,A,3,01,03,10,14,22,25,26,29,31,32,,,1.3,0.9,0.9*23
$GNGSA,A,3,68,69,70,79,,,,,,,,,1.3,0.9,0.9*26
$QZGSA,A,3,01,02,03,,,,,,,,,,1.3,0.9,0.9*2C
$IMGSA,A,3,,,,,,,,,,,,,1.3,0.9,0.9*23
$BDGSA,A,3,,,,,,,,,,,,,1.3,0.9,0.9*21
$GAGSA,A,3,,,,,,,,,,,,,1.3,0.9,0.9*21
$GPRMC,051051.00,A,3848.788207,N,10039.272270,E,000.0,,250120,,,A*78
$GPGGA,051052.00,3848.787925,N,10039.271735,E,1,17,1.2,1598.0,M,-46.8,M,,*77
$GPGSV,4,1,13,31,76,331,17,14,71,052,15,32,49,097,16,22,43,294,20*75
$GPGSV,4,2,13,26,39,184,17,25,31,049,14,03,26,314,22,10,12,162,21*70
$GPGSV,4,3,13,01,11,266,28,29,07,094,27,04,01,296,17,16,13,192,*70
$GPGSV,4,4,13,12,00,031,*4A
$GLGSV,2,1,05,79,81,351,24,69,81,007,22,68,39,136,19,70,22,325,23*6E
$GLGSV,2,2,05,80,36,225,*58
$QZGSV,1,1,03,02,58,076,20,01,34,143,15,03,08,131,21*55
$BDGSV,3,1,09,209,76,021,,222,75,189,,216,65,082,,206,63,086,*69
$BDGSV,3,2,09,207,60,160,,221,43,310,,210,42,187,,202,41,205,*69
$BDGSV,3,3,09,201,29,128,*62
$GAGSV,2,1,06,103,76,104,,125,63,061,,102,56,197,,108,47,313,*6B
$GAGSV,2,2,06,105,23,123,,130,07,213,*6E
$GPGSA,A,3,01,03,10,14,22,25,26,29,31,32,,,1.3,0.9,0.9*3D
$GNGSA,A,3,01,03,10,14,22,25,26,29,31,32,,,1.3,0.9,0.9*23
$GNGSA,A,3,68,69,70,79,,,,,,,,,1.3,0.9,0.9*26
$QZGSA,A,3,01,02,03,,,,,,,,,,1.3,0.9,0.9*2C
$IMGSA,A,3,,,,,,,,,,,,,1.3,0.9,0.9*23
$BDGSA,A,3,,,,,,,,,,,,,1.3,0.9,0.9*21
$GAGSA,A,3,,,,,,,,,,,,,1.3,0.9,0.9*21
$GPRMC,051052.00,A,3848.787925,N,10039.271735,E,000.0,,250120,,,A*78
$GPGGA,051053.00,3848.787710,N,10039.272075,E,1,17,1.2,1599.6,M,-46.8,M,,*79
$GPGSV,4,1,13,31,76,331,17,14,71,052,15,32,49,097,16,22,43,294,21*74
$GPGSV,4,2,13,26,39,184,17,25,31,049,14,03,26,314,22,10,12,162,21*70
$GPGSV,4,3,13,01,11,266,28,29,07,094,27,04,01,296,17,16,13,192,*70
$GPGSV,4,4,13,12,00,031,*4A
$GLGSV,2,1,05,79,81,351,24,69,81,007,22,68,39,136,19,70,22,325,23*6E
$GLGSV,2,2,05,80,36,225,*58
$QZGSV,1,1,03,02,58,076,21,01,34,143,15,03,08,131,20*55
$BDGSV,3,1,09,209,76,021,,222,75,189,,216,65,082,,206,63,086,*69
$BDGSV,3,2,09,207,60,160,,221,43,310,,210,42,187,,202,41,205,*69
$BDGSV,3,3,09,201,29,128,*62
$GAGSV,2,1,06,103,76,105,,125,63,061,,102,56,197,,108,47,313,*6A
$GAGSV,2,2,06,105,23,123,,130,07,213,*6E
$GPGSA,A,3,01,03,10,14,22,25,26,29,31,32,,,1.7,1.3,1.0*3A
$GNGSA,A,3,01,03,10,14,22,25,26,29,31,32,,,1.7,1.3,1.0*24
$GNGSA,A,3,68,69,70,79,,,,,,,,,1.7,1.3,1.0*21
$QZGSA,A,3,01,02,03,,,,,,,,,,1.7,1.3,1.0*2B
$IMGSA,A,3,,,,,,,,,,,,,1.7,1.3,1.0*24
$BDGSA,A,3,,,,,,,,,,,,,1.7,1.3,1.0*26
$GAGSA,A,3,,,,,,,,,,,,,1.7,1.3,1.0*26
$GPRMC,051053.00,A,3848.787710,N,10039.272075,E,000.0,,250120,,,A*71
$GPGGA,051054.00,3848.787710,N,10039.272075,E,1,17,1.2,1600.8,M,-46.8,M,,*73
$GPGSV,4,1,13,31,76,331,17,14,71,052,15,32,49,097,15,22,43,294,21*77
$GPGSV,4,2,13,26,39,184,16,25,31,049,14,03,26,314,21,10,12,162,20*73
$GPGSV,4,3,13,01,11,266,28,29,07,094,26,04,01,296,16,16,13,192,*70
$GPGSV,4,4,13,12,00,031,*4A
$GLGSV,2,1,05,79,81,351,24,69,81,007,21,68,39,136,19,70,22,325,24*6A
$GLGSV,2,2,05,80,36,225,*58
$QZGSV,1,1,03,02,58,076,21,01,34,143,15,03,08,131,20*55
$BDGSV,3,1,09,209,76,021,,222,75,189,,216,65,082,,206,63,086,*69
$BDGSV,3,2,09,207,60,160,,221,43,310,,210,42,187,,202,41,205,*69
$BDGSV,3,3,09,201,29,128,*62
$GAGSV,2,1,06,103,76,105,,125,63,061,,102,56,197,,108,47,313,*6A
$GAGSV,2,2,06,105,23,123,,130,07,213,*6E
$GPGSA,A,3,01,03,10,14,22,25,26,29,31,32,,,1.7,1.3,1.1*3B
$GNGSA,A,3,01,03,10,14,22,25,26,29,31,32,,,1.7,1.3,1.1*25
$GNGSA,A,3,68,69,70,79,,,,,,,,,1.7,1.3,1.1*20
$QZGSA,A,3,01,02,03,,,,,,,,,,1.7,1.3,1.1*2A
$IMGSA,A,3,,,,,,,,,,,,,1.7,1.3,1.1*25
$BDGSA,A,3,,,,,,,,,,,,,1.7,1.3,1.1*27
$GAGSA,A,3,,,,,,,,,,,,,1.7,1.3,1.1*27
$GPRMC,051054.00,A,3848.787710,N,10039.272075,E,000.0,,250120,,,A*76
$GPGGA,051055.00,3848.787710,N,10039.272075,E,1,22,1.2,1601.3,M,-46.8,M,,*7E
$GPGSV,4,1,13,31,76,331,18,14,71,052,15,32,49,097,15,22,43,294,21*78
$GPGSV,4,2,13,26,39,184,16,25,31,049,14,03,26,314,21,16,13,192,09*70
$GPGSV,4,3,13,10,12,162,20,01,11,266,28,29,07,094,26,04,01,296,16*7A
$GPGSV,4,4,13,12,00,031,*4A
$GLGSV,2,1,05,69,81,007,21,79,81,351,24,68,39,136,19,80,36,225,*67
$GLGSV,2,2,05,70,22,325,24*55
$QZGSV,1,1,03,02,58,076,21,01,34,143,15,03,08,131,20*55
$BDGSV,3,1,09,209,76,021,,222,75,189,,216,65,082,,206,63,086,*69
$BDGSV,3,2,09,207,60,160,,221,43,310,,210,42,187,,202,41,205,*69
$BDGSV,3,3,09,201,29,128,*62
$GAGSV,2,1,06,103,76,105,23,125,63,061,32,102,56,197,31,108,47,313,32*69
$GAGSV,2,2,06,105,23,123,,130,07,213,24*68
$GPGSA,A,3,01,03,10,14,22,25,26,29,31,32,,,1.6,1.0,1.3*3B
$GNGSA,A,3,01,03,10,14,22,25,26,29,31,32,,,1.6,1.0,1.3*25
$GNGSA,A,3,68,69,70,79,,,,,,,,,1.6,1.0,1.3*20
$QZGSA,A,3,01,02,03,,,,,,,,,,1.6,1.0,1.3*2A
$IMGSA,A,3,,,,,,,,,,,,,1.6,1.0,1.3*25
$BDGSA,A,3,,,,,,,,,,,,,1.6,1.0,1.3*27
$GAGSA,A,3,102,103,108,125,130,,,,,,,,1.6,1.0,1.3*1B
$GPRMC,051055.00,A,3848.787710,N,10039.272075,E,000.0,,250120,,,A*77
$GPGGA,051056.00,3848.787710,N,10039.272075,E,1,22,1.2,1601.2,M,-46.8,M,,*7C
$GPGSV,4,1,13,31,76,331,22,14,71,052,15,32,49,097,15,22,43,294,21*71
$GPGSV,4,2,13,26,39,184,16,25,31,049,14,03,26,314,21,16,13,192,09*70
$GPGSV,4,3,13,10,12,162,20,01,11,266,28,29,07,094,26,04,01,296,15*79
$GPGSV,4,4,13,12,00,031,*4A
$GLGSV,2,1,05,69,81,007,21,79,81,351,24,68,39,136,19,80,36,225,*67
$GLGSV,2,2,05,70,22,325,24*55
$QZGSV,1,1,03,02,58,076,21,01,34,143,15,03,08,131,20*55
$BDGSV,3,1,09,209,76,021,,222,75,189,,216,65,082,,206,63,086,*69
$BDGSV,3,2,09,207,60,160,,221,43,310,,210,42,187,,202,41,205,*69
$BDGSV,3,3,09,201,29,128,*62
$GAGSV,2,1,06,103,76,105,23,125,63,061,31,102,56,197,31,108,47,313,31*69
$GAGSV,2,2,06,105,23,123,12,130,07,213,24*6B
$GPGSA,A,3,01,03,10,14,22,25,26,29,31,32,,,1.5,1.0,1.1*3A
$GNGSA,A,3,01,03,10,14,22,25,26,29,31,32,,,1.5,1.0,1.1*24
$GNGSA,A,3,68,69,70,79,,,,,,,,,1.5,1.0,1.1*21
$QZGSA,A,3,01,02,03,,,,,,,,,,1.5,1.0,1.1*2B
$IMGSA,A,3,,,,,,,,,,,,,1.5,1.0,1.1*24
$BDGSA,A,3,,,,,,,,,,,,,1.5,1.0,1.1*26
$GAGSA,A,3,102,103,108,125,130,,,,,,,,1.5,1.0,1.1*1A
$GPRMC,051056.00,A,3848.787710,N,10039.272075,E,000.0,,250120,,,A*74
$GPGGA,051057.00,3848.787710,N,10039.272075,E,1,23,1.2,1600.9,M,-46.8,M,,*76
$GPGSV,4,1,13,31,76,331,22,14,71,052,15,32,49,097,15,22,43,294,22*72
$GPGSV,4,2,13,26,39,184,15,25,31,049,14,03,26,314,21,16,13,192,10*7B
$GPGSV,4,3,13,10,12,162,20,01,11,266,27,29,07,094,26,04,01,296,*72
$GPGSV,4,4,13,12,00,031,*4A
$GLGSV,2,1,05,69,81,007,21,79,81,351,23,68,39,136,19,80,36,226,*63
$GLGSV,2,2,05,70,22,325,23*52
$QZGSV,1,1,03,02,58,076,21,01,34,143,15,03,08,131,20*55
$BDGSV,3,1,09,209,76,021,,222,75,189,,216,65,082,,206,63,086,*69
$BDGSV,3,2,09,207,60,160,,221,43,310,,210,42,187,,202,41,205,*69
$BDGSV,3,3,09,201,29,128,*62
$GAGSV,2,1,06,103,75,105,23,125,63,061,30,102,56,197,30,108,47,313,30*6B
$GAGSV,2,2,06,105,23,123,33,130,07,213,24*68
$GPGSA,A,3,01,03,10,14,22,25,26,29,31,32,,,1.5,1.1,1.1*3B
$GNGSA,A,3,01,03,10,14,22,25,26,29,31,32,,,1.5,1.1,1.1*25
$GNGSA,A,3,68,69,70,79,,,,,,,,,1.5,1.1,1.1*20
$QZGSA,A,3,01,02,03,,,,,,,,,,1.5,1.1,1.1*2A
$IMGSA,A,3,,,,,,,,,,,,,1.5,1.1,1.1*25
$BDGSA,A,3,,,,,,,,,,,,,1.5,1.1,1.1*27
$GAGSA,A,3,102,103,105,108,125,130,,,,,,,1.5,1.1,1.1*2F
$GPRMC,051057.00,A,3848.787710,N,10039.272075,E,000.0,,250120,,,A*75
$GPGGA,051058.00,3848.787710,N,10039.272075,E,1,23,1.2,1600.7,M,-46.8,M,,*77
$GPGSV,4,1,13,31,76,331,21,14,71,052,15,32,49,097,15,22,43,294,22*71
$GPGSV,4,2,13,26,39,184,15,25,31,049,13,03,26,314,20,16,13,192,09*75
$GPGSV,4,3,13,10,12,162,19,01,11,266,27,29,07,094,26,04,01,296,*78
$GPGSV,4,4,13,12,00,031,*4A
$GLGSV,2,1,05,69,81,007,21,79,81,351,23,68,39,136,19,80,36,226,*63
$GLGSV,2,2,05,70,22,325,23*52
$QZGSV,1,1,03,02,58,076,21,01,34,143,15,03,08,131,20*55
$BDGSV,3,1,09,209,76,021,,222,75,189,,216,65,082,,206,63,086,*69
$BDGSV,3,2,09,207,60,160,,221,43,310,,210,42,187,,202,41,205,*69
$BDGSV,3,3,09,201,29,128,*62
$GAGSV,2,1,06,103,75,105,22,125,63,061,29,102,56,197,29,108,47,313,30*6A
$GAGSV,2,2,06,105,23,123,33,130,07,213,24*68
$GPGSA,A,3,01,03,10,14,22,25,26,29,31,32,,,1.5,1.0,1.1*3A
$GNGSA,A,3,01,03,10,14,22,25,26,29,31,32,,,1.5,1.0,1.1*24
$GNGSA,A,3,68,69,70,79,,,,,,,,,1.5,1.0,1.1*21
$QZGSA,A,3,01,02,03,,,,,,,,,,1.5,1.0,1.1*2B
$IMGSA,A,3,,,,,,,,,,,,,1.5,1.0,1.1*24
$BDGSA,A,3,,,,,,,,,,,,,1.5,1.0,1.1*26
$GAGSA,A,3,102,103,105,108,125,130,,,,,,,1.5,1.0,1.1*2E
$GPRMC,051058.00,A,3848.787710,N,10039.272075,E,000.0,,250120,,,A*7A
$GPGGA,051059.00,3848.787710,N,10039.272075,E,1,22,1.2,1600.6,M,-46.8,M,,*76
$GPGSV,4,1,13,31,76,331,24,14,71,052,15,32,49,097,20,22,43,294,22*72
$GPGSV,4,2,13,26,39,184,20,25,31,049,13,03,26,314,23,16,13,192,10*78
$GPGSV,4,3,13,10,12,162,19,01,11,266,28,29,07,094,26,04,01,296,20*75
$GPGSV,4,4,13,12,00,031,*4A
$GLGSV,2,1,05,69,81,007,21,79,81,351,23,68,39,136,24,80,36,226,10*6C
$GLGSV,2,2,05,70,22,325,23*52
$QZGSV,1,1,03,02,58,076,20,01,34,143,15,03,08,131,19*5E
$BDGSV,3,1,09,209,76,021,,222,75,189,,216,65,082,,206,63,086,*69
$BDGSV,3,2,09,207,60,160,,221,43,310,,210,42,187,,202,41,205,*69
$BDGSV,3,3,09,201,29,128,*62
$GAGSV,2,1,06,103,75,105,22,125,63,061,28,102,56,197,28,108,47,313,29*62
$GAGSV,2,2,06,105,23,123,32,130,07,213,*6F
$GPGSA,A,3,01,03,10,14,22,25,26,29,31,32,,,1.6,1.2,1.1*3B
$GNGSA,A,3,01,03,10,14,22,25,26,29,31,32,,,1.6,1.2,1.1*25
$GNGSA,A,3,68,69,70,79,,,,,,,,,1.6,1.2,1.1*20
$QZGSA,A,3,01,02,03,,,,,,,,,,1.6,1.2,1.1*2A
$IMGSA,A,3,,,,,,,,,,,,,1.6,1.2,1.1*25
$BDGSA,A,3,,,,,,,,,,,,,1.6,1.2,1.1*27
$GAGSA,A,3,102,103,105,108,125,,,,,,,,1.6,1.2,1.1*1D
$GPRMC,051059.00,A,3848.787710,N,10039.272075,E,000.0,,250120,,,A*7B
$GPGGA,051100.00,3848.787710,N,10039.272075,E,1,24,1.2,1600.4,M,-46.8,M,,*7F
$GPGSV,4,1,13,31,76,331,26,14,71,052,15,32,49,097,20,22,43,294,26*74
$GPGSV,4,2,13,26,39,184,22,25,31,049,13,03,26,314,23,16,13,192,14*7E
$GPGSV,4,3,13,10,12,162,18,01,11,266,28,29,07,094,25,04,01,296,21*76
$GPGSV,4,4,13,12,00,031,*4A
$GLGSV,2,1,05,69,81,007,21,79,81,351,22,68,39,136,25,80,36,226,*6D
$GLGSV,2,2,05,70,22,325,22*53
$QZGSV,1,1,03,02,58,076,20,01,34,143,14,03,08,131,19*5F
$BDGSV,3,1,09,209,76,021,,222,75,189,,216,65,082,,206,63,086,*69
$BDGSV,3,2,09,207,60,160,,221,43,310,,210,42,187,,202,41,205,*69
$BDGSV,3,3,09,201,29,128,*62
$GAGSV,2,1,06,103,75,105,21,125,63,061,27,102,56,197,27,108,47,313,28*60
$GAGSV,2,2,06,105,23,123,31,130,07,213,22*6C
$GPGSA,A,3,01,03,10,14,16,22,25,26,29,31,32,,1.6,1.1,1.1*3F
$GNGSA,A,3,01,03,10,14,16,22,25,26,29,31,32,,1.6,1.1,1.1*21
$GNGSA,A,3,68,69,70,79,,,,,,,,,1.6,1.1,1.1*23
$QZGSA,A,3,01,02,03,,,,,,,,,,1.6,1.1,1.1*29
$IMGSA,A,3,,,,,,,,,,,,,1.6,1.1,1.1*26
$BDGSA,A,3,,,,,,,,,,,,,1.6,1.1,1.1*24
$GAGSA,A,3,102,103,105,108,125,130,,,,,,,1.6,1.1,1.1*2C
$GPRMC,051100.00,A,3848.787710,N,10039.272075,E,000.0,,250120,,,A*76
$GPGGA,051101.00,3848.787710,N,10039.272075,E,1,24,0.8,1600.2,M,-46.8,M,,*73
$GPGSV,3,1,12,31,76,331,26,14,71,052,15,32,49,097,20,22,43,294,26*72
$GPGSV,3,2,12,26,39,184,22,25,31,049,13,03,26,314,23,16,13,192,14*78
$GPGSV,3,3,12,10,12,162,18,01,11,266,28,29,07,094,25,04,01,296,22*73
$GLGSV,2,1,05,79,81,351,21,69,81,007,20,68,39,136,25,80,36,226,16*68
$GLGSV,2,2,05,70,22,325,22*53
$QZGSV,1,1,03,02,58,076,19,01,34,143,14,03,08,131,18*54
$BDGSV,3,1,10,209,76,021,,222,75,189,,216,65,082,,206,63,086,*61
$BDGSV,3,2,10,207,60,160,,221,43,310,,210,42,187,,202,41,205,*61
$BDGSV,3,3,10,201,29,128,,219,24,149,*6A
$GAGSV,2,1,06,103,75,105,20,125,63,061,26,102,56,197,25,108,47,313,27*6D
$GAGSV,2,2,06,105,23,123,30,130,07,213,21*6E
$GPGSA,A,3,01,03,14,16,22,25,26,29,31,32,,,1.6,1.0,1.2*3C
$GNGSA,A,3,01,03,14,16,22,25,26,29,31,32,,,1.6,1.0,1.2*22
$GNGSA,A,3,68,69,70,79,80,,,,,,,,1.6,1.0,1.2*29
$QZGSA,A,3,01,02,03,,,,,,,,,,1.6,1.0,1.2*2B
$IMGSA,A,3,,,,,,,,,,,,,1.6,1.0,1.2*24
$BDGSA,A,3,,,,,,,,,,,,,1.6,1.0,1.2*26
$GAGSA,A,3,102,103,105,108,125,130,,,,,,,1.6,1.0,1.2*2E
$GPRMC,051101.00,A,3848.787710,N,10039.272075,E,000.0,,250120,,,A*77
$GPGGA,051102.00,3848.787710,N,10039.272075,E,1,23,0.8,1600.2,M,-46.8,M,,*77
$GPGSV,3,1,12,31,76,331,26,14,71,052,15,32,49,097,20,22,43,294,27*73
$GPGSV,3,2,12,26,39,184,21,25,31,049,14,03,26,314,24,16,13,192,14*7B
$GPGSV,3,3,12,10,12,162,17,01,11,266,27,29,07,094,25,04,01,296,22*73
$GLGSV,2,1,05,79,81,351,21,69,81,007,20,68,39,136,25,80,36,226,*6F
$GLGSV,2,2,05,70,22,325,21*50
$QZGSV,1,1,03,02,58,076,19,01,34,143,14,03,08,131,18*54
$BDGSV,3,1,10,209,76,021,,222,75,189,,216,65,082,,206,63,086,*61
$BDGSV,3,2,10,207,60,160,,221,43,310,,210,42,187,,202,41,205,*61
$BDGSV,3,3,10,201,29,128,,219,24,149,*6A
$GAGSV,2,1,06,103,75,105,20,125,63,060,25,102,56,197,24,108,47,313,26*6F
$GAGSV,2,2,06,105,23,124,30,130,07,213,21*69
$GPGSA,A,3,01,03,14,16,22,25,26,29,31,32,,,1.6,1.1,1.2*3D
$GNGSA,A,3,01,03,14,16,22,25,26,29,31,32,,,1.6,1.1,1.2*23
$GNGSA,A,3,68,69,70,79,,,,,,,,,1.6,1.1,1.2*20
$QZGSA,A,3,01,02,03,,,,,,,,,,1.6,1.1,1.2*2A
$IMGSA,A,3,,,,,,,,,,,,,1.6,1.1,1.2*25
$BDGSA,A,3,,,,,,,,,,,,,1.6,1.1,1.2*27
$GAGSA,A,3,102,103,105,108,125,130,,,,,,,1.6,1.1,1.2*2F
$GPRMC,051102.00,A,3848.787710,N,10039.272075,E,000.0,,250120,,,A*74
$GPGGA,051103.00,3848.787710,N,10039.272075,E,1,21,0.8,1600.2,M,-46.8,M,,*74
$GPGSV,3,1,12,31,76,331,26,14,71,052,15,32,49,097,19,22,43,294,27*79
$GPGSV,3,2,12,26,39,184,21,25,31,049,20,03,26,314,23,16,13,192,13*7C
$GPGSV,3,3,12,10,12,162,16,01,11,266,27,29,07,094,24,04,01,296,21*70
$GLGSV,2,1,05,79,81,351,20,69,81,007,20,68,39,136,24,80,36,226,*6F
$GLGSV,2,2,05,70,22,325,20*51
$QZGSV,1,1,03,02,58,076,18,01,34,143,14,03,08,131,17*5A
$BDGSV,3,1,10,209,76,021,,222,75,189,,216,65,082,,206,63,086,*61
$BDGSV,3,2,10,207,60,160,,221,43,310,,210,42,187,,202,41,205,*61
$BDGSV,3,3,10,201,29,128,,219,24,149,*6A
$GAGSV,2,1,06,103,75,105,19,125,63,060,25,102,56,197,24,108,47,313,26*65
$GAGSV,2,2,06,105,23,124,29,130,07,213,20*60
$GPGSA,A,3,01,03,14,22,25,26,29,31,32,,,,1.4,0.9,1.0*33
$GNGSA,A,3,01,03,14,22,25,26,29,31,32,,,,1.4,0.9,1.0*2D
$GNGSA,A,3,68,69,79,,,,,,,,,,1.4,0.9,1.0*2E
$QZGSA,A,3,01,02,03,,,,,,,,,,1.4,0.9,1.0*23
$IMGSA,A,3,,,,,,,,,,,,,1.4,0.9,1.0*2C
$BDGSA,A,3,,,,,,,,,,,,,1.4,0.9,1.0*2E
$GAGSA,A,3,102,103,105,108,125,130,,,,,,,1.4,0.9,1.0*26
$GPRMC,051103.00,A,3848.787710,N,10039.272075,E,000.0,,250120,,,A*75
$GPGGA,051104.00,3848.788554,N,10039.271523,E,1,20,0.8,1600.2,M,-46.8,M,,*7A
$GPGSV,3,1,12,31,76,331,26,14,71,052,15,32,49,097,18,22,43,294,26*79
$GPGSV,3,2,12,26,39,184,21,25,31,049,21,03,26,314,23,16,13,192,13*7D
$GPGSV,3,3,12,10,12,162,16,01,11,266,26,29,07,094,24,04,01,296,21*71
$GLGSV,2,1,05,79,81,351,20,69,81,007,19,68,39,136,23,80,36,226,*62
$GLGSV,2,2,05,70,22,325,19*5B
$QZGSV,1,1,03,02,58,076,18,01,34,143,14,03,08,131,17*5A
$BDGSV,3,1,10,209,76,021,,222,75,189,,216,65,082,,206,63,086,*61
$BDGSV,3,2,10,207,60,160,,221,43,310,,210,42,187,,202,41,205,*61
$BDGSV,3,3,10,201,29,128,,219,24,149,*6A
$GAGSV,2,1,06,103,75,105,19,125,63,060,24,102,56,197,23,108,47,313,25*60
$GAGSV,2,2,06,105,23,124,27,130,07,213,*6C
$GPGSA,A,3,01,03,14,22,25,26,29,31,32,,,,1.8,1.0,1.5*32
$GNGSA,A,3,01,03,14,22,25,26,29,31,32,,,,1.8,1.0,1.5*2C
$GNGSA,A,3,68,69,79,,,,,,,,,,1.8,1.0,1.5*2F
$QZGSA,A,3,01,02,03,,,,,,,,,,1.8,1.0,1.5*22
$IMGSA,A,3,,,,,,,,,,,,,1.8,1.0,1.5*2D
$BDGSA,A,3,,,,,,,,,,,,,1.8,1.0,1.5*2F
$GAGSA,A,3,102,103,105,108,125,,,,,,,,1.8,1.0,1.5*15
$GPRMC,051104.00,A,3848.788554,N,10039.271523,E,001.0,,250120,,,A*7B
$GPGGA,051105.00,3848.788758,N,10039.271275,E,1,20,0.8,1600.2,M,-46.8,M,,*71
$GPGSV,3,1,12,31,76,331,25,14,71,052,15,32,49,097,18,22,43,294,26*7A
$GPGSV,3,2,12,26,39,184,21,25,31,049,20,03,26,314,23,16,13,192,13*7C
$GPGSV,3,3,12,10,12,162,15,01,11,266,25,29,07,094,23,04,01,296,20*77
$GLGSV,2,1,05,79,81,351,20,69,81,007,19,68,39,136,22,80,36,226,*63
$GLGSV,2,2,05,70,22,325,18*5A
$QZGSV,1,1,03,02,58,076,18,01,34,143,14,03,08,131,17*5A
$BDGSV,3,1,10,209,76,021,,222,75,189,,216,65,082,,206,63,086,*61
$BDGSV,3,2,10,207,60,160,,221,43,310,,210,42,187,,202,41,205,*61
$BDGSV,3,3,10,201,29,128,,219,24,149,*6A
$GAGSV,2,1,06,103,75,105,18,125,63,060,23,102,56,197,22,108,47,313,25*67
$GAGSV,2,2,06,105,23,124,26,130,07,213,*6D
$GPGSA,A,3,01,03,14,22,25,26,29,31,32,,,,1.8,1.0,1.5*32
$GNGSA,A,3,01,03,14,22,25,26,29,31,32,,,,1.8,1.0,1.5*2C
$GNGSA,A,3,68,69,79,,,,,,,,,,1.8,1.0,1.5*2F
$QZGSA,A,3,01,02,03,,,,,,,,,,1.8,1.0,1.5*22
$IMGSA,A,3,,,,,,,,,,,,,1.8,1.0,1.5*2D
$BDGSA,A,3,,,,,,,,,,,,,1.8,1.0,1.5*2F
$GAGSA,A,3,102,103,105,108,125,,,,,,,,1.8,1.0,1.5*15
$GPRMC,051105.00,A,3848.788758,N,10039.271275,E,000.8,331.2,250120,,,A*54
$GPGGA,051106.00,3848.789056,N,10039.270998,E,1,22,0.8,1600.2,M,-46.8,M,,*71
$GPGSV,3,1,12,31,76,331,25,14,71,052,15,32,49,097,20,22,43,294,26*71
$GPGSV,3,2,12,26,39,184,20,25,31,049,20,03,26,314,23,16,13,192,13*7D
$GPGSV,3,3,12,10,12,162,15,01,11,266,26,29,07,094,23,04,01,296,23*77
$GLGSV,2,1,05,79,81,351,20,69,81,007,19,68,39,136,21,80,36,226,*60
$GLGSV,2,2,05,70,22,325,18*5A
$QZGSV,1,1,03,02,58,076,18,01,34,143,14,03,08,131,20*5E
$BDGSV,3,1,10,209,76,021,,222,75,189,,216,65,082,,206,63,086,*61
$BDGSV,3,2,10,207,60,160,,221,43,310,,210,42,187,,202,41,205,*61
$BDGSV,3,3,10,201,29,128,,219,24,149,*6A
$GAGSV,2,1,06,103,75,105,18,125,63,060,23,102,56,197,22,108,47,313,25*67
$GAGSV,2,2,06,105,23,124,26,130,07,213,17*6B
$GPGSA,A,3,01,03,14,16,22,25,26,29,31,32,,,1.8,1.2,1.2*30
$GNGSA,A,3,01,03,14,16,22,25,26,29,31,32,,,1.8,1.2,1.2*2E
$GNGSA,A,3,68,69,70,79,,,,,,,,,1.8,1.2,1.2*2D
$QZGSA,A,3,01,02,03,,,,,,,,,,1.8,1.2,1.2*27
$IMGSA,A,3,,,,,,,,,,,,,1.8,1.2,1.2*28
$BDGSA,A,3,,,,,,,,,,,,,1.8,1.2,1.2*2A
$GAGSA,A,3,102,103,105,108,125,,,,,,,,1.8,1.2,1.2*10
$GPRMC,051106.00,A,3848.789056,N,10039.270998,E,000.5,331.2,250120,,,A*5B
$GPGGA,051107.00,,,,,0,20,6.4,1600.2,M,-46.8,M,,*46
$GPGSV,3,1,12,31,76,331,24,14,71,052,14,32,49,097,20,22,43,294,25*72
$GPGSV,3,2,12,26,39,184,19,25,31,049,19,03,26,314,22,16,13,192,13*7C
$GPGSV,3,3,12,10,12,162,14,01,11,266,25,29,07,094,23,04,01,296,22*74
$GLGSV,2,1,05,79,81,352,19,69,81,007,18,68,39,136,21,80,36,226,*68
$GLGSV,2,2,05,70,22,325,17*55
$QZGSV,1,1,03,02,58,076,17,01,34,143,14,03,08,131,20*51
$BDGSV,3,1,10,209,76,021,,222,75,189,,216,65,082,,206,63,086,*61
$BDGSV,3,2,10,207,60,160,,221,43,310,,210,42,187,,202,41,205,*61
$BDGSV,3,3,10,201,29,128,,219,24,149,*6A
$GAGSV,2,1,06,103,75,105,18,125,63,060,22,102,56,197,21,108,47,313,24*64
$GAGSV,2,2,06,105,23,124,25,130,07,213,*6E
$GPGSA,A,1,,,,,,,,,,,,,1.6,1.1,1.2*34
$GNGSA,A,1,,,,,,,,,,,,,1.6,1.1,1.2*2A
$GNGSA,A,1,,,,,,,,,,,,,1.6,1.1,1.2*2A
$QZGSA,A,1,,,,,,,,,,,,,1.6,1.1,1.2*28
$IMGSA,A,1,,,,,,,,,,,,,1.6,1.1,1.2*27
$BDGSA,A,1,,,,,,,,,,,,,1.6,1.1,1.2*25
$GAGSA,A,1,,,,,,,,,,,,,1.6,1.1,1.2*25
$GPRMC,051107.00,V,,,,,,,250120,,,N*7B
$GPGGA,051153.35,,,,,0,00,999.9,,M,,M,,*63
$GPGSV,3,1,12,03,,,,01,,,,10,,,,04,,,*7F
$GPGSV,3,2,12,16,,,,14,,,,25,,,,22,,,*7E
$GPGSV,3,3,12,29,,,,26,,,,32,,,,31,,,*76
$GLGSV,2,1,05,80,,,,70,,,,69,,,,79,,,*6D
$GLGSV,2,2,05,68,,,*6E
$QZGSV,1,1,03,01,,,,03,,,,02,,,*66
$BDGSV,3,1,12,202,,,,201,,,,206,,,,204,,,*68
$BDGSV,3,2,12,209,,,,207,,,,216,,,,210,,,*62
$BDGSV,3,3,12,221,,,,219,,,,226,,,,222,,,*64
$GAGSV,1,1,04,103,,,,102,,,,108,,,,105,,,*60
$GPGSA,A,1,,,,,,,,,,,,,140.0,99.0,99.0*35
$GNGSA,A,1,,,,,,,,,,,,,140.0,99.0,99.0*2B
$GNGSA,A,1,,,,,,,,,,,,,140.0,99.0,99.0*2B
$QZGSA,A,1,,,,,,,,,,,,,140.0,99.0,99.0*29
$IMGSA,A,1,,,,,,,,,,,,,140.0,99.0,99.0*26
$BDGSA,A,1,,,,,,,,,,,,,140.0,99.0,99.0*24
$GAGSA,A,1,,,,,,,,,,,,,140.0,99.0,99.0*24
$GPRMC,051153.35,V,,,,,,,250120,,,N*7C
$GPGGA,051200.37,3848.776147,N,10039.263622,E,1,10,2.4,1606.8,M,-46.8,M,,*7E
$GPGSV,3,1,12,31,76,333,24,14,71,053,21,32,49,097,21,22,43,293,22*76
$GPGSV,3,2,12,26,40,184,16,03,27,314,31,10,11,162,18,01,11,266,24*7B
$GPGSV,3,3,12,29,08,093,18,04,02,297,,25,31,049,,16,13,192,*77
$GLGSV,2,1,05,79,80,353,23,70,22,325,29,69,81,009,,68,39,137,*67
$GLGSV,2,2,05,80,36,226,*5B
$QZGSV,1,1,03,03,08,131,08,02,58,076,,01,34,143,*58
$BDGSV,3,1,10,209,76,022,,222,74,188,,216,65,083,,206,63,086,*63
$BDGSV,3,2,10,207,60,160,,210,43,187,,221,43,310,,202,41,205,*60
$BDGSV,3,3,10,201,29,128,,219,24,149,*6A
$GAGSV,2,1,06,103,75,106,,125,63,060,,102,56,197,,108,47,313,*6B
$GAGSV,2,2,06,105,22,124,,130,07,213,*68
$GPGSA,A,3,01,03,10,14,26,29,31,32,,,,,1.4,1.0,1.0*3D
$GNGSA,A,3,01,03,10,14,26,29,31,32,,,,,1.4,1.0,1.0*23
$GNGSA,A,3,70,79,,,,,,,,,,,1.4,1.0,1.0*20
$QZGSA,A,3,,,,,,,,,,,,,1.4,1.0,1.0*2B
$IMGSA,A,3,,,,,,,,,,,,,1.4,1.0,1.0*24
$BDGSA,A,3,,,,,,,,,,,,,1.4,1.0,1.0*26
$GAGSA,A,3,,,,,,,,,,,,,1.4,1.0,1.0*26
$GPRMC,051200.37,A,3848.776147,N,10039.263622,E,001.7,,250120,,,A*79
$GPGGA,051201.36,3848.774825,N,10039.259695,E,1,09,2.4,1606.7,M,-46.8,M,,*73
$GPGSV,3,1,12,31,76,333,24,14,71,053,21,32,49,097,24,22,43,293,21*70
$GPGSV,3,2,12,26,40,184,16,03,27,314,31,10,11,162,18,01,11,266,23*7C
$GPGSV,3,3,12,29,08,093,18,04,02,297,,25,31,049,,16,13,192,*77
$GLGSV,2,1,05,69,82,009,21,79,80,353,24,70,22,325,29,68,39,137,*60
$GLGSV,2,2,05,80,36,226,*5B
$QZGSV,1,1,03,03,08,131,09,02,58,076,,01,34,143,*59
$BDGSV,3,1,10,209,76,022,,222,74,188,,216,65,083,,206,63,086,*63
$BDGSV,3,2,10,207,60,160,,210,43,187,,221,43,310,,202,41,205,*60
$BDGSV,3,3,10,201,29,128,,219,24,149,*6A
$GAGSV,2,1,06,103,75,106,,125,63,060,,102,56,197,,108,47,313,*6B
$GAGSV,2,2,06,105,22,124,,130,07,213,*68
$GPGSA,A,3,01,03,10,26,29,31,32,,,,,,1.4,0.9,1.1*31
$GNGSA,A,3,01,03,10,26,29,31,32,,,,,,1.4,0.9,1.1*2F
$GNGSA,A,3,70,79,,,,,,,,,,,1.4,0.9,1.1*29
$QZGSA,A,3,,,,,,,,,,,,,1.4,0.9,1.1*22
$IMGSA,A,3,,,,,,,,,,,,,1.4,0.9,1.1*2D
$BDGSA,A,3,,,,,,,,,,,,,1.4,0.9,1.1*2F
$GAGSA,A,3,,,,,,,,,,,,,1.4,0.9,1.1*2F
$GPRMC,051201.36,A,3848.774825,N,10039.259695,E,001.6,,250120,,,A*72
$GPGGA,051202.36,3848.771862,N,10039.248615,E,1,14,3.2,1600.3,M,-46.8,M,,*77
$GPGSV,3,1,12,31,76,333,25,14,71,053,20,32,49,097,26,22,43,293,23*70
$GPGSV,3,2,12,26,40,184,18,03,27,314,31,10,11,162,21,01,11,266,23*78
$GPGSV,3,3,12,29,08,093,19,04,02,297,,25,31,049,,16,13,192,*76
$GLGSV,2,1,05,69,82,009,23,79,80,353,24,68,39,137,18,70,22,325,29*6B
$GLGSV,2,2,05,80,36,226,*5B
$QZGSV,1,1,03,02,58,076,18,03,08,131,09,01,34,143,*50
$BDGSV,3,1,10,209,76,022,,222,74,188,,216,65,083,,206,63,086,*63
$BDGSV,3,2,10,207,60,160,,210,43,187,,221,43,310,,202,41,205,*60
$BDGSV,3,3,10,201,29,128,,219,24,149,*6A
$GAGSV,2,1,06,103,75,106,,125,63,060,,102,56,198,,108,47,313,*64
$GAGSV,2,2,06,105,22,124,,130,08,213,*67
$GPGSA,A,3,01,03,10,14,22,26,29,31,32,,,,1.3,0.9,1.0*32
$GNGSA,A,3,01,03,10,14,22,26,29,31,32,,,,1.3,0.9,1.0*2C
$GNGSA,A,3,68,69,70,79,,,,,,,,,1.3,0.9,1.0*2E
$QZGSA,A,3,02,,,,,,,,,,,,1.3,0.9,1.0*26
$IMGSA,A,3,,,,,,,,,,,,,1.3,0.9,1.0*2B
$BDGSA,A,3,,,,,,,,,,,,,1.3,0.9,1.0*29
$GAGSA,A,3,,,,,,,,,,,,,1.3,0.9,1.0*29
$GPRMC,051202.36,A,3848.771862,N,10039.248615,E,002.3,,250120,,,A*79
$GPGGA,051203.36,3848.773368,N,10039.250784,E,1,14,3.2,1597.5,M,-46.8,M,,*7E
$GPGSV,3,1,12,31,76,333,27,14,71,053,21,32,49,097,26,22,43,293,26*76
$GPGSV,3,2,12,26,40,184,18,03,27,314,31,10,11,162,20,01,11,266,23*79
$GPGSV,3,3,12,29,08,093,19,04,02,297,,25,31,049,,16,13,192,*76
$GLGSV,2,1,05,69,82,009,23,79,80,353,23,68,39,137,24,70,22,325,29*63
$GLGSV,2,2,05,80,36,226,*5B
$QZGSV,1,1,03,02,58,076,22,03,08,131,,01,34,143,*50
$BDGSV,3,1,10,209,76,022,,222,74,188,,216,65,083,,206,63,086,*63
$BDGSV,3,2,10,207,60,160,,210,43,187,,221,43,310,,202,41,205,*60
$BDGSV,3,3,10,201,29,128,,219,24,149,*6A
$GAGSV,2,1,06,103,75,106,,125,63,060,,102,56,197,,108,47,313,*6B
$GAGSV,2,2,06,105,22,124,,130,08,213,*67
$GPGSA,A,3,01,03,10,14,22,26,29,31,32,,,,2.1,1.5,1.4*3A
$GNGSA,A,3,01,03,10,14,22,26,29,31,32,,,,2.1,1.5,1.4*24
$GNGSA,A,3,68,69,70,79,,,,,,,,,2.1,1.5,1.4*26
$QZGSA,A,3,02,,,,,,,,,,,,2.1,1.5,1.4*2E
$IMGSA,A,3,,,,,,,,,,,,,2.1,1.5,1.4*23
$BDGSA,A,3,,,,,,,,,,,,,2.1,1.5,1.4*21
$GAGSA,A,3,,,,,,,,,,,,,2.1,1.5,1.4*21
$GPRMC,051203.36,A,3848.773368,N,10039.250784,E,002.1,,250120,,,A*79
$GPGGA,051204.00,3848.774678,N,10039.251797,E,1,14,3.2,1593.2,M,-46.8,M,,*7F
$GPGSV,3,1,12,31,76,333,28,14,71,053,23,32,49,097,26,22,43,293,26*7B
$GPGSV,3,2,12,26,40,184,17,03,27,314,30,10,11,162,20,01,11,266,23*77
$GPGSV,3,3,12,29,08,093,19,04,02,297,,25,31,049,,16,13,192,*76
$GLGSV,2,1,05,69,82,009,23,79,80,353,23,68,39,137,23,80,36,226,14*62
$GLGSV,2,2,05,70,22,325,28*59
$QZGSV,1,1,03,02,58,076,22,03,08,131,,01,34,143,*50
$BDGSV,3,1,10,209,76,022,,222,74,188,,216,65,083,,206,63,086,*63
$BDGSV,3,2,10,207,60,160,,210,43,187,,221,43,310,,202,41,205,*60
$BDGSV,3,3,10,201,29,128,,219,24,149,*6A
$GAGSV,2,1,06,103,75,106,,125,63,060,,102,56,198,,108,47,313,*64
$GAGSV,2,2,06,105,22,124,,130,08,213,*67
$GPGSA,A,3,01,03,10,14,22,29,31,32,,,,,1.9,1.3,1.4*33
$GNGSA,A,3,01,03,10,14,22,29,31,32,,,,,1.9,1.3,1.4*2D
$GNGSA,A,3,68,69,70,79,80,,,,,,,,1.9,1.3,1.4*23
$QZGSA,A,3,02,,,,,,,,,,,,1.9,1.3,1.4*23
$IMGSA,A,3,,,,,,,,,,,,,1.9,1.3,1.4*2E
$BDGSA,A,3,,,,,,,,,,,,,1.9,1.3,1.4*2C
$GAGSA,A,3,,,,,,,,,,,,,1.9,1.3,1.4*2C
$GPRMC,051204.00,A,3848.774678,N,10039.251797,E,000.0,,250120,,,A*78
$GPGGA,051205.00,3848.774493,N,10039.251720,E,1,18,2.4,1588.8,M,-46.8,M,,*7E
$GPGSV,3,1,12,31,76,333,28,14,71,053,23,32,49,097,25,22,43,293,26*78
$GPGSV,3,2,12,26,40,184,21,25,31,049,14,03,27,314,30,16,13,192,15*70
$GPGSV,3,3,12,10,11,162,20,01,11,266,22,29,08,093,19,04,02,297,*74
$GLGSV,2,1,05,69,82,009,22,79,80,353,23,68,39,137,23,80,36,226,14*63
$GLGSV,2,2,05,70,23,325,28*58
$QZGSV,1,1,03,02,58,076,21,01,34,143,15,03,08,131,*57
$BDGSV,3,1,10,209,76,022,,222,74,188,,216,65,083,,206,63,086,*63
$BDGSV,3,2,10,207,60,160,,221,43,310,,210,43,187,,202,41,205,*60
$BDGSV,3,3,10,201,29,128,,219,24,149,*6A
$GAGSV,2,1,06,103,75,106,,125,63,060,,102,56,198,,108,47,313,*64
$GAGSV,2,2,06,105,22,124,,130,08,213,*67
$GPGSA,A,3,01,03,10,14,16,22,25,26,29,31,32,,1.8,1.1,1.3*33
$GNGSA,A,3,01,03,10,14,16,22,25,26,29,31,32,,1.8,1.1,1.3*2D
$GNGSA,A,3,68,69,70,79,80,,,,,,,,1.8,1.1,1.3*27
$QZGSA,A,3,01,02,,,,,,,,,,,1.8,1.1,1.3*26
$IMGSA,A,3,,,,,,,,,,,,,1.8,1.1,1.3*2A
$BDGSA,A,3,,,,,,,,,,,,,1.8,1.1,1.3*28
$GAGSA,A,3,,,,,,,,,,,,,1.8,1.1,1.3*28
$GPRMC,051205.00,A,3848.774493,N,10039.251720,E,000.0,,250120,,,A*72
$GPGGA,051206.00,3848.773732,N,10039.250560,E,1,18,2.4,1586.7,M,-46.8,M,,*74
$GPGSV,3,1,12,31,76,333,28,14,71,053,23,32,49,097,25,22,43,293,26*78
$GPGSV,3,2,12,26,40,184,21,25,31,049,15,03,27,314,30,16,13,192,18*7C
$GPGSV,3,3,12,10,11,162,21,01,11,266,22,29,08,093,18,04,02,297,*74
$GLGSV,2,1,05,69,82,009,22,79,80,353,22,68,39,137,24,80,36,226,13*62
$GLGSV,2,2,05,70,23,325,28*58
$QZGSV,1,1,03,02,58,076,21,01,34,143,20,03,08,131,08*59
$BDGSV,3,1,10,209,76,022,,222,74,188,,216,65,083,,206,63,086,*63
$BDGSV,3,2,10,207,60,160,,221,43,310,,210,43,187,,202,41,205,*60
$BDGSV,3,3,10,201,29,128,,219,24,149,*6A
$GAGSV,2,1,06,103,75,106,,125,63,060,,102,56,198,,108,47,313,*64
$GAGSV,2,2,06,105,22,124,,130,08,213,*67
$GPGSA,A,3,01,03,10,14,16,22,25,26,29,31,32,,1.4,1.0,1.0*3D
$GNGSA,A,3,01,03,10,14,16,22,25,26,29,31,32,,1.4,1.0,1.0*23
$GNGSA,A,3,68,69,70,79,80,,,,,,,,1.4,1.0,1.0*29
$QZGSA,A,3,01,02,,,,,,,,,,,1.4,1.0,1.0*28
$IMGSA,A,3,,,,,,,,,,,,,1.4,1.0,1.0*24
$BDGSA,A,3,,,,,,,,,,,,,1.4,1.0,1.0*26
$GAGSA,A,3,,,,,,,,,,,,,1.4,1.0,1.0*26
$GPRMC,051206.00,A,3848.773732,N,10039.250560,E,001.9,,250120,,,A*71
$GPGGA,051207.00,3848.773093,N,10039.249430,E,1,17,2.4,1586.1,M,-46.8,M,,*7C
$GPGSV,3,1,12,31,76,333,29,14,71,053,23,32,49,097,24,22,43,293,25*7B
$GPGSV,3,2,12,26,40,184,21,25,31,049,15,03,27,314,30,16,13,192,18*7C
$GPGSV,3,3,12,10,11,162,21,01,11,266,21,29,08,093,18,04,02,297,*77
$GLGSV,2,1,05,69,82,009,22,79,80,353,21,68,39,137,24,80,36,226,13*61
$GLGSV,2,2,05,70,23,325,28*58
$QZGSV,1,1,03,02,58,076,21,01,34,143,20,03,08,131,12*52
$BDGSV,3,1,10,209,76,022,,222,74,188,,216,65,083,,206,63,086,*63
$BDGSV,3,2,10,207,60,160,,221,43,310,,210,43,187,,202,41,205,*60
$BDGSV,3,3,10,201,29,128,,219,24,149,*6A
$GAGSV,2,1,06,103,75,106,,125,63,060,,102,56,198,,108,47,313,*64
$GAGSV,2,2,06,105,22,124,,130,08,213,*67
$GPGSA,A,3,01,03,10,14,16,22,25,26,29,31,32,,1.6,1.2,1.0*3D
$GNGSA,A,3,01,03,10,14,16,22,25,26,29,31,32,,1.6,1.2,1.0*23
$GNGSA,A,3,68,69,70,79,,,,,,,,,1.6,1.2,1.0*21
$QZGSA,A,3,01,02,,,,,,,,,,,1.6,1.2,1.0*28
$IMGSA,A,3,,,,,,,,,,,,,1.6,1.2,1.0*24
$BDGSA,A,3,,,,,,,,,,,,,1.6,1.2,1.0*26
$GAGSA,A,3,,,,,,,,,,,,,1.6,1.2,1.0*26
$GPRMC,051207.00,A,3848.773093,N,10039.249430,E,002.0,,250120,,,A*7A
$GPGGA,051208.00,3848.771682,N,10039.248352,E,1,17,1.6,1585.3,M,-46.8,M,,*75
$GPGSV,3,1,12,31,76,334,29,14,71,053,24,32,49,097,23,22,43,293,25*7C
$GPGSV,3,2,12,26,40,184,20,25,31,049,20,03,27,314,34,16,13,192,18*7F
$GPGSV,3,3,12,10,11,162,21,01,11,266,21,29,08,093,17,04,02,297,*78
$GLGSV,2,1,05,69,82,009,23,79,80,353,21,68,39,137,23,80,36,226,13*67
$GLGSV,2,2,05,70,23,325,28*58
$QZGSV,1,1,03,02,58,076,20,01,34,143,20,03,08,131,13*52
$BDGSV,3,1,10,209,76,022,,222,74,188,,216,65,083,,206,63,086,*63
$BDGSV,3,2,10,207,60,160,,221,43,310,,210,43,187,,202,41,205,*60
$BDGSV,3,3,10,201,29,128,,219,24,149,*6A
$GAGSV,2,1,06,103,75,106,,125,63,060,,102,56,198,,108,47,313,*64
$GAGSV,2,2,06,105,22,124,,130,08,213,*67
$GPGSA,A,3,01,03,10,14,16,22,25,26,29,31,32,,1.3,0.9,1.0*32
$GNGSA,A,3,01,03,10,14,16,22,25,26,29,31,32,,1.3,0.9,1.0*2C
$GNGSA,A,3,68,69,70,79,,,,,,,,,1.3,0.9,1.0*2E
$QZGSA,A,3,01,03,,,,,,,,,,,1.3,0.9,1.0*26
$IMGSA,A,3,,,,,,,,,,,,,1.3,0.9,1.0*2B
$BDGSA,A,3,,,,,,,,,,,,,1.3,0.9,1.0*29
$GAGSA,A,3,,,,,,,,,,,,,1.3,0.9,1.0*29
$GPRMC,051208.00,A,3848.771682,N,10039.248352,E,002.3,,250120,,,A*70
$GPGGA,051209.00,3848.771132,N,10039.247305,E,1,18,1.6,1585.0,M,-46.8,M,,*79
$GPGSV,3,1,12,31,76,334,28,14,71,053,25,32,49,097,22,22,43,293,25*7D
$GPGSV,3,2,12,26,40,184,19,25,31,049,23,03,27,314,34,16,13,192,19*77
$GPGSV,3,3,12,10,11,162,20,01,11,266,20,29,08,093,17,04,02,297,*78
$GLGSV,2,1,05,69,82,009,25,79,80,353,22,68,39,137,23,80,36,226,13*62
$GLGSV,2,2,05,70,23,325,28*58
$QZGSV,1,1,03,02,58,076,19,01,34,143,19,03,08,131,13*52
$BDGSV,3,1,10,209,76,022,,222,74,188,,216,65,083,,206,63,086,*63
$BDGSV,3,2,10,207,60,160,,221,43,310,,210,43,187,,202,41,205,*60
$BDGSV,3,3,10,201,29,128,,219,24,149,*6A
$GAGSV,2,1,06,103,75,106,,125,63,060,,102,56,198,,108,47,313,*64
$GAGSV,2,2,06,105,22,124,,130,08,213,*67
$GPGSA,A,3,01,03,10,14,16,22,25,26,29,31,32,,1.9,1.3,1.4*37
$GNGSA,A,3,01,03,10,14,16,22,25,26,29,31,32,,1.9,1.3,1.4*29
$GNGSA,A,3,68,69,70,79,,,,,,,,,1.9,1.3,1.4*2B
$QZGSA,A,3,01,02,03,,,,,,,,,,1.9,1.3,1.4*21
$IMGSA,A,3,,,,,,,,,,,,,1.9,1.3,1.4*2E
$BDGSA,A,3,,,,,,,,,,,,,1.9,1.3,1.4*2C
$GAGSA,A,3,,,,,,,,,,,,,1.9,1.3,1.4*2C
$GPRMC,051209.00,A,3848.771132,N,10039.247305,E,002.0,,250120,,,A*73
$GPGGA,051210.00,3848.770122,N,10039.245797,E,1,18,1.6,1585.5,M,-46.8,M,,*79
$GPGSV,3,1,12,31,76,334,28,14,71,053,25,32,49,097,22,22,43,293,24*7C
$GPGSV,3,2,12,26,40,184,19,25,31,049,23,03,27,314,35,16,13,192,19*76
$GPGSV,3,3,12,10,11,162,20,01,11,266,19,29,08,093,17,04,02,297,*72
$GLGSV,2,1,05,69,82,009,25,79,80,353,23,68,39,137,23,80,36,226,13*63
$GLGSV,2,2,05,70,23,325,28*58
$QZGSV,1,1,03,02,58,076,20,01,34,143,19,03,08,131,13*58
$BDGSV,3,1,10,209,76,022,,222,74,188,,216,65,083,,206,63,086,*63
$BDGSV,3,2,10,207,60,160,,221,43,310,,210,43,187,,202,41,205,*60
$BDGSV,3,3,10,201,29,128,,219,24,149,*6A
$GAGSV,2,1,06,103,75,106,,125,63,060,,102,56,198,,108,47,313,*64
$GAGSV,2,2,06,105,22,124,,130,08,213,*67
$GPGSA,A,3,01,03,10,14,16,22,25,26,29,31,32,,1.9,1.5,1.2*37
$GNGSA,A,3,01,03,10,14,16,22,25,26,29,31,32,,1.9,1.5,1.2*29
$GNGSA,A,3,68,69,70,79,,,,,,,,,1.9,1.5,1.2*2B
$QZGSA,A,3,01,02,03,,,,,,,,,,1.9,1.5,1.2*21
$IMGSA,A,3,,,,,,,,,,,,,1.9,1.5,1.2*2E
$BDGSA,A,3,,,,,,,,,,,,,1.9,1.5,1.2*2C
$GAGSA,A,3,,,,,,,,,,,,,1.9,1.5,1.2*2C
$GPRMC,051210.00,A,3848.770122,N,10039.245797,E,001.7,,250120,,,A*72
$GPGGA,051211.00,3848.767936,N,10039.243756,E,1,18,1.2,1585.7,M,-46.8,M,,*7E
$GPGSV,3,1,12,31,76,334,28,14,71,053,25,32,49,097,22,22,43,293,24*7C
$GPGSV,3,2,12,26,40,184,20,25,31,049,23,03,27,314,34,16,13,192,19*7D
$GPGSV,3,3,12,10,11,162,19,01,11,266,19,29,08,093,17,04,02,297,*78
$GLGSV,2,1,05,69,82,009,25,79,80,353,23,68,39,137,22,80,36,226,13*62
$GLGSV,2,2,05,70,23,325,28*58
$QZGSV,1,1,03,02,58,076,20,01,34,143,18,03,08,131,13*59
$BDGSV,3,1,10,209,76,022,,222,74,188,,216,65,083,,206,63,086,*63
$BDGSV,3,2,10,207,60,160,,221,43,310,,210,43,187,,202,41,205,*60
$BDGSV,3,3,10,201,29,128,,219,24,149,*6A
$GAGSV,2,1,06,103,75,106,,125,63,060,,102,56,198,,108,47,313,*64
$GAGSV,2,2,06,105,22,124,,130,08,213,*67
$GPGSA,A,3,01,03,10,14,16,22,25,26,29,31,32,,1.5,1.0,1.2*3E
$GNGSA,A,3,01,03,10,14,16,22,25,26,29,31,32,,1.5,1.0,1.2*20
$GNGSA,A,3,68,69,70,79,,,,,,,,,1.5,1.0,1.2*22
$QZGSA,A,3,01,02,03,,,,,,,,,,1.5,1.0,1.2*28
$IMGSA,A,3,,,,,,,,,,,,,1.5,1.0,1.2*27
$BDGSA,A,3,,,,,,,,,,,,,1.5,1.0,1.2*25
$GAGSA,A,3,,,,,,,,,,,,,1.5,1.0,1.2*25
$GPRMC,051211.00,A,3848.767936,N,10039.243756,E,002.0,,250120,,,A*77
$GPGGA,051212.00,3848.766642,N,10039.242439,E,1,18,1.2,1585.6,M,-46.8,M,,*7A
$GPGSV,3,1,12,31,76,334,28,14,71,053,25,32,49,097,24,22,43,293,23*7D
$GPGSV,3,2,12,26,40,184,20,25,31,049,23,03,27,314,34,16,13,192,19*7D
$GPGSV,3,3,12,10,11,162,21,01,11,266,18,29,08,093,17,04,02,297,*72
$GLGSV,2,1,05,69,82,009,25,79,80,353,25,68,39,137,22,80,36,226,12*65
$GLGSV,2,2,05,70,23,325,28*58
$QZGSV,1,1,03,02,58,076,20,01,34,143,18,03,08,131,14*5E
$BDGSV,3,1,10,209,76,022,,222,74,188,,216,65,083,,206,63,086,*63
$BDGSV,3,2,10,207,60,160,,221,43,310,,210,43,187,,202,41,205,*60
$BDGSV,3,3,10,201,29,128,,219,24,149,*6A
