$GPGGA,123416.99,,,,,0,00,999.9,,M,,M,,*65
$GPGSV,3,1,12,07,69,168,,30,69,291,,11,62,100,,28,41,293,*7B
$GPGSV,3,2,12,01,40,129,,08,36,048,,17,22,227,,13,20,309,*7E
$GPGSV,3,3,12,27,04,049,,09,02,190,,15,00,330,,19,00,225,*7C
$GLGSV,2,1,08,86,58,045,,76,57,091,,77,52,335,,87,51,187,*60
$GLGSV,2,2,08,75,12,118,,68,09,314,,85,05,027,,67,04,267,*6E
$QZGSV,1,1,02,03,55,080,,02,36,115,*6E
$BDGSV,3,1,10,224,35,310,,229,26,046,,226,87,348,,207,59,076,*6A
$BDGSV,3,2,10,203,41,156,,202,41,195,,208,38,148,,205,30,227,*69
$BDGSV,3,3,10,201,25,121,,212,17,212,*69
$GAGSV,1,1,04,102,68,066,,136,56,082,,130,47,310,,125,20,103,*69
$GPGSA,A,1,,,,,,,,,,,,,140.0,99.0,99.0*35
$GNGSA,A,1,,,,,,,,,,,,,140.0,99.0,99.0*2B
$GNGSA,A,1,,,,,,,,,,,,,140.0,99.0,99.0*2B
$QZGSA,A,1,,,,,,,,,,,,,140.0,99.0,99.0*29
$IMGSA,A,1,,,,,,,,,,,,,140.0,99.0,99.0*26
$BDGSA,A,1,,,,,,,,,,,,,140.0,99.0,99.0*24
$GAGSA,A,1,,,,,,,,,,,,,140.0,99.0,99.0*24
$GPRMC,123416.99,V,,,,,,,190120,,,N*75
$GPGGA,123417.99,,,,,0,00,999.9,,M,,M,,*64
$GPGSV,3,1,12,07,69,168,,30,69,291,,11,62,100,,28,41,293,*7B
$GPGSV,3,2,12,01,40,129,,08,36,048,,17,22,227,,13,20,309,*7E
$GPGSV,3,3,12,27,04,049,,09,02,190,,15,00,330,,19,00,225,*7C
$GLGSV,2,1,08,86,58,045,,76,57,091,,77,52,335,,87,51,187,*60
$GLGSV,2,2,08,75,12,118,,68,09,314,,85,05,027,,67,04,267,*6E
$QZGSV,1,1,02,03,55,080,,02,36,115,*6E
$BDGSV,3,1,10,224,35,310,,229,26,046,,226,87,348,,207,59,076,*6A
$BDGSV,3,2,10,203,41,156,,202,41,195,,208,38,148,,205,30,227,*69
$BDGSV,3,3,10,201,25,121,,212,17,212,*69
$GAGSV,1,1,04,102,68,066,,136,56,082,,130,47,310,,125,20,103,*69
$GPGSA,A,1,,,,,,,,,,,,,140.0,99.0,99.0*35
$GNGSA,A,1,,,,,,,,,,,,,140.0,99.0,99.0*2B
$GNGSA,A,1,,,,,,,,,,,,,140.0,99.0,99.0*2B
$QZGSA,A,1,,,,,,,,,,,,,140.0,99.0,99.0*29
$IMGSA,A,1,,,,,,,,,,,,,140.0,99.0,99.0*26
$BDGSA,A,1,,,,,,,,,,,,,140.0,99.0,99.0*24
$GAGSA,A,1,,,,,,,,,,,,,140.0,99.0,99.0*24
$GPRMC,123417.99,V,,,,,,,190120,,,N*74
$GPGGA,123418.99,,,,,0,00,999.9,,M,,M,,*6B
$GPGSV,3,1,12,07,69,168,,30,69,291,,11,62,100,,28,41,293,*7B
$GPGSV,3,2,12,01,40,129,,08,36,048,,17,22,227,,13,20,309,*7E
$GPGSV,3,3,12,27,04,049,,09,02,190,,15,00,330,,19,00,225,*7C
$GLGSV,2,1,08,68,09,314,26,86,58,045,,76,57,091,,77,52,335,*60
$GLGSV,2,2,08,87,51,187,,75,12,118,,85,05,027,,67,04,267,*6A
$QZGSV,1,1,02,03,55,080,,02,36,115,*6E
$BDGSV,3,1,10,224,35,310,,229,26,046,,226,87,348,,207,59,076,*6A
$BDGSV,3,2,10,203,41,156,,202,41,195,,208,38,148,,205,30,227,*69
$BDGSV,3,3,10,201,25,121,,212,17,212,*69
$GAGSV,1,1,04,102,68,066,,136,56,082,,130,47,310,,125,20,103,*69
$GPGSA,A,1,,,,,,,,,,,,,140.0,99.0,99.0*35
$GNGSA,A,1,,,,,,,,,,,,,140.0,99.0,99.0*2B
$GNGSA,A,1,,,,,,,,,,,,,140.0,99.0,99.0*2B
$QZGSA,A,1,,,,,,,,,,,,,140.0,99.0,99.0*29
$IMGSA,A,1,,,,,,,,,,,,,140.0,99.0,99.0*26
$BDGSA,A,1,,,,,,,,,,,,,140.0,99.0,99.0*24
$GAGSA,A,1,,,,,,,,,,,,,140.0,99.0,99.0*24
$GPRMC,123418.99,V,,,,,,,190120,,,N*7B
$GPGGA,123419.99,,,,,0,00,999.9,,M,,M,,*6A
$GPGSV,3,1,12,30,69,291,20,28,41,293,19,17,22,227,19,13,20,309,24*76
$GPGSV,3,2,12,27,04,049,,07,69,168,,11,62,100,,01,40,129,*7A
$GPGSV,3,3,12,08,36,048,,09,02,190,,15,00,330,,19,00,225,*71
$GLGSV,2,1,08,68,09,314,28,85,05,027,25,86,58,045,,76,57,091,*66
$GLGSV,2,2,08,77,52,335,,87,51,187,,75,12,118,,67,04,267,*65
$QZGSV,1,1,02,03,55,080,,02,36,115,*6E
$BDGSV,3,1,10,224,35,310,,229,26,046,,226,87,348,,207,59,076,*6A
$BDGSV,3,2,10,203,41,156,,202,41,195,,208,38,148,,205,30,227,*69
$BDGSV,3,3,10,201,25,121,,212,17,212,*69
$GAGSV,1,1,04,102,68,066,,136,56,082,,130,47,310,,125,20,103,*69
$GPGSA,A,1,,,,,,,,,,,,,140.0,99.0,99.0*35
$GNGSA,A,1,,,,,,,,,,,,,140.0,99.0,99.0*2B
$GNGSA,A,1,,,,,,,,,,,,,140.0,99.0,99.0*2B
$QZGSA,A,1,,,,,,,,,,,,,140.0,99.0,99.0*29
$IMGSA,A,1,,,,,,,,,,,,,140.0,99.0,99.0*26
$BDGSA,A,1,,,,,,,,,,,,,140.0,99.0,99.0*24
$GAGSA,A,1,,,,,,,,,,,,,140.0,99.0,99.0*24
$GPRMC,123419.99,V,,,,,,,190120,,,N*7A
$GPGGA,123421.12,,,,,0,06,6.4,1219.7,M,-55.1,M,,*46
$GPGSV,3,1,12,30,69,291,21,28,41,293,19,17,22,227,23,13,20,309,25*7F
$GPGSV,3,2,12,27,04,049,,07,69,168,,11,62,100,,01,40,129,*7A
$GPGSV,3,3,12,08,36,048,,09,02,190,,15,00,330,,19,00,225,*71
$GLGSV,2,1,08,68,09,314,28,85,05,027,26,86,58,045,,76,57,091,*65
$GLGSV,2,2,08,77,52,335,,87,51,187,,75,12,118,,67,04,267,*65
$QZGSV,1,1,02,03,55,080,20,02,36,115,*6C
$BDGSV,3,1,10,224,35,310,,229,26,046,,226,87,348,,207,59,076,*6A
$BDGSV,3,2,10,203,41,156,,202,41,195,,208,38,148,,205,30,227,*69
$BDGSV,3,3,10,201,25,121,,212,17,212,*69
$GAGSV,1,1,04,102,68,066,,136,56,082,,130,47,310,,125,20,103,*69
$GPGSA,A,1,,,,,,,,,,,,,3.5,2.7,2.2*33
$GNGSA,A,1,,,,,,,,,,,,,3.5,2.7,2.2*2D
$GNGSA,A,1,,,,,,,,,,,,,3.5,2.7,2.2*2D
$QZGSA,A,1,,,,,,,,,,,,,3.5,2.7,2.2*2F
$IMGSA,A,1,,,,,,,,,,,,,3.5,2.7,2.2*20
$BDGSA,A,1,,,,,,,,,,,,,3.5,2.7,2.2*22
$GAGSA,A,1,,,,,,,,,,,,,3.5,2.7,2.2*22
$GPRMC,123421.12,V,,,,,,,190120,,,N*72
$GPGGA,123422.12,,,,,0,07,6.4,1218.3,M,-55.1,M,,*41
$GPGSV,3,1,12,30,69,291,21,28,41,293,20,17,22,227,23,13,20,309,26*76
$GPGSV,3,2,12,27,04,049,,07,69,168,,11,62,100,,01,40,129,*7A
$GPGSV,3,3,12,08,36,048,,09,02,190,,15,00,330,,19,00,225,*71
$GLGSV,2,1,08,68,08,314,28,85,05,027,26,86,58,045,,76,57,091,*64
$GLGSV,2,2,08,77,52,335,,87,51,187,,75,12,118,,67,04,267,*65
$QZGSV,1,1,02,03,55,080,21,02,36,115,*6D
$BDGSV,3,1,10,224,35,310,,229,26,046,,226,87,347,,207,59,076,*65
$BDGSV,3,2,10,203,41,156,,202,41,195,,208,39,148,,205,30,227,*68
$BDGSV,3,3,10,201,25,121,,212,17,212,*69
$GAGSV,1,1,04,102,68,066,,136,56,082,,130,47,310,,125,20,103,*69
$GPGSA,A,1,,,,,,,,,,,,,3.5,2.7,2.2*33
$GNGSA,A,1,,,,,,,,,,,,,3.5,2.7,2.2*2D
$GNGSA,A,1,,,,,,,,,,,,,3.5,2.7,2.2*2D
$QZGSA,A,1,,,,,,,,,,,,,3.5,2.7,2.2*2F
$IMGSA,A,1,,,,,,,,,,,,,3.5,2.7,2.2*20
$BDGSA,A,1,,,,,,,,,,,,,3.5,2.7,2.2*22
$GAGSA,A,1,,,,,,,,,,,,,3.5,2.7,2.2*22
$GPRMC,123422.12,V,,,,,,,190120,,,N*71
$GPGGA,123423.17,4007.621206,N,09408.363444,E,1,07,6.4,1178.5,M,-55.1,M,,*79
$GPGSV,3,1,12,30,69,291,22,28,41,293,21,17,22,227,24,13,20,309,26*73
$GPGSV,3,2,12,27,04,049,,07,69,168,,11,62,100,,01,40,129,*7A
$GPGSV,3,3,12,08,36,048,,09,02,190,,15,00,330,,19,00,225,*71
$GLGSV,2,1,08,68,08,314,29,85,05,027,27,86,58,045,,76,57,091,*64
$GLGSV,2,2,08,77,52,335,,87,51,187,,75,12,118,,67,04,267,*65
$QZGSV,1,1,02,03,55,080,22,02,36,115,*6E
$BDGSV,3,1,10,224,35,310,,229,26,046,,226,87,348,,207,59,076,*6A
$BDGSV,3,2,10,203,41,156,,202,41,195,,208,39,148,,205,30,227,*68
$BDGSV,3,3,10,201,25,121,,212,17,212,*69
$GAGSV,1,1,04,102,68,066,,136,56,082,,130,47,310,,125,20,103,*69
$GPGSA,A,3,13,17,28,30,,,,,,,,,3.5,2.7,2.2*3C
$GNGSA,A,3,13,17,28,30,,,,,,,,,3.5,2.7,2.2*22
$GNGSA,A,3,68,85,,,,,,,,,,,3.5,2.7,2.2*2C
$QZGSA,A,3,03,,,,,,,,,,,,3.5,2.7,2.2*2E
$IMGSA,A,3,,,,,,,,,,,,,3.5,2.7,2.2*22
$BDGSA,A,3,,,,,,,,,,,,,3.5,2.7,2.2*20
$GAGSA,A,3,,,,,,,,,,,,,3.5,2.7,2.2*20
$GPRMC,123423.17,A,4007.621206,N,09408.363444,E,054.4,,190120,,,A*78
$GPGGA,123424.17,4007.610002,N,09408.382966,E,1,07,6.4,1159.7,M,-55.1,M,,*79
$GPGSV,3,1,12,30,69,291,23,28,41,293,21,17,22,227,23,13,20,309,27*74
$GPGSV,3,2,12,27,04,049,,07,69,168,,11,62,100,,01,40,129,*7A
$GPGSV,3,3,12,08,36,048,,09,02,190,,15,00,330,,19,00,225,*71
$GLGSV,2,1,08,68,08,314,29,85,05,027,28,86,58,045,,76,57,091,*6B
$GLGSV,2,2,08,77,52,335,,87,51,187,,75,12,118,,67,04,267,*65
$QZGSV,1,1,02,03,55,080,21,02,36,115,*6D
$BDGSV,3,1,10,224,35,310,,229,26,046,,226,87,348,,207,59,076,*6A
$BDGSV,3,2,10,203,41,156,,202,41,195,,208,39,148,,205,30,227,*68
$BDGSV,3,3,10,201,25,121,,212,17,212,*69
$GAGSV,1,1,04,102,68,066,,136,56,082,,130,47,310,,125,20,103,*69
$GPGSA,A,3,13,17,28,30,,,,,,,,,3.5,2.7,2.2*3C
$GNGSA,A,3,13,17,28,30,,,,,,,,,3.5,2.7,2.2*22
$GNGSA,A,3,68,85,,,,,,,,,,,3.5,2.7,2.2*2C
$QZGSA,A,3,03,,,,,,,,,,,,3.5,2.7,2.2*2E
$IMGSA,A,3,,,,,,,,,,,,,3.5,2.7,2.2*22
$BDGSA,A,3,,,,,,,,,,,,,3.5,2.7,2.2*20
$GAGSA,A,3,,,,,,,,,,,,,3.5,2.7,2.2*20
$GPRMC,123424.17,A,4007.610002,N,09408.382966,E,054.5,,190120,,,A*78
$GPGGA,123425.11,4007.597059,N,09408.394889,E,1,07,4.8,1158.3,M,-55.1,M,,*70
$GPGSV,3,1,12,30,69,291,23,28,41,293,22,17,22,227,24,13,20,309,27*70
$GPGSV,3,2,12,27,04,049,,15,00,330,,07,69,168,,11,62,100,*71
$GPGSV,3,3,12,01,40,129,,08,36,048,,09,02,190,,19,00,225,*7A
$GLGSV,2,1,08,68,08,314,29,85,05,027,28,86,58,045,,76,57,091,*6B
$GLGSV,2,2,08,77,52,335,,87,51,187,,75,12,118,,67,04,267,*65
$QZGSV,1,1,02,03,55,080,21,02,36,115,*6D
$BDGSV,3,1,10,224,35,310,,229,26,046,,226,87,348,,207,59,076,*6A
$BDGSV,3,2,10,203,41,156,,202,41,195,,208,39,148,,205,30,227,*68
$BDGSV,3,3,10,201,25,121,,212,17,212,*69
$GAGSV,1,1,04,102,68,066,,136,56,082,,130,47,310,,125,20,103,*69
$GPGSA,A,3,13,17,28,30,,,,,,,,,3.5,2.7,2.2*3C
$GNGSA,A,3,13,17,28,30,,,,,,,,,3.5,2.7,2.2*22
$GNGSA,A,3,68,85,,,,,,,,,,,3.5,2.7,2.2*2C
$QZGSA,A,3,03,,,,,,,,,,,,3.5,2.7,2.2*2E
$IMGSA,A,3,,,,,,,,,,,,,3.5,2.7,2.2*22
$BDGSA,A,3,,,,,,,,,,,,,3.5,2.7,2.2*20
$GAGSA,A,3,,,,,,,,,,,,,3.5,2.7,2.2*20
$GPRMC,123425.11,A,4007.597059,N,09408.394889,E,054.6,,190120,,,A*79
$GPGGA,123426.10,4007.582960,N,09408.400896,E,1,07,2.4,1171.2,M,-55.1,M,,*71
$GPGSV,3,1,12,30,69,291,23,28,41,293,23,17,22,227,24,13,20,309,27*71
$GPGSV,3,2,12,27,04,049,,15,00,330,,07,69,168,,11,62,100,*71
$GPGSV,3,3,12,01,40,129,,08,36,048,,09,02,190,,19,00,225,*7A
$GLGSV,2,1,08,68,08,314,30,85,05,027,28,86,58,045,,76,57,091,*63
$GLGSV,2,2,08,77,52,335,,87,51,187,,75,12,119,,67,04,267,*64
$QZGSV,1,1,02,03,55,080,21,02,36,115,*6D
$BDGSV,3,1,10,224,35,310,,229,26,046,,226,87,348,,207,59,076,*6A
$BDGSV,3,2,10,203,41,156,,202,41,195,,208,39,148,,205,30,227,*68
$BDGSV,3,3,10,201,25,121,,212,17,212,*69
$GAGSV,1,1,04,102,68,066,,136,56,082,,130,47,310,,125,20,103,*69
$GPGSA,A,3,13,17,28,30,,,,,,,,,1.9,1.2,1.5*30
$GNGSA,A,3,13,17,28,30,,,,,,,,,1.9,1.2,1.5*2E
$GNGSA,A,3,68,85,,,,,,,,,,,1.9,1.2,1.5*20
$QZGSA,A,3,03,,,,,,,,,,,,1.9,1.2,1.5*22
$IMGSA,A,3,,,,,,,,,,,,,1.9,1.2,1.5*2E
$BDGSA,A,3,,,,,,,,,,,,,1.9,1.2,1.5*2C
$GAGSA,A,3,,,,,,,,,,,,,1.9,1.2,1.5*2C
$GPRMC,123426.10,A,4007.582960,N,09408.400896,E,054.2,,190120,,,A*7C
$GPGGA,123427.10,4007.567318,N,09408.409696,E,1,09,3.2,1183.3,M,-55.1,M,,*7C
$GPGSV,3,1,12,30,69,291,23,28,41,293,24,17,22,227,24,13,20,309,27*76
$GPGSV,3,2,12,27,04,049,,15,00,330,,07,69,168,,11,62,100,*71
$GPGSV,3,3,12,01,40,129,,08,36,048,,09,02,190,,19,00,225,*7A
$GLGSV,2,1,08,68,08,314,31,85,05,027,27,86,58,045,,76,57,091,*6D
$GLGSV,2,2,08,77,52,335,,87,51,187,,75,12,119,,67,04,267,*64
$QZGSV,1,1,02,03,55,080,21,02,36,115,*6D
$BDGSV,3,1,10,224,35,310,,229,26,046,,226,87,348,,207,59,076,*6A
$BDGSV,3,2,10,203,41,156,,202,41,195,,208,39,148,,205,30,227,*68
$BDGSV,3,3,10,201,25,121,,212,17,212,*69
$GAGSV,1,1,04,102,68,066,,136,56,082,,130,47,310,,125,20,103,*69
$GPGSA,A,3,13,17,28,30,,,,,,,,,1.9,1.2,1.5*30
$GNGSA,A,3,13,17,28,30,,,,,,,,,1.9,1.2,1.5*2E
$GNGSA,A,3,68,85,,,,,,,,,,,1.9,1.2,1.5*20
$QZGSA,A,3,03,,,,,,,,,,,,1.9,1.2,1.5*22
$IMGSA,A,3,,,,,,,,,,,,,1.9,1.2,1.5*2E
$BDGSA,A,3,,,,,,,,,,,,,1.9,1.2,1.5*2C
$GAGSA,A,3,,,,,,,,,,,,,1.9,1.2,1.5*2C
$GPRMC,123427.10,A,4007.567318,N,09408.409696,E,093.8,,190120,,,A*75
$GPGGA,123428.10,4007.554167,N,09408.432327,E,1,09,3.2,1180.6,M,-55.1,M,,*78
$GPGSV,3,1,12,30,69,291,23,28,41,293,24,17,22,227,24,13,20,309,27*76
$GPGSV,3,2,12,27,04,049,,15,00,330,,07,69,168,,11,62,100,*71
$GPGSV,3,3,12,01,40,129,,08,36,048,,09,02,190,,19,00,225,*7A
$GLGSV,2,1,08,68,08,314,31,85,05,027,27,86,58,045,,76,57,091,*6D
$GLGSV,2,2,08,77,52,335,,87,51,187,,75,12,119,,67,04,267,*64
$QZGSV,1,1,02,03,55,080,21,02,36,115,*6D
$BDGSV,3,1,10,224,35,310,,229,26,046,,226,87,348,,207,59,076,*6A
$BDGSV,3,2,10,203,41,156,,202,41,195,,208,39,148,,205,30,227,*68
$BDGSV,3,3,10,201,25,121,,212,17,212,*69
$GAGSV,1,1,04,102,68,066,,136,56,082,,130,47,310,,125,20,103,*69
$GPGSA,A,3,13,17,28,30,,,,,,,,,1.9,1.2,1.5*30
$GNGSA,A,3,13,17,28,30,,,,,,,,,1.9,1.2,1.5*2E
$GNGSA,A,3,68,85,,,,,,,,,,,1.9,1.2,1.5*20
$QZGSA,A,3,03,,,,,,,,,,,,1.9,1.2,1.5*22
$IMGSA,A,3,,,,,,,,,,,,,1.9,1.2,1.5*2E
$BDGSA,A,3,,,,,,,,,,,,,1.9,1.2,1.5*2C
$GAGSA,A,3,,,,,,,,,,,,,1.9,1.2,1.5*2C
$GPRMC,123428.10,A,4007.554167,N,09408.432327,E,082.4,,190120,,,A*7B
$GPGGA,123429.00,4007.542854,N,09408.446577,E,1,09,2.4,1177.3,M,-55.1,M,,*7C
$GPGSV,3,1,12,30,69,291,23,28,41,293,24,17,23,228,24,13,20,309,27*78
$GPGSV,3,2,12,27,04,049,,15,00,330,,07,69,168,,11,62,100,*71
$GPGSV,3,3,12,01,40,129,,08,36,048,,09,02,190,,19,00,225,*7A
$GLGSV,2,1,08,68,08,314,31,85,05,027,27,86,58,045,,76,57,091,*6D
$GLGSV,2,2,08,77,52,335,,87,51,187,,75,12,119,,67,04,267,*64
$QZGSV,1,1,02,03,55,080,21,02,36,115,*6D
$BDGSV,3,1,10,224,35,310,,229,26,046,,226,87,348,,207,59,076,*6A
$BDGSV,3,2,10,203,41,156,,202,41,195,,208,39,148,,205,30,227,*68
$BDGSV,3,3,10,201,25,121,,212,17,212,*69
$GAGSV,1,1,04,102,68,066,,136,56,082,,130,47,310,,125,20,103,*69
$GPGSA,A,3,13,17,28,30,,,,,,,,,1.9,1.2,1.5*30
$GNGSA,A,3,13,17,28,30,,,,,,,,,1.9,1.2,1.5*2E
$GNGSA,A,3,68,85,,,,,,,,,,,1.9,1.2,1.5*20
$QZGSA,A,3,03,,,,,,,,,,,,1.9,1.2,1.5*22
$IMGSA,A,3,,,,,,,,,,,,,1.9,1.2,1.5*2E
$BDGSA,A,3,,,,,,,,,,,,,1.9,1.2,1.5*2C
$GAGSA,A,3,,,,,,,,,,,,,1.9,1.2,1.5*2C
$GPRMC,123429.00,A,4007.542854,N,09408.446577,E,078.4,,190120,,,A*70
$GPGGA,123430.00,4007.527944,N,09408.455836,E,1,10,2.4,1178.4,M,-55.1,M,,*7D
$GPGSV,3,1,12,30,69,291,25,28,41,293,24,08,36,048,24,17,23,228,27*75
$GPGSV,3,2,12,13,20,309,27,27,04,049,,15,00,330,,07,69,168,*7B
$GPGSV,3,3,12,11,62,100,,01,40,129,,09,02,190,,19,00,225,*7E
$GLGSV,2,1,08,68,08,314,31,85,05,027,27,86,58,045,,76,57,091,*6D
$GLGSV,2,2,08,77,52,335,,87,51,187,,75,12,119,,67,04,267,*64
$QZGSV,1,1,02,03,55,080,22,02,36,115,*6E
$BDGSV,3,1,10,224,35,310,,229,26,046,,226,87,348,,207,59,076,*6A
$BDGSV,3,2,10,203,41,156,,202,41,195,,208,39,148,,205,30,227,*68
$BDGSV,3,3,10,201,25,121,,212,17,212,*69
$GAGSV,1,1,04,102,68,066,,136,56,082,,130,47,310,,125,20,103,*69
$GPGSA,A,3,08,13,17,28,30,,,,,,,,1.9,1.2,1.5*38
$GNGSA,A,3,08,13,17,28,30,,,,,,,,1.9,1.2,1.5*26
$GNGSA,A,3,68,85,,,,,,,,,,,1.9,1.2,1.5*20
$QZGSA,A,3,03,,,,,,,,,,,,1.9,1.2,1.5*22
$IMGSA,A,3,,,,,,,,,,,,,1.9,1.2,1.5*2E
$BDGSA,A,3,,,,,,,,,,,,,1.9,1.2,1.5*2C
$GAGSA,A,3,,,,,,,,,,,,,1.9,1.2,1.5*2C
$GPRMC,123430.00,A,4007.527944,N,09408.455836,E,061.8,140.0,190120,,,A*5E
$GPGGA,123431.00,4007.522548,N,09408.470319,E,1,10,1.6,1181.9,M,-55.1,M,,*72
$GPGSV,3,1,12,30,69,291,24,28,41,293,23,08,36,048,24,17,23,228,27*73
$GPGSV,3,2,12,13,20,309,26,27,04,049,,15,00,330,,07,69,168,*7A
$GPGSV,3,3,12,11,62,100,,01,40,129,,09,02,190,,19,00,225,*7E
$GLGSV,2,1,08,86,58,045,,68,08,314,30,85,05,027,27,76,57,091,*6C
$GLGSV,2,2,08,77,52,335,,87,51,187,,75,12,119,,67,04,267,*64
$QZGSV,1,1,02,03,55,080,22,02,36,115,*6E
$BDGSV,3,1,10,224,35,310,,229,26,046,,226,87,348,,207,59,076,*6A
$BDGSV,3,2,10,203,41,156,,202,41,195,,208,39,148,,205,30,227,*68
$BDGSV,3,3,10,201,25,121,,212,17,212,*69
$GAGSV,1,1,04,102,68,066,,136,56,082,,130,47,310,,125,20,103,*69
$GPGSA,A,3,08,13,17,28,30,,,,,,,,1.9,1.2,1.4*39
$GNGSA,A,3,08,13,17,28,30,,,,,,,,1.9,1.2,1.4*27
$GNGSA,A,3,68,85,,,,,,,,,,,1.9,1.2,1.4*21
$QZGSA,A,3,03,,,,,,,,,,,,1.9,1.2,1.4*23
$IMGSA,A,3,,,,,,,,,,,,,1.9,1.2,1.4*2F
$BDGSA,A,3,,,,,,,,,,,,,1.9,1.2,1.4*2D
$GAGSA,A,3,,,,,,,,,,,,,1.9,1.2,1.4*2D
$GPRMC,123431.00,A,4007.522548,N,09408.470319,E,060.8,137.9,190120,,,A*53
$GPGGA,123432.00,4007.514045,N,09408.485101,E,1,14,1.6,1187.4,M,-55.1,M,,*72
$GPGSV,3,1,12,07,69,168,21,30,69,291,24,11,62,100,21,28,41,293,22*7D
$GPGSV,3,2,12,01,40,129,21,08,36,048,23,17,23,228,27,13,20,309,26*73
$GPGSV,3,3,12,27,04,049,,15,00,330,,09,02,190,,19,00,225,*7C
$GLGSV,2,1,08,86,58,045,09,76,57,091,21,68,08,314,30,85,05,027,29*68
$GLGSV,2,2,08,77,52,335,,87,51,187,,75,12,119,,67,04,267,*64
$QZGSV,1,1,02,03,55,080,21,02,36,115,*6D
$BDGSV,3,1,10,224,35,310,,229,26,046,,226,87,348,,207,59,076,*6A
$BDGSV,3,2,10,203,41,156,,202,41,195,,208,39,148,,205,30,227,*68
$BDGSV,3,3,10,201,25,121,,212,17,212,*69
$GAGSV,1,1,04,102,68,066,,136,56,082,,130,47,310,,125,20,103,*69
$GPGSA,A,3,01,07,08,11,13,17,28,30,,,,,1.9,1.2,1.5*3E
$GNGSA,A,3,01,07,08,11,13,17,28,30,,,,,1.9,1.2,1.5*20
$GNGSA,A,3,68,76,85,,,,,,,,,,1.9,1.2,1.5*21
$QZGSA,A,3,03,,,,,,,,,,,,1.9,1.2,1.5*22
$IMGSA,A,3,,,,,,,,,,,,,1.9,1.2,1.5*2E
$BDGSA,A,3,,,,,,,,,,,,,1.9,1.2,1.5*2C
$GAGSA,A,3,,,,,,,,,,,,,1.9,1.2,1.5*2C
$GPRMC,123432.00,A,4007.514045,N,09408.485101,E,057.9,136.3,190120,,,A*52
$GPGGA,123433.00,4007.504835,N,09408.498969,E,1,17,1.2,1190.7,M,-55.1,M,,*75
$GPGSV,3,1,12,07,69,168,25,30,69,291,26,11,62,100,21,28,41,293,22*7B
$GPGSV,3,2,12,01,40,129,21,08,36,048,26,17,23,228,27,13,20,309,25*75
$GPGSV,3,3,12,27,04,049,,15,00,330,,09,02,190,,19,00,225,*7C
$GLGSV,2,1,08,86,58,045,14,76,57,091,28,75,12,119,21,68,08,314,30*60
$GLGSV,2,2,08,85,05,027,35,77,52,335,,87,51,187,,67,04,267,*67
$QZGSV,1,1,02,03,55,080,21,02,36,115,19*65
$BDGSV,3,1,10,224,35,310,,229,26,046,,226,87,348,,207,59,076,*6A
$BDGSV,3,2,10,203,41,156,,202,41,195,,208,39,148,,205,30,227,*68
$BDGSV,3,3,10,201,25,121,,212,17,212,*69
$GAGSV,1,1,04,102,68,066,,136,56,082,,130,47,310,,125,20,103,*69
$GPGSA,A,3,01,07,08,11,13,17,28,30,,,,,1.8,1.1,1.4*3D
$GNGSA,A,3,01,07,08,11,13,17,28,30,,,,,1.8,1.1,1.4*23
$GNGSA,A,3,68,75,76,85,86,,,,,,,,1.8,1.1,1.4*2E
$QZGSA,A,3,02,03,,,,,,,,,,,1.8,1.1,1.4*23
$IMGSA,A,3,,,,,,,,,,,,,1.8,1.1,1.4*2D
$BDGSA,A,3,,,,,,,,,,,,,1.8,1.1,1.4*2F
$GAGSA,A,3,,,,,,,,,,,,,1.8,1.1,1.4*2F
$GPRMC,123433.00,A,4007.504835,N,09408.498969,E,055.0,132.9,190120,,,A*52
$GPGGA,123434.00,4007.495235,N,09408.514859,E,1,17,1.2,1187.9,M,-55.1,M,,*7E
$GPGSV,3,1,12,07,69,168,24,30,69,291,26,11,62,100,20,28,41,293,22*7B
$GPGSV,3,2,12,01,40,129,20,08,36,048,26,17,23,228,27,13,20,309,25*74
$GPGSV,3,3,12,27,04,049,,15,00,330,,09,02,190,,19,00,225,*7C
$GLGSV,2,1,08,86,58,045,23,76,57,091,27,87,51,187,18,75,12,119,21*64
$GLGSV,2,2,08,68,08,314,30,85,05,027,34,77,52,335,,67,04,267,*60
$QZGSV,1,1,02,03,55,080,21,02,36,115,*6D
$BDGSV,3,1,10,224,35,310,,229,26,046,,226,87,348,,207,59,076,*6A
$BDGSV,3,2,10,203,41,156,,202,41,195,,208,39,148,,205,30,227,*68
$BDGSV,3,3,10,201,25,121,,212,17,212,*69
$GAGSV,1,1,04,102,68,066,,136,56,082,,130,47,310,,125,20,103,*69
$GPGSA,A,3,01,07,08,11,13,17,28,30,,,,,1.8,1.1,1.4*3D
$GNGSA,A,3,01,07,08,11,13,17,28,30,,,,,1.8,1.1,1.4*23
$GNGSA,A,3,68,75,76,85,86,87,,,,,,,1.8,1.1,1.4*21
$QZGSA,A,3,03,,,,,,,,,,,,1.8,1.1,1.4*21
$IMGSA,A,3,,,,,,,,,,,,,1.8,1.1,1.4*2D
$BDGSA,A,3,,,,,,,,,,,,,1.8,1.1,1.4*2F
$GAGSA,A,3,,,,,,,,,,,,,1.8,1.1,1.4*2F
$GPRMC,123434.00,A,4007.495235,N,09408.514859,E,054.4,131.6,190120,,,A*58
$GPGGA,123435.00,4007.485430,N,09408.530758,E,1,17,1.2,1184.7,M,-55.1,M,,*78
$GPGSV,3,1,12,07,69,168,24,30,69,291,27,11,62,100,20,28,41,293,22*7A
$GPGSV,3,2,12,01,40,129,20,08,36,048,26,17,23,228,26,13,20,309,25*75
$GPGSV,3,3,12,27,04,049,,15,00,330,,09,02,190,,19,00,225,*7C
$GLGSV,2,1,08,86,58,045,25,76,57,091,27,87,51,187,18,75,12,119,20*63
$GLGSV,2,2,08,68,08,314,30,85,05,027,33,77,52,335,,67,04,267,*67
$QZGSV,1,1,02,03,55,080,20,02,36,115,17*6A
$BDGSV,3,1,10,224,35,310,,229,26,046,,226,87,348,,207,59,076,*6A
$BDGSV,3,2,10,203,41,156,,202,41,195,,208,39,148,,205,30,227,*68
$BDGSV,3,3,10,201,25,121,,212,17,212,*69
$GAGSV,1,1,04,102,68,066,,136,56,082,,130,47,310,,125,20,103,*69
$GPGSA,A,3,01,07,08,11,13,17,28,30,,,,,2.2,1.2,1.8*3B
$GNGSA,A,3,01,07,08,11,13,17,28,30,,,,,2.2,1.2,1.8*25
$GNGSA,A,3,68,75,76,85,86,87,,,,,,,2.2,1.2,1.8*27
$QZGSA,A,3,03,,,,,,,,,,,,2.2,1.2,1.8*27
$IMGSA,A,3,,,,,,,,,,,,,2.2,1.2,1.8*2B
$BDGSA,A,3,,,,,,,,,,,,,2.2,1.2,1.8*29
$GAGSA,A,3,,,,,,,,,,,,,2.2,1.2,1.8*29
$GPRMC,123435.00,A,4007.485430,N,09408.530758,E,055.7,133.9,190120,,,A*5C
$GPGGA,123436.00,4007.475220,N,09408.546063,E,1,17,1.2,1183.3,M,-55.1,M,,*7E
$GPGSV,3,1,12,07,69,168,23,30,69,291,27,11,62,100,20,28,41,293,21*7E
$GPGSV,3,2,12,01,40,129,19,08,36,048,26,17,23,228,28,13,20,309,26*72
$GPGSV,3,3,12,27,04,049,,15,00,330,,09,02,190,,19,00,225,*7C
$GLGSV,2,1,08,86,58,045,26,76,57,091,26,87,51,187,18,75,12,119,21*60
$GLGSV,2,2,08,68,08,314,30,85,05,027,33,67,04,267,,77,52,335,*67
$QZGSV,1,1,02,03,55,080,20,02,36,115,16*6B
$BDGSV,3,1,10,224,35,310,,229,26,046,,226,87,348,,207,59,076,*6A
$BDGSV,3,2,10,203,41,156,,202,41,195,,208,39,148,,205,30,227,*68
$BDGSV,3,3,10,201,25,121,,212,17,212,*69
$GAGSV,1,1,04,102,68,066,,136,56,082,,130,47,310,,125,20,103,*69
$GPGSA,A,3,07,08,11,13,17,28,30,,,,,,2.2,1.2,1.8*3A
$GNGSA,A,3,07,08,11,13,17,28,30,,,,,,2.2,1.2,1.8*24
$GNGSA,A,3,68,75,76,85,86,87,,,,,,,2.2,1.2,1.8*27
$QZGSA,A,3,03,,,,,,,,,,,,2.2,1.2,1.8*27
$IMGSA,A,3,,,,,,,,,,,,,2.2,1.2,1.8*2B
$BDGSA,A,3,,,,,,,,,,,,,2.2,1.2,1.8*29
$GAGSA,A,3,,,,,,,,,,,,,2.2,1.2,1.8*29
$GPRMC,123436.00,A,4007.475220,N,09408.546063,E,054.7,133.5,190120,,,A*54
$GPGGA,123437.00,4007.465109,N,09408.560416,E,1,17,0.8,1181.1,M,-55.1,M,,*7F
$GPGSV,3,1,12,07,69,168,23,30,69,291,27,11,62,100,19,28,41,293,21*74
$GPGSV,3,2,12,01,40,129,18,08,36,048,27,17,23,228,29,13,20,309,26*73
$GPGSV,3,3,12,27,04,049,,15,00,330,,09,02,190,,19,00,225,*7C
$GLGSV,2,1,08,86,58,045,27,76,57,091,25,87,51,187,18,75,12,119,21*62
$GLGSV,2,2,08,68,08,314,30,85,05,027,32,67,04,267,,77,52,335,*66
$QZGSV,1,1,02,03,55,080,19,02,36,115,16*61
$BDGSV,3,1,10,224,35,310,,229,26,046,,226,87,348,,207,59,076,*6A
$BDGSV,3,2,10,203,41,156,,202,41,195,,208,39,148,,205,30,227,*68
$BDGSV,3,3,10,201,25,121,,212,17,212,*69
$GAGSV,1,1,04,102,68,066,,136,56,082,,130,47,310,,125,20,103,*69
$GPGSA,A,3,07,08,11,13,17,28,30,,,,,,1.4,0.9,1.1*3C
$GNGSA,A,3,07,08,11,13,17,28,30,,,,,,1.4,0.9,1.1*22
$GNGSA,A,3,68,75,76,85,86,87,,,,,,,1.4,0.9,1.1*21
$QZGSA,A,3,03,,,,,,,,,,,,1.4,0.9,1.1*21
$IMGSA,A,3,,,,,,,,,,,,,1.4,0.9,1.1*2D
$BDGSA,A,3,,,,,,,,,,,,,1.4,0.9,1.1*2F
$GAGSA,A,3,,,,,,,,,,,,,1.4,0.9,1.1*2F
$GPRMC,123437.00,A,4007.465109,N,09408.560416,E,054.7,133.3,190120,,,A*58
$GPGGA,123438.00,4007.455117,N,09408.574570,E,1,18,0.8,1179.3,M,-55.1,M,,*72
$GPGSV,3,1,12,07,69,168,23,30,69,291,27,11,62,100,19,28,41,293,21*74
$GPGSV,3,2,12,01,40,129,18,08,36,048,27,17,23,228,30,13,20,309,27*7A
$GPGSV,3,3,12,27,04,049,,15,00,330,,09,02,190,,19,00,225,*7C
$GLGSV,2,1,08,86,58,045,27,76,57,091,24,87,51,187,18,75,12,119,23*61
$GLGSV,2,2,08,68,08,314,30,85,05,027,31,67,04,267,,77,52,335,*65
$QZGSV,1,1,02,03,55,080,18,02,36,115,15*63
$BDGSV,3,1,10,224,35,310,,229,26,046,,226,87,348,,207,59,076,*6A
$BDGSV,3,2,10,203,41,156,,202,41,195,,208,39,148,,205,30,227,*68
$BDGSV,3,3,10,201,25,121,,212,17,212,*69
$GAGSV,1,1,04,102,68,066,,136,56,082,,130,47,310,,125,20,103,*69
$GPGSA,A,3,01,07,08,11,13,17,28,30,,,,,1.4,0.9,1.1*3D
$GNGSA,A,3,01,07,08,11,13,17,28,30,,,,,1.4,0.9,1.1*23
$GNGSA,A,3,68,75,76,85,86,87,,,,,,,1.4,0.9,1.1*21
$QZGSA,A,3,03,,,,,,,,,,,,1.4,0.9,1.1*21
$IMGSA,A,3,,,,,,,,,,,,,1.4,0.9,1.1*2D
$BDGSA,A,3,,,,,,,,,,,,,1.4,0.9,1.1*2F
$GAGSA,A,3,,,,,,,,,,,,,1.4,0.9,1.1*2F
$GPRMC,123438.00,A,4007.455117,N,09408.574570,E,054.8,133.0,190120,,,A*53
$GPGGA,123439.00,4007.445108,N,09408.589007,E,1,18,0.6,1177.9,M,-55.1,M,,*71
$GPGSV,3,1,12,07,69,168,25,30,69,291,27,11,62,100,19,28,41,293,20*73
$GPGSV,3,2,12,01,40,129,18,08,36,048,27,17,23,228,31,13,20,309,27*7B
$GPGSV,3,3,12,27,04,049,,15,00,330,,09,02,190,,19,00,225,*7C
$GLGSV,2,1,08,86,58,045,27,76,57,091,24,87,51,187,17,75,12,119,23*6E
$GLGSV,2,2,08,68,08,314,30,85,05,027,30,67,04,267,,77,52,335,*64
$QZGSV,1,1,02,03,55,080,18,02,36,115,14*62
$BDGSV,3,1,10,224,35,310,,229,26,046,,226,87,348,,207,59,076,*6A
$BDGSV,3,2,10,203,41,156,,202,41,195,,208,39,148,,205,30,227,*68
$BDGSV,3,3,10,201,25,121,,212,17,212,*69
$GAGSV,1,1,04,102,68,066,,136,56,082,,130,47,310,,125,20,103,*69
$GPGSA,A,3,01,07,08,11,13,17,28,30,,,,,1.5,0.9,1.2*3F
$GNGSA,A,3,01,07,08,11,13,17,28,30,,,,,1.5,0.9,1.2*21
$GNGSA,A,3,68,75,76,85,86,87,,,,,,,1.5,0.9,1.2*23
$QZGSA,A,3,03,,,,,,,,,,,,1.5,0.9,1.2*23
$IMGSA,A,3,,,,,,,,,,,,,1.5,0.9,1.2*2F
$BDGSA,A,3,,,,,,,,,,,,,1.5,0.9,1.2*2D
$GAGSA,A,3,,,,,,,,,,,,,1.5,0.9,1.2*2D
$GPRMC,123439.00,A,4007.445108,N,09408.589007,E,054.7,132.9,190120,,,A*5D
$GPGGA,123440.00,4007.435036,N,09408.603452,E,1,19,0.6,1176.4,M,-55.1,M,,*7C
$GPGSV,3,1,12,07,69,168,25,30,69,291,27,11,62,100,18,28,41,294,20*75
$GPGSV,3,2,12,01,40,129,17,08,36,048,27,17,23,228,30,13,20,309,28*7A
$GPGSV,3,3,12,27,04,049,,09,02,190,,15,00,330,,19,00,225,*7C
$GLGSV,2,1,08,86,58,045,27,76,57,091,23,87,51,187,17,75,12,119,24*6E
$GLGSV,2,2,08,68,08,314,30,85,05,027,29,67,04,267,,77,52,335,*6C
$QZGSV,1,1,02,03,55,080,18,02,36,115,13*65
$BDGSV,3,1,10,224,35,310,,229,26,046,,226,87,348,,207,59,076,*6A
$BDGSV,3,2,10,203,41,156,,202,41,195,,208,39,148,,205,30,227,*68
$BDGSV,3,3,10,201,25,121,,212,17,212,*69
$GAGSV,1,1,04,102,68,066,,136,56,082,,130,47,310,,125,20,103,*69
$GPGSA,A,3,01,07,08,11,13,17,28,30,,,,,1.3,0.8,1.0*3A
$GNGSA,A,3,01,07,08,11,13,17,28,30,,,,,1.3,0.8,1.0*24
$GNGSA,A,3,68,75,76,85,86,87,,,,,,,1.3,0.8,1.0*26
$QZGSA,A,3,03,,,,,,,,,,,,1.3,0.8,1.0*26
$IMGSA,A,3,,,,,,,,,,,,,1.3,0.8,1.0*2A
$BDGSA,A,3,,,,,,,,,,,,,1.3,0.8,1.0*28
$GAGSA,A,3,,,,,,,,,,,,,1.3,0.8,1.0*28
$GPRMC,123440.00,A,4007.435036,N,09408.603452,E,054.7,132.7,190120,,,A*53
$GPGGA,123441.00,4007.424939,N,09408.617833,E,1,18,0.6,1175.5,M,-55.1,M,,*76
$GPGSV,3,1,12,07,69,168,24,30,69,291,27,11,62,100,18,28,41,294,20*74
$GPGSV,3,2,12,01,40,129,17,08,36,048,27,17,23,228,30,13,20,309,28*7A
$GPGSV,3,3,12,27,04,049,,09,02,190,,15,00,330,,19,00,225,*7C
$GLGSV,2,1,08,86,58,045,27,76,57,091,22,87,51,187,17,75,12,119,24*6F
$GLGSV,2,2,08,68,08,314,30,85,05,027,29,67,04,267,,77,52,335,*6C
$QZGSV,1,1,02,03,55,080,17,02,36,115,13*6A
$BDGSV,3,1,10,224,35,310,,229,26,046,,226,87,348,,207,59,076,*6A
$BDGSV,3,2,10,203,41,156,,202,41,195,,208,39,148,,205,30,227,*68
$BDGSV,3,3,10,201,25,121,,212,17,212,*69
$GAGSV,1,1,04,102,68,066,,136,56,082,,130,47,310,,125,20,103,*69
$GPGSA,A,3,01,07,08,13,17,28,30,,,,,,1.5,0.9,1.2*3F
$GNGSA,A,3,01,07,08,13,17,28,30,,,,,,1.5,0.9,1.2*21
$GNGSA,A,3,68,75,76,85,86,87,,,,,,,1.5,0.9,1.2*23
$QZGSA,A,3,03,,,,,,,,,,,,1.5,0.9,1.2*23
$IMGSA,A,3,,,,,,,,,,,,,1.5,0.9,1.2*2F
$BDGSA,A,3,,,,,,,,,,,,,1.5,0.9,1.2*2D
$GAGSA,A,3,,,,,,,,,,,,,1.5,0.9,1.2*2D
$GPRMC,123441.00,A,4007.424939,N,09408.617833,E,054.8,132.7,190120,,,A*55
$GPGGA,123442.00,4007.414772,N,09408.632264,E,1,20,0.6,1175.1,M,-55.1,M,,*77
$GPGSV,3,1,12,07,69,168,24,30,69,291,27,11,62,100,17,28,41,294,24*7F
$GPGSV,3,2,12,01,40,129,17,08,36,048,26,17,23,228,30,13,20,309,28*7B
$GPGSV,3,3,12,27,04,049,,09,02,190,,15,00,330,,19,00,225,*7C
$GLGSV,2,1,08,86,58,045,27,76,57,091,22,87,51,187,17,75,12,119,24*6F
$GLGSV,2,2,08,68,08,314,30,85,05,027,28,67,04,267,,77,52,335,*6D
$QZGSV,1,1,02,03,55,080,17,02,36,115,13*6A
$BDGSV,3,1,10,224,35,310,,229,26,046,,226,87,348,,207,59,076,*6A
$BDGSV,3,2,10,203,41,156,,202,41,195,,208,39,148,,205,30,227,*68
$BDGSV,3,3,10,201,25,121,,212,17,212,*69
$GAGSV,1,1,04,102,68,066,,136,56,082,,130,47,310,,125,20,103,*69
$GPGSA,A,3,01,07,08,11,13,17,28,30,,,,,1.4,0.9,1.1*3D
$GNGSA,A,3,01,07,08,11,13,17,28,30,,,,,1.4,0.9,1.1*23
$GNGSA,A,3,68,75,76,85,86,87,,,,,,,1.4,0.9,1.1*21
$QZGSA,A,3,02,03,,,,,,,,,,,1.4,0.9,1.1*23
$IMGSA,A,3,,,,,,,,,,,,,1.4,0.9,1.1*2D
$BDGSA,A,3,,,,,,,,,,,,,1.4,0.9,1.1*2F
$GAGSA,A,3,,,,,,,,,,,,,1.4,0.9,1.1*2F
$GPRMC,123442.00,A,4007.414772,N,09408.632264,E,054.5,133.1,190120,,,A*51
$GPGGA,123443.00,4007.404419,N,09408.646569,E,1,20,0.6,1174.9,M,-55.1,M,,*79
$GPGSV,3,1,12,07,69,168,23,30,69,291,26,11,62,100,18,28,41,294,25*77
$GPGSV,3,2,12,01,40,129,17,08,36,048,26,17,23,228,29,13,20,309,27*7C
$GPGSV,3,3,12,27,04,049,,09,02,190,,15,00,330,,19,00,225,*7C
$GLGSV,2,1,08,86,58,045,27,76,57,091,21,87,51,187,21,75,12,119,24*69
$GLGSV,2,2,08,68,08,314,29,85,05,027,27,67,04,267,,77,52,335,*6A
$QZGSV,1,1,02,03,55,080,16,02,36,115,14*6C
$BDGSV,3,1,10,224,35,310,,229,26,046,,226,87,348,,207,59,076,*6A
$BDGSV,3,2,10,203,41,156,,202,41,195,,208,39,148,,205,30,227,*68
$BDGSV,3,3,10,201,25,121,,212,17,212,*69
$GAGSV,1,1,04,102,68,066,,136,56,082,,130,47,310,,125,20,103,*69
$GPGSA,A,3,01,07,08,11,13,17,28,30,,,,,1.6,1.0,1.2*34
$GNGSA,A,3,01,07,08,11,13,17,28,30,,,,,1.6,1.0,1.2*2A
$GNGSA,A,3,68,75,76,85,86,87,,,,,,,1.6,1.0,1.2*28
$QZGSA,A,3,02,03,,,,,,,,,,,1.6,1.0,1.2*2A
$IMGSA,A,3,,,,,,,,,,,,,1.6,1.0,1.2*24
$BDGSA,A,3,,,,,,,,,,,,,1.6,1.0,1.2*26
$GAGSA,A,3,,,,,,,,,,,,,1.6,1.0,1.2*26
$GPRMC,123443.00,A,4007.404419,N,09408.646569,E,054.7,133.1,190120,,,A*54
$GPGGA,123444.00,4007.394113,N,09408.660962,E,1,20,0.6,1174.8,M,-55.1,M,,*7D
$GPGSV,3,1,12,07,69,168,22,30,69,291,25,11,62,100,18,28,41,294,25*75
$GPGSV,3,2,12,01,40,129,17,08,36,048,26,17,23,228,29,13,20,309,26*7D
$GPGSV,3,3,12,27,04,049,,09,02,190,,15,00,330,,19,00,225,*7C
$GLGSV,2,1,08,86,58,045,26,76,57,091,21,87,51,187,22,75,12,119,24*6B
$GLGSV,2,2,08,68,08,314,29,85,05,027,25,67,04,267,,77,52,335,*68
$QZGSV,1,1,02,03,55,080,16,02,36,115,18*60
$BDGSV,3,1,10,224,35,310,,229,26,046,,226,87,348,,207,59,076,*6A
$BDGSV,3,2,10,203,41,156,,202,41,195,,208,39,148,,205,30,227,*68
$BDGSV,3,3,10,201,25,121,,212,17,212,*69
$GAGSV,1,1,04,102,68,066,,136,56,082,,130,47,310,,125,20,103,*69
$GPGSA,A,3,01,07,08,11,13,17,28,30,,,,,1.6,1.0,1.2*34
$GNGSA,A,3,01,07,08,11,13,17,28,30,,,,,1.6,1.0,1.2*2A
$GNGSA,A,3,68,75,76,85,86,87,,,,,,,1.6,1.0,1.2*28
$QZGSA,A,3,02,03,,,,,,,,,,,1.6,1.0,1.2*2A
$IMGSA,A,3,,,,,,,,,,,,,1.6,1.0,1.2*24
$BDGSA,A,3,,,,,,,,,,,,,1.6,1.0,1.2*26
$GAGSA,A,3,,,,,,,,,,,,,1.6,1.0,1.2*26
$GPRMC,123444.00,A,4007.394113,N,09408.660962,E,054.5,132.9,190120,,,A*5A
$GPGGA,123445.00,4007.383994,N,09408.675287,E,1,20,0.6,1174.8,M,-55.1,M,,*79
$GPGSV,3,1,12,07,69,168,22,30,69,291,24,11,62,100,21,28,41,294,26*7D
$GPGSV,3,2,12,01,40,129,17,08,36,048,26,17,23,228,29,13,20,309,25*7E
$GPGSV,3,3,12,27,04,049,,09,02,190,,15,00,330,,19,00,225,*7C
$GLGSV,2,1,08,86,58,045,26,76,57,091,21,87,51,187,23,75,12,119,23*6D
$GLGSV,2,2,08,68,08,314,29,85,05,027,25,67,04,267,,77,52,335,*68
$QZGSV,1,1,02,03,55,080,16,02,36,115,18*60
$BDGSV,3,1,10,224,35,310,,229,26,046,,226,87,348,,207,59,076,*6A
$BDGSV,3,2,10,203,41,156,,202,41,195,,208,39,148,,205,30,227,*68
$BDGSV,3,3,10,201,25,121,,212,17,212,*69
$GAGSV,1,1,04,102,68,066,,136,56,082,,130,47,310,,125,20,103,*69
$GPGSA,A,3,01,07,08,11,13,17,28,30,,,,,1.5,0.9,1.2*3F
$GNGSA,A,3,01,07,08,11,13,17,28,30,,,,,1.5,0.9,1.2*21
$GNGSA,A,3,68,75,76,85,86,87,,,,,,,1.5,0.9,1.2*23
$QZGSA,A,3,02,03,,,,,,,,,,,1.5,0.9,1.2*21
$IMGSA,A,3,,,,,,,,,,,,,1.5,0.9,1.2*2F
$BDGSA,A,3,,,,,,,,,,,,,1.5,0.9,1.2*2D
$GAGSA,A,3,,,,,,,,,,,,,1.5,0.9,1.2*2D
$GPRMC,123445.00,A,4007.383994,N,09408.675287,E,054.4,133.0,190120,,,A*57
$GPGGA,123446.00,4007.373781,N,09408.689482,E,1,20,0.6,1174.9,M,-55.1,M,,*7E
$GPGSV,3,1,12,07,69,168,21,30,69,291,24,11,62,100,21,28,41,294,26*7E
$GPGSV,3,2,12,01,40,129,16,08,36,048,25,17,23,228,28,13,20,309,25*7D
$GPGSV,3,3,12,27,04,049,,09,02,190,,15,00,330,,19,00,225,*7C
$GLGSV,2,1,08,86,58,045,26,76,57,091,20,87,51,187,23,75,12,119,23*6C
$GLGSV,2,2,08,68,08,314,29,85,05,027,25,67,04,266,,77,52,335,*69
$QZGSV,1,1,02,03,55,080,16,02,36,115,18*60
$BDGSV,3,1,10,224,35,310,,229,26,046,,226,87,348,,207,59,076,*6A
$BDGSV,3,2,10,203,41,156,,202,41,195,,208,39,148,,205,30,227,*68
$BDGSV,3,3,10,201,25,121,,212,17,212,*69
$GAGSV,1,1,04,102,68,066,,136,56,082,,130,47,310,,125,20,103,*69
$GPGSA,A,3,01,07,08,11,13,17,28,30,,,,,1.6,0.9,1.3*3D
$GNGSA,A,3,01,07,08,11,13,17,28,30,,,,,1.6,0.9,1.3*23
$GNGSA,A,3,68,75,76,85,86,87,,,,,,,1.6,0.9,1.3*21
$QZGSA,A,3,02,03,,,,,,,,,,,1.6,0.9,1.3*23
$IMGSA,A,3,,,,,,,,,,,,,1.6,0.9,1.3*2D
$BDGSA,A,3,,,,,,,,,,,,,1.6,0.9,1.3*2F
$GAGSA,A,3,,,,,,,,,,,,,1.6,0.9,1.3*2F
$GPRMC,123446.00,A,4007.373781,N,09408.689482,E,054.7,133.9,190120,,,A*5B
$GPGGA,123447.00,4007.363282,N,09408.703796,E,1,19,0.6,1175.3,M,-55.1,M,,*7C
$GPGSV,3,1,12,07,69,168,21,30,69,291,24,11,62,100,20,28,41,294,25*7C
$GPGSV,3,2,12,01,40,129,16,08,36,048,25,17,23,228,28,13,20,309,24*7C
$GPGSV,3,3,12,27,04,049,,09,02,190,,15,00,330,,19,00,225,*7C
$GLGSV,2,1,08,86,58,045,25,76,57,091,20,87,51,187,22,75,12,119,22*6F
$GLGSV,2,2,08,68,08,314,29,85,05,027,24,67,04,266,,77,52,335,*68
$QZGSV,1,1,02,03,55,080,15,02,36,115,17*6C
$BDGSV,3,1,10,224,35,310,,229,26,046,,226,87,349,,207,59,076,*6B
$BDGSV,3,2,10,203,41,156,,202,41,195,,208,39,148,,205,30,227,*68
$BDGSV,3,3,10,201,25,121,,212,17,212,*69
$GAGSV,1,1,04,102,68,066,,136,56,082,,130,47,310,,125,20,103,*69
$GPGSA,A,3,01,07,08,11,13,17,28,30,,,,,1.3,0.8,1.0*3A
$GNGSA,A,3,01,07,08,11,13,17,28,30,,,,,1.3,0.8,1.0*24
$GNGSA,A,3,68,75,76,85,86,87,,,,,,,1.3,0.8,1.0*26
$QZGSA,A,3,03,,,,,,,,,,,,1.3,0.8,1.0*26
$IMGSA,A,3,,,,,,,,,,,,,1.3,0.8,1.0*2A
$BDGSA,A,3,,,,,,,,,,,,,1.3,0.8,1.0*28
$GAGSA,A,3,,,,,,,,,,,,,1.3,0.8,1.0*28
$GPRMC,123447.00,A,4007.363282,N,09408.703796,E,054.7,135.3,190120,,,A*54
$GPGGA,123448.00,4007.352474,N,09408.717712,E,1,17,0.8,1175.5,M,-55.1,M,,*71
$GPGSV,3,1,12,07,69,168,20,30,69,291,23,11,62,100,19,28,41,294,24*71
$GPGSV,3,2,12,01,40,129,16,08,36,048,24,17,23,228,27,13,20,309,23*75
$GPGSV,3,3,12,27,04,049,,09,02,190,,15,00,330,,19,00,225,*7C
$GLGSV,2,1,08,86,58,045,24,76,57,091,19,77,52,335,,87,51,187,21*6D
$GLGSV,2,2,08,75,12,119,21,68,08,314,28,85,05,027,23,67,04,266,*67
$QZGSV,1,1,02,03,55,080,15,02,36,115,17*6C
$BDGSV,3,1,10,224,35,310,,229,26,046,13,226,87,349,,207,59,076,*69
$BDGSV,3,2,10,203,41,156,,202,41,195,,208,39,148,,205,30,227,*68
$BDGSV,3,3,10,201,25,121,,212,17,212,*69
$GAGSV,1,1,04,102,68,066,,136,56,082,,130,47,310,,125,20,103,*69
$GPGSA,A,3,01,07,08,13,17,28,30,,,,,,1.5,0.9,1.2*3F
$GNGSA,A,3,01,07,08,13,17,28,30,,,,,,1.5,0.9,1.2*21
$GNGSA,A,3,68,75,76,85,86,,,,,,,,1.5,0.9,1.2*2C
$QZGSA,A,3,03,,,,,,,,,,,,1.5,0.9,1.2*23
$IMGSA,A,3,,,,,,,,,,,,,1.5,0.9,1.2*2F
$BDGSA,A,3,229,,,,,,,,,,,,1.5,0.9,1.2*14
$GAGSA,A,3,,,,,,,,,,,,,1.5,0.9,1.2*2D
$GPRMC,123448.00,A,4007.352474,N,09408.717712,E,054.6,135.4,190120,,,A*59
$GPGGA,123449.00,4007.341628,N,09408.731676,E,1,12,1.2,1175.4,M,-55.1,M,,*71
$GPGSV,3,1,12,07,69,168,20,30,69,291,22,11,62,100,18,28,41,294,22*77
$GPGSV,3,2,12,01,40,129,16,08,36,048,23,17,23,228,26,13,20,309,22*72
$GPGSV,3,3,12,27,04,049,,09,02,190,,15,00,330,,19,00,225,*7C
$GLGSV,2,1,08,86,58,045,23,76,57,091,19,77,52,335,,87,51,187,20*6B
$GLGSV,2,2,08,75,12,119,21,68,08,314,27,85,05,027,22,67,04,266,*69
$QZGSV,1,1,02,03,55,080,15,02,36,115,16*6D
$BDGSV,3,1,10,224,35,310,09,229,26,046,13,226,87,349,,207,59,076,*60
$BDGSV,3,2,10,203,41,156,,202,41,195,,208,39,148,,205,30,227,*68
$BDGSV,3,3,10,201,25,121,,212,17,212,*69
$GAGSV,1,1,04,102,68,066,,136,56,082,,130,47,310,,125,20,103,*69
$GPGSA,A,3,01,07,08,17,30,,,,,,,,1.8,1.0,1.5*35
$GNGSA,A,3,01,07,08,17,30,,,,,,,,1.8,1.0,1.5*2B
$GNGSA,A,3,68,75,76,85,,,,,,,,,1.8,1.0,1.5*20
$QZGSA,A,3,,,,,,,,,,,,,1.8,1.0,1.5*22
$IMGSA,A,3,,,,,,,,,,,,,1.8,1.0,1.5*2D
$BDGSA,A,3,,,,,,,,,,,,,1.8,1.0,1.5*2F
$GAGSA,A,3,,,,,,,,,,,,,1.8,1.0,1.5*2F
$GPRMC,123449.00,A,4007.341628,N,09408.731676,E,054.4,134.7,190120,,,A*56
$GPGGA,123450.00,4007.330938,N,09408.745736,E,1,11,1.2,1175.2,M,-55.1,M,,*72
$GPGSV,3,1,12,07,69,168,20,30,69,291,21,11,62,100,17,28,41,294,21*78
$GPGSV,3,2,12,01,40,129,15,08,36,048,22,17,23,228,25,13,20,309,20*71
$GPGSV,3,3,12,27,04,049,,09,02,190,,15,00,330,,19,00,225,*7C
$GLGSV,2,1,08,86,58,045,21,76,57,091,18,77,52,335,,87,51,187,19*62
$GLGSV,2,2,08,75,12,119,20,68,08,314,26,85,05,027,22,67,04,266,*69
$QZGSV,1,1,02,03,55,080,14,02,36,115,15*6F
$BDGSV,3,1,10,224,35,310,09,229,26,046,,226,87,349,,207,59,076,*62
$BDGSV,3,2,10,203,41,156,,202,41,195,,208,39,148,,205,30,227,*68
$BDGSV,3,3,10,201,25,121,,212,17,212,*69
$GAGSV,1,1,04,102,68,066,,136,56,082,,130,47,310,,125,20,103,*69
$GPGSA,A,3,01,07,08,17,30,,,,,,,,2.1,1.4,1.6*38
$GNGSA,A,3,01,07,08,17,30,,,,,,,,2.1,1.4,1.6*26
$GNGSA,A,3,68,75,76,85,,,,,,,,,2.1,1.4,1.6*2D
$QZGSA,A,3,,,,,,,,,,,,,2.1,1.4,1.6*2F
$IMGSA,A,3,,,,,,,,,,,,,2.1,1.4,1.6*20
$BDGSA,A,3,,,,,,,,,,,,,2.1,1.4,1.6*22
$GAGSA,A,3,,,,,,,,,,,,,2.1,1.4,1.6*22
$GPRMC,123450.00,A,4007.330938,N,09408.745736,E,054.9,134.7,190120,,,A*5D
$GPGGA,123451.00,4007.320170,N,09408.759944,E,1,09,1.2,1174.8,M,-55.1,M,,*72
$GPGSV,3,1,12,07,69,168,19,30,69,291,21,11,62,100,16,01,41,129,15*7A
$GPGSV,3,2,12,28,41,294,20,08,36,048,21,17,23,228,23,13,20,309,19*77
$GPGSV,3,3,12,27,04,049,,09,02,190,,15,00,330,,19,00,225,*7C
$GLGSV,2,1,08,86,58,045,20,76,57,091,17,77,52,335,,87,51,187,18*6D
$GLGSV,2,2,08,75,12,119,19,68,08,314,25,85,05,027,21,67,04,266,*63
$QZGSV,1,1,02,03,55,080,14,02,36,115,15*6F
$BDGSV,3,1,10,224,35,310,,229,26,046,,226,87,349,,207,59,076,*6B
$BDGSV,3,2,10,202,41,195,,203,41,156,,208,39,148,,205,30,227,*68
$BDGSV,3,3,10,201,25,121,,212,17,213,*68
$GAGSV,1,1,04,102,68,066,,136,56,082,,130,47,310,,125,20,103,*69
$GPGSA,A,3,01,07,08,30,,,,,,,,,3.9,2.6,2.9*3A
$GNGSA,A,3,01,07,08,30,,,,,,,,,3.9,2.6,2.9*24
$GNGSA,A,3,68,76,85,,,,,,,,,,3.9,2.6,2.9*2B
$QZGSA,A,3,,,,,,,,,,,,,3.9,2.6,2.9*2B
$IMGSA,A,3,,,,,,,,,,,,,3.9,2.6,2.9*24
$BDGSA,A,3,,,,,,,,,,,,,3.9,2.6,2.9*26
$GAGSA,A,3,,,,,,,,,,,,,3.9,2.6,2.9*26
$GPRMC,123451.00,A,4007.320170,N,09408.759944,E,055.3,135.4,190120,,,A*56
$GPGGA,123452.00,4007.309271,N,09408.773955,E,1,08,1.6,1174.2,M,-55.1,M,,*7F
$GPGSV,3,1,12,07,69,168,19,30,69,291,20,11,62,100,16,01,41,129,15*7B
$GPGSV,3,2,12,28,41,294,19,08,36,048,21,17,23,228,22,13,20,309,*74
$GPGSV,3,3,12,27,04,049,,09,02,190,,15,00,330,,19,00,225,*7C
$GLGSV,2,1,08,86,58,045,19,76,57,091,17,77,52,335,,87,51,187,17*68
$GLGSV,2,2,08,75,12,119,18,68,08,314,24,85,05,027,21,67,04,266,*63
$QZGSV,1,1,02,03,55,080,13,02,36,115,14*69
$BDGSV,3,1,10,224,35,310,08,229,26,046,,226,87,349,,207,59,076,*63
$BDGSV,3,2,10,202,41,195,,203,41,156,,208,39,148,,205,30,227,*68
$BDGSV,3,3,10,201,25,121,,212,17,213,*68
$GAGSV,1,1,04,102,68,066,,136,56,082,,130,47,310,,125,20,103,*69
$GPGSA,A,3,07,08,30,,,,,,,,,,3.9,2.5,2.9*38
$GNGSA,A,3,07,08,30,,,,,,,,,,3.9,2.5,2.9*26
$GNGSA,A,3,68,76,85,,,,,,,,,,3.9,2.5,2.9*28
$QZGSA,A,3,,,,,,,,,,,,,3.9,2.5,2.9*28
$IMGSA,A,3,,,,,,,,,,,,,3.9,2.5,2.9*27
$BDGSA,A,3,,,,,,,,,,,,,3.9,2.5,2.9*25
$GAGSA,A,3,,,,,,,,,,,,,3.9,2.5,2.9*25
$GPRMC,123452.00,A,4007.309271,N,09408.773955,E,055.6,135.6,190120,,,A*53
$GPGGA,123453.00,4007.298469,N,09408.787718,E,1,09,1.6,1174.0,M,-55.1,M,,*77
$GPGSV,3,1,12,07,69,168,18,30,69,291,19,11,62,100,15,01,41,129,14*72
$GPGSV,3,2,12,28,41,294,18,08,36,048,20,17,23,228,22,13,20,309,*74
$GPGSV,3,3,12,27,04,049,,09,02,190,,15,00,330,,19,00,225,*7C
$GLGSV,2,1,08,86,58,045,18,76,57,091,17,77,52,335,,87,51,187,16*68
$GLGSV,2,2,08,75,12,119,17,68,08,314,24,85,05,027,21,67,04,266,*6C
$QZGSV,1,1,02,03,55,080,13,02,36,115,14*69
$BDGSV,3,1,10,224,35,310,09,229,26,046,11,226,87,349,,207,59,076,*62
$BDGSV,3,2,10,202,41,195,,203,41,156,,208,39,148,,205,30,227,*68
$BDGSV,3,3,10,201,25,121,,212,17,213,*68
$GAGSV,1,1,04,102,68,066,,136,56,082,,130,47,310,,125,20,103,*69
$GPGSA,A,3,07,08,17,30,,,,,,,,,2.1,1.4,1.6*39
$GNGSA,A,3,07,08,17,30,,,,,,,,,2.1,1.4,1.6*27
$GNGSA,A,3,68,76,85,,,,,,,,,,2.1,1.4,1.6*2F
$QZGSA,A,3,,,,,,,,,,,,,2.1,1.4,1.6*2F
$IMGSA,A,3,,,,,,,,,,,,,2.1,1.4,1.6*20
$BDGSA,A,3,,,,,,,,,,,,,2.1,1.4,1.6*22
$GAGSA,A,3,,,,,,,,,,,,,2.1,1.4,1.6*22
$GPRMC,123453.00,A,4007.298469,N,09408.787718,E,055.1,134.0,190120,,,A*58
$GPGGA,123454.00,4007.287638,N,09408.802396,E,1,09,1.6,1173.7,M,-55.1,M,,*78
$GPGSV,3,1,12,07,69,168,18,30,69,291,19,11,62,100,15,01,41,129,14*72
$GPGSV,3,2,12,28,41,294,17,08,36,048,19,17,23,228,22,13,20,309,16*76
$GPGSV,3,3,12,27,04,049,,09,02,190,,15,00,330,,19,00,225,*7C
$GLGSV,2,1,08,86,58,045,17,76,57,091,16,77,52,335,,87,51,187,15*65
$GLGSV,2,2,08,75,12,119,17,68,08,314,23,85,05,027,20,67,04,266,*6A
$QZGSV,1,1,02,03,55,080,12,02,36,115,13*6F
$BDGSV,3,1,10,224,35,310,,229,26,046,10,226,87,349,,207,59,076,*6A
$BDGSV,3,2,10,202,41,195,,203,41,156,,208,39,148,,205,30,227,*68
$BDGSV,3,3,10,201,25,121,,212,17,213,*68
$GAGSV,1,1,04,102,68,066,,136,56,082,,130,47,310,,125,20,103,*69
$GPGSA,A,3,07,08,17,30,,,,,,,,,2.1,1.4,1.6*39
$GNGSA,A,3,07,08,17,30,,,,,,,,,2.1,1.4,1.6*27
$GNGSA,A,3,68,76,85,,,,,,,,,,2.1,1.4,1.6*2F
$QZGSA,A,3,,,,,,,,,,,,,2.1,1.4,1.6*2F
$IMGSA,A,3,,,,,,,,,,,,,2.1,1.4,1.6*20
$BDGSA,A,3,,,,,,,,,,,,,2.1,1.4,1.6*22
$GAGSA,A,3,,,,,,,,,,,,,2.1,1.4,1.6*22
$GPRMC,123454.00,A,4007.287638,N,09408.802396,E,056.1,134.6,190120,,,A*52
$GPGGA,123455.00,4007.276774,N,09408.816826,E,1,10,1.6,1173.6,M,-55.1,M,,*72
$GPGSV,3,1,12,07,69,168,18,30,69,291,19,11,62,100,14,01,41,129,14*73
$GPGSV,3,2,12,28,41,294,16,08,36,048,19,17,23,228,21,13,20,309,16*74
$GPGSV,3,3,12,27,04,049,,09,02,190,,15,00,330,,19,00,225,*7C
$GLGSV,2,1,08,86,58,045,16,76,57,091,16,77,52,335,,87,51,187,15*64
$GLGSV,2,2,08,75,12,119,16,68,08,314,23,85,05,027,20,67,04,266,*6B
$QZGSV,1,1,02,03,55,080,12,02,36,115,13*6F
$BDGSV,3,1,10,224,35,310,,229,26,046,10,226,87,349,,207,59,076,*6A
$BDGSV,3,2,10,202,41,195,,203,41,156,,208,39,148,,205,30,227,*68
$BDGSV,3,3,10,201,25,121,,212,17,213,*68
$GAGSV,1,1,04,102,68,066,,136,56,082,,130,47,310,,125,20,103,*69
$GPGSA,A,3,07,08,13,17,30,,,,,,,,2.1,1.4,1.6*3B
$GNGSA,A,3,07,08,13,17,30,,,,,,,,2.1,1.4,1.6*25
$GNGSA,A,3,68,76,85,,,,,,,,,,2.1,1.4,1.6*2F
$QZGSA,A,3,,,,,,,,,,,,,2.1,1.4,1.6*2F
$IMGSA,A,3,,,,,,,,,,,,,2.1,1.4,1.6*20
$BDGSA,A,3,,,,,,,,,,,,,2.1,1.4,1.6*22
$GAGSA,A,3,,,,,,,,,,,,,2.1,1.4,1.6*22
$GPRMC,123455.00,A,4007.276774,N,09408.816826,E,056.0,134.5,190120,,,A*53
$GPGGA,123456.00,4007.265995,N,09408.831145,E,1,11,1.6,1173.8,M,-55.1,M,,*74
$GPGSV,3,1,12,07,69,168,17,30,69,291,18,11,62,100,14,01,41,129,14*7D
$GPGSV,3,2,12,28,41,294,16,08,36,048,18,17,23,228,21,13,20,309,16*75
$GPGSV,3,3,12,27,04,049,,09,02,190,,15,00,330,,19,00,225,*7C
$GLGSV,2,1,08,86,58,045,16,76,57,091,16,77,52,335,08,87,51,187,14*6D
$GLGSV,2,2,08,75,12,119,16,68,08,314,22,85,05,027,19,67,04,266,*60
$QZGSV,1,1,02,03,55,080,12,02,36,115,12*6E
$BDGSV,3,1,10,224,35,310,,229,26,046,12,226,87,349,,207,59,076,*68
$BDGSV,3,2,10,202,41,195,,203,41,156,,208,39,148,,205,30,227,*68
$BDGSV,3,3,10,201,25,121,,212,17,213,*68
$GAGSV,1,1,04,102,68,066,,136,56,082,,130,47,310,,125,20,103,*69
$GPGSA,A,3,07,08,13,17,30,,,,,,,,2.0,1.3,1.5*3E
$GNGSA,A,3,07,08,13,17,30,,,,,,,,2.0,1.3,1.5*20
$GNGSA,A,3,68,76,85,,,,,,,,,,2.0,1.3,1.5*2A
$QZGSA,A,3,,,,,,,,,,,,,2.0,1.3,1.5*2A
$IMGSA,A,3,,,,,,,,,,,,,2.0,1.3,1.5*25
$BDGSA,A,3,229,,,,,,,,,,,,2.0,1.3,1.5*1E
$GAGSA,A,3,,,,,,,,,,,,,2.0,1.3,1.5*27
$GPRMC,123456.00,A,4007.265995,N,09408.831145,E,055.7,133.9,190120,,,A*55
$GPGGA,123457.00,4007.255122,N,09408.845801,E,1,11,1.6,1174.0,M,-55.1,M,,*77
$GPGSV,3,1,12,07,69,168,17,30,69,291,18,11,62,100,13,01,41,129,13*7D
$GPGSV,3,2,12,28,41,294,15,08,36,048,18,17,23,228,20,13,20,309,16*77
$GPGSV,3,3,12,27,04,049,,09,02,190,,15,00,330,,19,00,225,*7C
$GLGSV,2,1,08,86,58,045,15,76,57,091,15,77,52,335,,87,51,187,14*65
$GLGSV,2,2,08,75,12,119,15,68,08,314,22,85,05,027,20,67,04,266,*69
$QZGSV,1,1,02,03,55,080,11,02,36,115,12*6D
$BDGSV,3,1,10,224,35,310,09,229,26,046,12,226,87,349,,207,59,076,*61
$BDGSV,3,2,10,202,41,195,,203,41,156,,208,39,148,,205,30,227,*68
$BDGSV,3,3,10,201,25,121,,212,17,213,*68
$GAGSV,1,1,04,102,68,066,,136,56,082,,130,47,310,,125,20,103,*69
$GPGSA,A,3,07,08,13,17,28,30,,,,,,,3.9,2.5,2.9*36
$GNGSA,A,3,07,08,13,17,28,30,,,,,,,3.9,2.5,2.9*28
$GNGSA,A,3,68,76,85,,,,,,,,,,3.9,2.5,2.9*28
$QZGSA,A,3,,,,,,,,,,,,,3.9,2.5,2.9*28
$IMGSA,A,3,,,,,,,,,,,,,3.9,2.5,2.9*27
$BDGSA,A,3,,,,,,,,,,,,,3.9,2.5,2.9*25
$GAGSA,A,3,,,,,,,,,,,,,3.9,2.5,2.9*25
$GPRMC,123457.00,A,4007.255122,N,09408.845801,E,055.6,133.9,190120,,,A*58
$GPGGA,123458.00,4007.244244,N,09408.860543,E,1,09,2.4,1174.1,M,-55.1,M,,*7E
$GPGSV,3,1,12,07,69,168,17,30,69,291,17,11,62,100,13,01,41,129,13*72
$GPGSV,3,2,12,28,41,294,15,08,36,048,18,17,23,228,19,13,20,309,16*7D
$GPGSV,3,3,12,27,04,049,,09,02,190,,15,00,330,,19,00,225,*7C
$GLGSV,2,1,08,86,58,045,15,76,57,091,15,77,52,335,,87,51,187,13*62
$GLGSV,2,2,08,75,12,119,15,68,08,314,22,85,05,027,20,67,04,266,*69
$QZGSV,1,1,02,03,55,080,11,02,36,115,12*6D
$BDGSV,3,1,10,224,35,310,,229,26,046,12,226,87,349,,207,59,076,*68
$BDGSV,3,2,10,202,41,195,,203,41,156,,208,39,148,,205,30,227,*68
$BDGSV,3,3,10,201,25,121,,212,17,213,*68
$GAGSV,1,1,04,102,68,066,,136,56,082,,130,47,311,,125,20,103,*68
$GPGSA,A,3,07,08,13,28,30,,,,,,,,3.7,2.5,2.8*3F
$GNGSA,A,3,07,08,13,28,30,,,,,,,,3.7,2.5,2.8*21
$GNGSA,A,3,68,85,,,,,,,,,,,3.7,2.5,2.8*26
$QZGSA,A,3,,,,,,,,,,,,,3.7,2.5,2.8*27
$IMGSA,A,3,,,,,,,,,,,,,3.7,2.5,2.8*28
$BDGSA,A,3,,,,,,,,,,,,,3.7,2.5,2.8*2A
$GAGSA,A,3,,,,,,,,,,,,,3.7,2.5,2.8*2A
$GPRMC,123458.00,A,4007.244244,N,09408.860543,E,055.7,133.7,190120,,,A*57
$GPGGA,123459.00,4007.233609,N,09408.875231,E,1,09,1.6,1174.3,M,-55.1,M,,*77
$GPGSV,3,1,12,07,69,168,17,30,69,291,17,11,62,100,12,01,41,129,13*73
$GPGSV,3,2,12,28,41,294,15,08,36,048,17,17,23,228,18,13,20,309,15*70
$GPGSV,3,3,12,27,04,049,,09,02,190,,15,00,330,,19,00,225,*7C
$GLGSV,2,1,08,86,58,045,14,76,57,091,14,77,52,335,08,87,51,187,13*6A
$GLGSV,2,2,08,75,12,119,14,68,08,314,21,85,05,027,19,67,04,266,*61
$QZGSV,1,1,02,03,55,080,11,02,36,115,*6E
$BDGSV,3,1,10,224,35,310,09,229,26,046,12,226,87,349,,207,59,076,*61
$BDGSV,3,2,10,202,41,195,,203,41,156,,208,39,148,,205,30,227,*68
$BDGSV,3,3,10,201,25,121,,212,17,213,*68
$GAGSV,1,1,04,102,68,066,,136,56,082,,130,47,311,,125,20,103,*68
$GPGSA,A,3,07,08,13,28,30,,,,,,,,4.0,2.6,3.1*34
$GNGSA,A,3,07,08,13,28,30,,,,,,,,4.0,2.6,3.1*2A
$GNGSA,A,3,68,85,,,,,,,,,,,4.0,2.6,3.1*2D
$QZGSA,A,3,,,,,,,,,,,,,4.0,2.6,3.1*2C
$IMGSA,A,3,,,,,,,,,,,,,4.0,2.6,3.1*23
$BDGSA,A,3,,,,,,,,,,,,,4.0,2.6,3.1*21
$GAGSA,A,3,,,,,,,,,,,,,4.0,2.6,3.1*21
$GPRMC,123459.00,A,4007.233609,N,09408.875231,E,055.3,133.5,190120,,,A*5B
$GPGGA,123500.00,4007.223106,N,09408.890170,E,1,10,3.2,1174.5,M,-55.1,M,,*76
$GPGSV,3,1,12,07,69,168,16,30,69,291,17,11,62,100,12,01,41,129,13*72
$GPGSV,3,2,12,28,41,294,15,08,36,048,17,17,23,228,18,13,20,309,15*70
$GPGSV,3,3,12,27,04,049,,09,02,190,,15,00,330,,19,00,225,*7C
$GLGSV,2,1,08,86,58,045,14,76,57,091,14,77,52,335,08,87,51,187,12*6B
$GLGSV,2,2,08,75,12,119,14,68,08,314,21,85,05,027,19,67,04,266,*61
$QZGSV,1,1,02,03,55,080,10,02,36,115,*6F
$BDGSV,3,1,10,224,35,310,,229,26,046,12,226,87,349,,207,59,076,*68
$BDGSV,3,2,10,202,41,195,,203,41,156,,208,39,148,,205,30,227,*68
$BDGSV,3,3,10,201,25,121,,212,17,213,*68
$GAGSV,1,1,04,102,68,066,,136,56,082,,130,47,311,,125,20,103,*68
$GPGSA,A,3,07,08,13,17,28,30,,,,,,,3.7,2.5,2.8*39
$GNGSA,A,3,07,08,13,17,28,30,,,,,,,3.7,2.5,2.8*27
$GNGSA,A,3,68,85,,,,,,,,,,,3.7,2.5,2.8*26
$QZGSA,A,3,,,,,,,,,,,,,3.7,2.5,2.8*27
$IMGSA,A,3,,,,,,,,,,,,,3.7,2.5,2.8*28
$BDGSA,A,3,,,,,,,,,,,,,3.7,2.5,2.8*2A
$GAGSA,A,3,,,,,,,,,,,,,3.7,2.5,2.8*2A
$GPRMC,123500.00,A,4007.223106,N,09408.890170,E,,,190120,,,A*55
$GPGGA,123501.00,4007.212620,N,09408.904973,E,1,10,1.6,1174.7,M,-55.1,M,,*75
$GPGSV,3,1,12,07,69,168,16,30,69,291,16,11,62,100,12,01,41,129,13*73
$GPGSV,3,2,12,28,41,294,18,08,36,048,16,17,23,228,17,13,20,309,15*73
$GPGSV,3,3,12,27,04,049,,09,02,190,,15,00,330,,19,00,225,*7C
$GLGSV,2,1,08,86,58,045,13,76,57,091,13,77,52,335,09,87,51,187,12*6A
$GLGSV,2,2,08,75,12,119,13,68,08,314,21,85,05,027,19,67,04,266,*66
$QZGSV,1,1,02,03,55,080,,02,36,115,*6E
$BDGSV,3,1,10,224,35,310,09,229,26,046,11,226,87,349,,207,59,076,*62
$BDGSV,3,2,10,202,41,195,,203,41,156,,208,39,148,,205,30,227,*68
$BDGSV,3,3,10,201,25,121,,212,17,213,*68
$GAGSV,1,1,04,102,68,066,,136,56,082,,130,47,311,,125,20,103,*68
$GPGSA,A,3,07,08,13,17,28,30,,,,,,,1.9,1.2,1.4*3E
$GNGSA,A,3,07,08,13,17,28,30,,,,,,,1.9,1.2,1.4*20
$GNGSA,A,3,68,85,,,,,,,,,,,1.9,1.2,1.4*21
$QZGSA,A,3,,,,,,,,,,,,,1.9,1.2,1.4*20
$IMGSA,A,3,,,,,,,,,,,,,1.9,1.2,1.4*2F
$BDGSA,A,3,,,,,,,,,,,,,1.9,1.2,1.4*2D
$GAGSA,A,3,,,,,,,,,,,,,1.9,1.2,1.4*2D
$GPRMC,123501.00,A,4007.212620,N,09408.904973,E,055.6,133.3,190120,,,A*56
$GPGGA,123502.00,4007.201961,N,09408.919560,E,1,10,1.6,1174.9,M,-55.1,M,,*72
$GPGSV,3,1,12,07,69,168,16,30,69,291,16,11,62,100,11,01,41,129,13*70
$GPGSV,3,2,12,28,41,294,18,08,36,048,16,17,23,228,17,13,20,309,15*73
$GPGSV,3,3,12,27,04,049,,09,02,190,,15,00,330,,19,00,225,*7C
$GLGSV,2,1,08,86,58,045,13,76,57,091,13,77,52,335,09,87,51,187,12*6A
$GLGSV,2,2,08,75,11,119,13,68,08,314,21,85,05,027,19,67,04,266,*65
$QZGSV,1,1,02,03,55,080,10,02,36,115,*6F
$BDGSV,3,1,10,224,35,310,09,229,26,046,12,226,87,349,,207,59,076,*61
$BDGSV,3,2,10,202,41,195,,203,41,156,,208,39,148,,205,30,227,*68
$BDGSV,3,3,10,201,25,121,,212,17,213,*68
$GAGSV,1,1,04,102,68,066,,136,56,082,,130,48,311,,125,20,103,*67
$GPGSA,A,3,01,07,08,13,17,28,30,,,,,,1.9,1.3,1.4*3E
$GNGSA,A,3,01,07,08,13,17,28,30,,,,,,1.9,1.3,1.4*20
$GNGSA,A,3,68,85,,,,,,,,,,,1.9,1.3,1.4*20
$QZGSA,A,3,,,,,,,,,,,,,1.9,1.3,1.4*21
$IMGSA,A,3,,,,,,,,,,,,,1.9,1.3,1.4*2E
$BDGSA,A,3,,,,,,,,,,,,,1.9,1.3,1.4*2C
$GAGSA,A,3,,,,,,,,,,,,,1.9,1.3,1.4*2C
$GPRMC,123502.00,A,4007.201961,N,09408.919560,E,055.2,133.5,190120,,,A*5D
$GPGGA,123503.00,4007.191221,N,09408.934376,E,1,10,2.4,1175.1,M,-55.1,M,,*70
$GPGSV,3,1,12,07,69,168,16,30,69,291,16,11,62,100,11,01,41,129,12*71
$GPGSV,3,2,12,28,41,294,18,08,36,048,16,17,23,228,17,13,20,309,15*73
$GPGSV,3,3,12,27,04,049,,09,02,190,,15,00,330,,19,00,225,*7C
$GLGSV,2,1,08,86,58,045,12,76,57,091,12,77,52,335,09,87,51,187,11*69
$GLGSV,2,2,08,75,11,119,12,68,08,314,20,85,05,027,19,67,04,266,*65
$QZGSV,1,1,02,03,55,080,09,02,36,115,10*66
$BDGSV,3,1,10,224,35,310,09,229,26,046,,226,87,349,,207,59,076,*62
$BDGSV,3,2,10,202,41,195,,203,41,156,,208,39,148,,205,30,227,*68
$BDGSV,3,3,10,201,25,121,,212,17,213,*68
$GAGSV,1,1,04,102,68,066,,136,56,082,,130,48,311,,125,20,103,*67
$GPGSA,A,3,01,07,08,13,17,28,30,,,,,,1.9,1.2,1.4*3F
$GNGSA,A,3,01,07,08,13,17,28,30,,,,,,1.9,1.2,1.4*21
$GNGSA,A,3,68,85,,,,,,,,,,,1.9,1.2,1.4*21
$QZGSA,A,3,,,,,,,,,,,,,1.9,1.2,1.4*20
$IMGSA,A,3,,,,,,,,,,,,,1.9,1.2,1.4*2F
$BDGSA,A,3,,,,,,,,,,,,,1.9,1.2,1.4*2D
$GAGSA,A,3,,,,,,,,,,,,,1.9,1.2,1.4*2D
$GPRMC,123503.00,A,4007.191221,N,09408.934376,E,055.5,133.8,190120,,,A*5D
$GPGGA,123504.00,4007.180637,N,09408.948715,E,1,09,2.4,1175.3,M,-55.1,M,,*74
$GPGSV,3,1,12,07,69,168,15,30,69,291,16,11,62,100,11,01,41,129,12*72
$GPGSV,3,2,12,28,41,294,20,08,36,048,19,17,23,228,17,13,20,309,15*77
$GPGSV,3,3,12,27,04,049,,09,02,190,,15,00,330,,19,00,225,*7C
$GLGSV,2,1,08,86,58,045,12,76,57,091,12,77,52,335,08,87,51,187,11*68
$GLGSV,2,2,08,75,11,119,12,68,08,314,20,85,05,027,21,67,04,266,*6E
$QZGSV,1,1,02,03,55,080,,02,36,115,10*6F
$BDGSV,3,1,10,224,35,310,12,229,26,046,,226,87,349,,207,59,076,*68
$BDGSV,3,2,10,202,41,195,,203,41,156,,208,39,148,,205,30,227,*68
$BDGSV,3,3,10,201,25,121,,212,17,213,*68
$GAGSV,1,1,04,102,68,066,,136,56,082,,130,48,311,,125,20,103,*67
$GPGSA,A,3,07,08,13,17,28,30,,,,,,,1.9,1.2,1.4*3E
$GNGSA,A,3,07,08,13,17,28,30,,,,,,,1.9,1.2,1.4*20
$GNGSA,A,3,68,85,,,,,,,,,,,1.9,1.2,1.4*21
$QZGSA,A,3,,,,,,,,,,,,,1.9,1.2,1.4*20
$IMGSA,A,3,,,,,,,,,,,,,1.9,1.2,1.4*2F
$BDGSA,A,3,,,,,,,,,,,,,1.9,1.2,1.4*2D
$GAGSA,A,3,,,,,,,,,,,,,1.9,1.2,1.4*2D
$GPRMC,123504.00,A,4007.180637,N,09408.948715,E,054.7,133.1,190120,,,A*59
$GPGGA,123505.00,4007.169779,N,09408.962509,E,1,10,3.2,1175.4,M,-55.1,M,,*76
$GPGSV,3,1,12,07,69,168,15,30,69,291,15,11,62,100,11,01,41,129,12*71
$GPGSV,3,2,12,28,41,294,21,08,36,048,20,17,23,228,16,13,20,309,15*7D
$GPGSV,3,3,12,27,04,049,,09,02,190,,15,00,330,,19,00,225,*7C
$GLGSV,2,1,08,86,58,045,11,76,57,092,12,77,52,335,,87,51,187,11*60
$GLGSV,2,2,08,75,11,119,,68,08,313,20,85,05,027,22,67,04,266,*69
$QZGSV,1,1,02,03,55,080,,02,36,115,10*6F
$BDGSV,3,1,10,224,35,310,,229,26,046,11,226,87,349,,207,59,076,*6B
$BDGSV,3,2,10,202,41,195,,203,41,156,,208,39,148,,205,30,227,*68
$BDGSV,3,3,10,201,25,121,,212,17,213,*68
$GAGSV,1,1,04,102,68,066,,136,56,082,,130,48,311,,125,20,103,*67
$GPGSA,A,3,07,08,13,17,28,30,,,,,,,3.7,2.5,2.8*39
$GNGSA,A,3,07,08,13,17,28,30,,,,,,,3.7,2.5,2.8*27
$GNGSA,A,3,68,85,,,,,,,,,,,3.7,2.5,2.8*26
$QZGSA,A,3,,,,,,,,,,,,,3.7,2.5,2.8*27
$IMGSA,A,3,,,,,,,,,,,,,3.7,2.5,2.8*28
$BDGSA,A,3,,,,,,,,,,,,,3.7,2.5,2.8*2A
$GAGSA,A,3,,,,,,,,,,,,,3.7,2.5,2.8*2A
$GPRMC,123505.00,A,4007.169779,N,09408.962509,E,055.7,134.5,190120,,,A*51
$GPGGA,123506.00,4007.158689,N,09408.976365,E,1,09,3.2,1175.5,M,-55.1,M,,*79
$GPGSV,3,1,12,07,69,168,15,30,69,291,15,11,62,100,12,01,41,129,12*72
$GPGSV,3,2,12,28,41,294,21,08,36,048,20,17,23,228,16,13,20,309,14*7C
$GPGSV,3,3,12,27,04,049,,09,02,190,,15,00,330,,19,00,225,*7C
$GLGSV,2,1,08,86,58,045,11,76,57,092,12,77,52,335,,87,52,187,12*60
$GLGSV,2,2,08,75,11,119,,68,08,313,19,85,05,027,22,67,04,266,*63
$QZGSV,1,1,02,03,55,080,,02,36,115,10*6F
$BDGSV,3,1,10,224,35,310,11,229,26,046,,226,87,349,,207,59,076,*6B
$BDGSV,3,2,10,202,41,195,,203,41,156,,208,39,148,,205,30,227,*68
$BDGSV,3,3,10,201,25,121,,212,17,213,*68
$GAGSV,1,1,04,102,68,066,,136,56,082,,130,48,311,,125,20,103,*67
$GPGSA,A,3,07,08,13,17,28,30,,,,,,,3.7,2.5,2.8*39
$GNGSA,A,3,07,08,13,17,28,30,,,,,,,3.7,2.5,2.8*27
$GNGSA,A,3,68,85,,,,,,,,,,,3.7,2.5,2.8*26
$QZGSA,A,3,,,,,,,,,,,,,3.7,2.5,2.8*27
$IMGSA,A,3,,,,,,,,,,,,,3.7,2.5,2.8*28
$BDGSA,A,3,,,,,,,,,,,,,3.7,2.5,2.8*2A
$GAGSA,A,3,,,,,,,,,,,,,3.7,2.5,2.8*2A
$GPRMC,123506.00,A,4007.158689,N,09408.976365,E,,,190120,,,A*53
$GPGGA,123507.00,4007.147657,N,09408.990123,E,1,11,1.6,1175.4,M,-55.1,M,,*73
$GPGSV,3,1,12,07,69,168,15,30,69,291,15,11,62,100,12,01,41,129,12*72
$GPGSV,3,2,12,28,41,294,21,08,36,048,20,17,23,228,16,13,20,309,14*7C
$GPGSV,3,3,12,27,04,049,,09,02,190,,15,00,330,,19,00,225,*7C
$GLGSV,2,1,08,86,58,045,11,76,57,092,11,77,52,335,,87,52,187,11*60
$GLGSV,2,2,08,75,11,119,,68,08,313,19,85,05,027,22,67,04,266,*63
$QZGSV,1,1,02,03,55,080,,02,36,115,10*6F
$BDGSV,3,1,10,224,35,310,12,229,26,046,,226,87,349,,207,59,076,*68
$BDGSV,3,2,10,202,41,195,,203,41,156,,208,39,148,,205,30,227,*68
$BDGSV,3,3,10,201,25,121,,212,17,213,*68
$GAGSV,1,1,04,102,68,066,,136,56,082,,130,48,311,,125,20,103,*67
$GPGSA,A,3,07,08,13,17,28,30,,,,,,,2.0,1.4,1.5*33
$GNGSA,A,3,07,08,13,17,28,30,,,,,,,2.0,1.4,1.5*2D
$GNGSA,A,3,68,85,,,,,,,,,,,2.0,1.4,1.5*2C
$QZGSA,A,3,,,,,,,,,,,,,2.0,1.4,1.5*2D
$IMGSA,A,3,,,,,,,,,,,,,2.0,1.4,1.5*22
$BDGSA,A,3,224,,,,,,,,,,,,2.0,1.4,1.5*14
$GAGSA,A,3,,,,,,,,,,,,,2.0,1.4,1.5*20
$GPRMC,123507.00,A,4007.147657,N,09408.990123,E,,,190120,,,A*57
$GPGGA,123508.00,4007.137645,N,09409.005179,E,1,10,2.4,1175.8,M,-55.1,M,,*7F
$GPGSV,3,1,12,07,69,168,15,30,69,291,15,11,62,100,12,01,41,129,11*71
$GPGSV,3,2,12,28,41,294,21,08,36,048,20,17,23,228,16,13,20,309,14*7C
$GPGSV,3,3,12,27,04,049,,09,02,190,,15,00,330,,19,00,225,*7C
$GLGSV,2,1,08,86,58,045,11,76,57,092,11,77,52,335,,87,52,187,12*63
$GLGSV,2,2,08,75,11,119,,68,08,313,19,85,05,027,23,67,04,266,*62
$QZGSV,1,1,02,03,55,080,,02,36,115,10*6F
$BDGSV,3,1,10,224,35,310,18,229,26,046,10,226,87,349,,207,59,076,*63
$BDGSV,3,2,10,202,41,195,,203,41,156,,208,39,148,,205,30,227,*68
$BDGSV,3,3,10,201,25,121,,212,17,213,*68
$GAGSV,1,1,04,102,68,066,,136,56,082,,130,48,311,,125,20,103,*67
$GPGSA,A,3,07,08,17,28,30,,,,,,,,1.9,1.3,1.4*3D
$GNGSA,A,3,07,08,17,28,30,,,,,,,,1.9,1.3,1.4*23
$GNGSA,A,3,68,85,,,,,,,,,,,1.9,1.3,1.4*20
$QZGSA,A,3,,,,,,,,,,,,,1.9,1.3,1.4*21
$IMGSA,A,3,,,,,,,,,,,,,1.9,1.3,1.4*2E
$BDGSA,A,3,224,,,,,,,,,,,,1.9,1.3,1.4*18
$GAGSA,A,3,,,,,,,,,,,,,1.9,1.3,1.4*2C
$GPRMC,123508.00,A,4007.137645,N,09409.005179,E,054.5,134.6,190120,,,A*53
$GPGGA,123509.00,4007.127953,N,09409.020713,E,1,11,2.4,1176.1,M,-55.1,M,,*71
$GPGSV,3,1,12,07,69,168,14,30,69,291,15,11,62,099,12,01,41,129,11*71
$GPGSV,3,2,12,28,41,294,21,08,36,048,20,17,23,228,26,13,20,309,14*7F
$GPGSV,3,3,12,27,04,049,,09,02,190,,15,00,330,,19,00,225,*7C
$GLGSV,2,1,08,86,58,045,11,76,57,092,11,77,52,335,,87,52,187,12*63
$GLGSV,2,2,08,75,11,119,,68,08,313,19,85,05,027,23,67,04,266,*62
$QZGSV,1,1,02,03,55,080,,02,36,115,10*6F
$BDGSV,3,1,10,224,35,310,17,229,26,046,,226,87,350,,207,59,076,*65
$BDGSV,3,2,10,202,41,195,,203,41,156,,208,39,148,,205,30,227,*68
$BDGSV,3,3,10,201,25,121,,212,17,213,*68
$GAGSV,1,1,04,102,68,066,,136,56,082,,130,48,311,,125,20,104,*60
$GPGSA,A,3,07,08,17,28,30,,,,,,,,1.9,1.3,1.4*3D
$GNGSA,A,3,07,08,17,28,30,,,,,,,,1.9,1.3,1.4*23
$GNGSA,A,3,68,85,87,,,,,,,,,,1.9,1.3,1.4*2F
$QZGSA,A,3,,,,,,,,,,,,,1.9,1.3,1.4*21
$IMGSA,A,3,,,,,,,,,,,,,1.9,1.3,1.4*2E
$BDGSA,A,3,224,,,,,,,,,,,,1.9,1.3,1.4*18
$GAGSA,A,3,,,,,,,,,,,,,1.9,1.3,1.4*2C
$GPRMC,123509.00,A,4007.127953,N,09409.020713,E,054.7,133.5,190120,,,A*50
$GPGGA,123510.00,4007.117618,N,09409.035240,E,1,09,2.4,1176.4,M,-55.1,M,,*71
$GPGSV,3,1,12,07,69,168,14,30,69,291,15,11,62,099,12,01,41,129,11*71
$GPGSV,3,2,12,28,41,294,21,08,36,048,20,17,23,228,25,13,20,309,13*7B
$GPGSV,3,3,12,27,04,049,,09,02,190,,15,00,330,,19,00,225,*7C
$GLGSV,2,1,08,86,58,045,11,76,57,092,11,77,52,335,,87,52,187,12*63
$GLGSV,2,2,08,75,11,119,,68,08,313,18,85,05,027,22,67,04,266,*62
$QZGSV,1,1,02,03,55,080,,02,36,115,09*67
$BDGSV,3,1,10,224,35,310,16,229,26,046,,226,87,350,,207,59,076,*64
$BDGSV,3,2,10,202,41,195,,203,41,156,,208,39,148,,205,30,227,*68
$BDGSV,3,3,10,201,25,121,,212,17,213,*68
$GAGSV,1,1,04,102,68,066,,136,56,082,,130,48,311,,125,20,104,*60
$GPGSA,A,3,07,08,17,28,30,,,,,,,,1.9,1.3,1.4*3D
$GNGSA,A,3,07,08,17,28,30,,,,,,,,1.9,1.3,1.4*23
$GNGSA,A,3,68,85,,,,,,,,,,,1.9,1.3,1.4*20
$QZGSA,A,3,,,,,,,,,,,,,1.9,1.3,1.4*21
$IMGSA,A,3,,,,,,,,,,,,,1.9,1.3,1.4*2E
$BDGSA,A,3,,,,,,,,,,,,,1.9,1.3,1.4*2C
$GAGSA,A,3,,,,,,,,,,,,,1.9,1.3,1.4*2C
$GPRMC,123510.00,A,4007.117618,N,09409.035240,E,055.2,133.4,190120,,,A*59
$GPGGA,123511.00,4007.107677,N,09409.049478,E,1,11,2.4,1176.9,M,-55.1,M,,*7A
$GPGSV,3,1,12,07,69,168,14,30,69,290,16,11,62,099,12,01,41,129,*73
$GPGSV,3,2,12,28,41,294,21,08,36,048,20,17,23,228,26,13,20,309,13*78
$GPGSV,3,3,12,27,04,049,,09,02,190,,15,00,330,,19,00,225,*7C
$GLGSV,2,1,08,86,58,045,12,76,57,092,11,77,52,335,,87,52,187,12*60
$GLGSV,2,2,08,75,11,119,,68,08,313,18,85,05,027,22,67,04,266,*62
$QZGSV,1,1,02,03,55,080,,02,36,115,*6E
$BDGSV,3,1,10,224,35,310,16,229,26,046,,226,87,350,,207,59,076,*64
$BDGSV,3,2,10,202,41,195,,203,41,156,,208,39,148,,205,30,227,*68
$BDGSV,3,3,10,201,25,121,,212,17,213,*68
$GAGSV,1,1,04,102,68,066,,136,56,082,,130,48,311,,125,20,104,*60
$GPGSA,A,3,07,08,17,28,30,,,,,,,,1.9,1.3,1.4*3D
$GNGSA,A,3,07,08,17,28,30,,,,,,,,1.9,1.3,1.4*23
$GNGSA,A,3,68,85,,,,,,,,,,,1.9,1.3,1.4*20
$QZGSA,A,3,,,,,,,,,,,,,1.9,1.3,1.4*21
$IMGSA,A,3,,,,,,,,,,,,,1.9,1.3,1.4*2E
$BDGSA,A,3,224,,,,,,,,,,,,1.9,1.3,1.4*18
$GAGSA,A,3,,,,,,,,,,,,,1.9,1.3,1.4*2C
$GPRMC,123511.00,A,4007.107677,N,09409.049478,E,054.0,132.7,190120,,,A*57
$GPGGA,123512.00,4007.099178,N,09409.065220,E,1,11,1.6,1177.4,M,-55.1,M,,*7F
$GPGSV,3,1,12,07,69,168,14,30,69,290,19,11,62,099,12,01,41,129,10*7D
$GPGSV,3,2,12,28,41,294,22,08,36,048,19,17,23,228,26,13,20,309,13*71
$GPGSV,3,3,12,27,04,049,,09,02,190,,15,00,329,,19,00,225,*74
$GLGSV,2,1,08,86,58,045,12,76,57,092,11,77,52,335,08,87,52,187,12*68
$GLGSV,2,2,08,75,11,119,,68,08,313,18,85,05,027,21,67,04,266,*61
$QZGSV,1,1,02,03,55,080,,02,36,115,*6E
$BDGSV,3,1,10,224,35,310,16,229,26,046,,226,87,350,,207,59,076,*64
$BDGSV,3,2,10,202,41,195,,203,41,156,,208,39,148,,205,30,227,*68
$BDGSV,3,3,10,201,25,121,,212,17,213,*68
$GAGSV,1,1,04,102,68,066,,136,56,082,,130,48,311,,125,20,104,*60
$GPGSA,A,3,07,08,17,28,30,,,,,,,,2.2,1.4,1.8*3E
$GNGSA,A,3,07,08,17,28,30,,,,,,,,2.2,1.4,1.8*20
$GNGSA,A,3,68,85,,,,,,,,,,,2.2,1.4,1.8*23
$QZGSA,A,3,,,,,,,,,,,,,2.2,1.4,1.8*22
$IMGSA,A,3,,,,,,,,,,,,,2.2,1.4,1.8*2D
$BDGSA,A,3,224,,,,,,,,,,,,2.2,1.4,1.8*1B
$GAGSA,A,3,,,,,,,,,,,,,2.2,1.4,1.8*2F
$GPRMC,123512.00,A,4007.099178,N,09409.065220,E,054.5,133.3,190120,,,A*5F
$GPGGA,123513.00,4007.090486,N,09409.081334,E,1,11,1.6,1177.6,M,-55.1,M,,*7F
$GPGSV,3,1,12,07,69,168,14,30,69,290,20,11,62,099,11,01,41,129,*75
$GPGSV,3,2,12,28,41,294,23,08,36,048,20,17,23,228,28,13,20,309,13*74
$GPGSV,3,3,12,27,04,049,,09,02,190,,15,00,329,,19,00,225,*74
$GLGSV,2,1,08,86,58,045,12,76,57,092,10,77,52,335,08,87,52,187,12*69
$GLGSV,2,2,08,75,11,119,,68,08,313,17,85,05,027,21,67,04,266,*6E
$QZGSV,1,1,02,03,55,080,,02,36,115,*6E
$BDGSV,3,1,10,224,35,310,16,229,26,046,09,226,87,350,,207,59,076,*6D
$BDGSV,3,2,10,202,41,195,,203,41,156,,208,39,148,,205,30,227,*68
$BDGSV,3,3,10,201,25,121,,212,17,213,*68
$GAGSV,1,1,04,102,68,067,,136,56,082,,130,48,311,,125,20,104,*61
$GPGSA,A,3,07,08,13,17,28,30,,,,,,,1.9,1.3,1.4*3F
$GNGSA,A,3,07,08,13,17,28,30,,,,,,,1.9,1.3,1.4*21
$GNGSA,A,3,68,85,,,,,,,,,,,1.9,1.3,1.4*20
$QZGSA,A,3,,,,,,,,,,,,,1.9,1.3,1.4*21
$IMGSA,A,3,,,,,,,,,,,,,1.9,1.3,1.4*2E
$BDGSA,A,3,224,,,,,,,,,,,,1.9,1.3,1.4*18
$GAGSA,A,3,,,,,,,,,,,,,1.9,1.3,1.4*2C
$GPRMC,123513.00,A,4007.090486,N,09409.081334,E,055.5,133.1,190120,,,A*5E
$GPGGA,123514.00,4007.080719,N,09409.095443,E,1,10,1.6,1177.7,M,-55.1,M,,*7E
$GPGSV,3,1,12,07,69,168,14,30,69,290,21,11,62,099,11,01,41,129,*74
$GPGSV,3,2,12,28,41,294,24,08,36,048,21,17,23,228,31,13,20,309,13*7A
$GPGSV,3,3,12,27,04,049,,09,02,190,,15,00,329,,19,00,225,*74
$GLGSV,2,1,08,86,58,045,12,76,57,092,10,77,52,335,,87,52,187,12*61
